time,x_sphinx,y_sphinx,z_sphinx,vx_sphinx,vy_sphinx,vz_sphinx,roll_sphinx,pitch_sphinx,yaw_sphinx,x_anafi,y_anafi,z_anafi,vx_anafi,vy_anafi,vz_anafi,roll_anafi,pitch_anafi,yaw_anafi,wp_x,wp_y,wp_z,wp_vx,wp_vy,wp_vz,wp_yaw
1738776198125439882,-0.06143,-3.42,7.023,3.193,-0.0787,0.000289,-0.3467,0.0382,-0.09467,-0.1991,-3.129,7.0,3.074,0.1172,-0.0,-0.3445,0.04684,-0.00885,2.99,-0.2493,7.0,0.2493,2.99,0.0,0.0
1738776198175430774,0.0917,-3.42,7.023,3.186,0.0903,-0.00162,-0.3516,0.0267,-0.0949,-0.006786,-3.102,7.004,3.043,0.3438,-0.0,-0.35,0.02982,-0.008865,3.0,0.0,7.0,-0.0,3.0,0.0,0.0
1738776198225445985,0.2568,-3.41,7.023,3.17,0.2737,-0.005054,-0.356,0.01695,-0.0949,0.1156,-3.102,7.004,3.023,0.4844,-0.0,-0.354,0.02113,-0.008865,3.0,0.0,7.0,-0.0,3.0,0.0,0.0
1738776198275461912,0.4087,-3.393,7.023,3.152,0.443,-0.00828,-0.3586,0.00706,-0.0951,0.2031,-3.076,7.004,3.004,0.59,-0.0,-0.3564,0.01578,-0.008804,2.984,0.2996,7.0,-0.2996,2.984,0.0,0.0
1738776198325473785,0.5723,-3.365,7.023,3.13,0.627,-0.01043,-0.3608,-0.002436,-0.0952,0.378,-3.102,7.004,2.957,0.789,-0.003906,-0.3596,0.002594,-0.008896,2.984,0.2996,7.0,-0.2996,2.984,0.0,0.0
1738776198375489473,0.734,-3.328,7.023,3.102,0.8096,-0.01243,-0.361,-0.01567,-0.09546,0.5703,-3.049,7.004,2.906,1.012,-0.007812,-0.3613,-0.01051,-0.00905,2.94,0.596,7.0,-0.596,2.94,0.0,0.0
1738776198425452470,0.8823,-3.285,7.023,3.07,0.976,-0.013374,-0.3604,-0.02724,-0.09546,0.6753,-2.996,7.004,2.867,1.152,-0.007812,-0.361,-0.0214,-0.008995,2.94,0.596,7.0,-0.596,2.94,0.0,0.0
1738776198475430488,1.065,-3.22,7.023,3.025,1.181,-0.014755,-0.3552,-0.04535,-0.0956,0.7627,-2.969,7.004,2.84,1.254,-0.007812,-0.3606,-0.0283,-0.008965,2.865,0.8867,7.0,-0.8867,2.865,0.0,0.0
1738776198525444507,1.174,-3.176,7.02,2.992,1.301,-0.014854,-0.352,-0.055,-0.0956,0.9375,-2.943,7.004,2.773,1.441,-0.007812,-0.3547,-0.04767,-0.00909,2.865,0.8867,7.0,-0.8867,2.865,0.0,0.0
1738776198575461864,1.34,-3.098,7.02,2.934,1.483,-0.015175,-0.3445,-0.0716,-0.09576,1.112,-2.863,7.004,2.691,1.648,-0.007812,-0.348,-0.0656,-0.00908,2.764,1.168,7.0,-1.168,2.764,0.0,0.0
1738776198625462532,1.479,-3.021,7.02,2.879,1.634,-0.01471,-0.3384,-0.08417,-0.09576,1.218,-2.783,7.004,2.633,1.773,-0.007812,-0.342,-0.0775,-0.009125,2.764,1.168,7.0,-1.168,2.764,0.0,0.0
1738776198675452947,1.615,-2.94,7.02,2.818,1.78,-0.01444,-0.3296,-0.0991,-0.0959,1.305,-2.73,7.004,2.59,1.863,-0.007812,-0.3384,-0.085,-0.00904,2.633,1.438,7.0,-1.438,2.633,0.0,0.0
1738776198725498914,1.76,-2.844,7.02,2.744,1.932,-0.01277,-0.3208,-0.11383,-0.0959,1.462,-2.678,7.0,2.496,2.023,-0.007812,-0.3262,-0.10516,-0.009224,2.633,1.438,7.0,-1.438,2.633,0.0,0.0
1738776198775570154,1.9,-2.738,7.016,2.664,2.076,-0.012,-0.311,-0.1307,-0.09607,1.619,-2.545,7.0,2.383,2.203,-0.003906,-0.315,-0.1239,-0.00919,2.477,1.694,7.0,-1.694,2.477,0.0,0.0
1738776198825517892,2.027,-2.637,7.016,2.582,2.205,-0.01094,-0.3032,-0.1447,-0.096,1.725,-2.465,7.0,2.309,2.305,-0.003906,-0.3076,-0.1372,-0.00916,2.477,1.694,7.0,-1.694,2.477,0.0,0.0
1738776198875520229,2.148,-2.527,7.016,2.496,2.328,-0.010284,-0.291,-0.1594,-0.09607,1.795,-2.387,7.0,2.25,2.379,-0.003906,-0.303,-0.1454,-0.00911,2.295,1.933,7.0,-1.933,2.295,0.0,0.0
1738776198925491571,2.275,-2.402,7.016,2.395,2.451,-0.008415,-0.279,-0.1737,-0.0962,1.952,-2.307,7.0,2.129,2.508,-0.0,-0.2861,-0.1649,-0.00917,2.295,1.933,7.0,-1.933,2.295,0.0,0.0
1738776198975803613,2.396,-2.271,7.016,2.285,2.568,-0.007454,-0.267,-0.1926,-0.0964,2.074,-2.148,7.0,1.984,2.645,-0.0,-0.2717,-0.1843,-0.00947,2.09,2.152,7.0,-2.152,2.09,0.0,0.0
1738776199025512218,2.504,-2.146,7.016,2.178,2.672,-0.00625,-0.2576,-0.2084,-0.09625,2.162,-2.041,7.0,1.891,2.727,-0.0,-0.2627,-0.1996,-0.00943,2.09,2.152,7.0,-2.152,2.09,0.0,0.0
1738776199075506925,2.615,-2.004,7.016,2.055,2.773,-0.005245,-0.2423,-0.2223,-0.0963,2.215,-1.936,7.0,1.816,2.781,-0.0,-0.257,-0.2089,-0.00923,1.865,2.35,7.0,-2.35,1.865,0.0,0.0
1738776199125491857,2.71,-1.869,7.016,1.935,2.861,-0.003956,-0.2297,-0.2323,-0.09644,2.354,-1.829,7.0,1.668,2.875,-0.0,-0.2378,-0.2256,-0.00933,1.865,2.35,7.0,-2.35,1.865,0.0,0.0
1738776199175539970,2.807,-1.719,7.016,1.801,2.95,-0.00201,-0.2168,-0.2443,-0.0965,2.459,-1.696,7.0,1.582,2.95,-0.0,-0.228,-0.2334,-0.009636,1.621,2.523,7.0,-2.523,1.621,0.0,0.0
1738776199225521802,2.89,-1.575,7.016,1.673,3.023,4e-06,-0.2068,-0.2542,-0.0965,2.582,-1.484,7.0,1.418,3.043,-0.0,-0.2123,-0.248,-0.00965,1.621,2.523,7.0,-2.523,1.621,0.0,0.0
1738776199275502920,2.967,-1.428,7.016,1.541,3.092,0.000595,-0.1925,-0.2686,-0.0965,2.635,-1.405,7.0,1.332,3.082,0.003906,-0.2063,-0.254,-0.0097,1.36,2.674,7.0,-2.674,1.36,0.0,0.0
1738776199325537204,3.043,-1.266,7.016,1.39,3.156,0.00227,-0.1781,-0.2834,-0.0965,2.738,-1.272,6.996,1.164,3.14,0.003906,-0.1866,-0.2732,-0.009796,1.36,2.674,7.0,-2.674,1.36,0.0,0.0
1738776199375603199,3.107,-1.113,7.016,1.244,3.209,0.0034,-0.1626,-0.298,-0.09656,2.791,-1.14,6.996,1.043,3.18,0.003906,-0.1761,-0.2842,-0.00984,1.087,2.797,7.0,-2.797,1.087,0.0,0.0
1738776199425509214,3.168,-0.9443,7.016,1.08,3.26,0.004223,-0.1477,-0.312,-0.0965,2.844,-0.9277,6.996,0.836,3.23,0.007812,-0.155,-0.304,-0.009834,1.087,2.797,7.0,-2.797,1.087,0.0,0.0
1738776199475638628,3.215,-0.787,7.016,0.9233,3.297,0.00443,-0.1311,-0.3228,-0.09644,2.861,-0.848,6.996,0.754,3.246,0.007812,-0.1483,-0.3103,-0.00987,0.8027,2.89,7.0,-2.89,0.8027,0.0,0.0
1738776199525586843,3.258,-0.6147,7.016,0.7485,3.33,0.005157,-0.1151,-0.3318,-0.0965,2.967,-0.6895,6.996,0.543,3.266,0.007812,-0.12463,-0.3254,-0.00985,0.8027,2.89,7.0,-2.89,0.8027,0.0,0.0
1738776199575561285,3.291,-0.4543,7.016,0.585,3.352,0.00553,-0.098,-0.3384,-0.09644,2.984,-0.477,6.996,0.3203,3.281,0.007812,-0.104,-0.3352,-0.009995,0.51,2.957,7.0,-2.957,0.51,0.0,0.0
1738776199625532627,3.316,-0.2795,7.016,0.4048,3.367,0.00551,-0.0818,-0.3438,-0.0965,3.002,-0.3445,6.996,0.1797,3.285,0.007812,-0.0898,-0.3403,-0.0099,0.51,2.957,7.0,-2.957,0.51,0.0,0.0
1738776199675480842,3.332,-0.11786,7.016,0.2372,3.373,0.00538,-0.06555,-0.3481,-0.0964,3.002,-0.2385,6.996,0.09375,3.281,0.007812,-0.08246,-0.3428,-0.01009,0.2122,2.992,7.0,-2.992,0.2122,0.0,0.0
1738776199725505828,3.34,0.05753,7.016,0.054,3.371,0.006332,-0.05035,-0.3516,-0.09644,3.053,-0.0794,6.996,-0.1211,3.258,0.007812,-0.05923,-0.3486,-0.01018,0.2122,2.992,7.0,-2.992,0.2122,0.0,0.0
1738776199775490283,3.338,0.2191,7.016,-0.1159,3.363,0.007572,-0.03488,-0.355,-0.0964,3.053,0.05316,6.996,-0.2617,3.246,0.007812,-0.0481,-0.351,-0.01015,-0.0876,2.998,7.0,-2.998,-0.0876,0.0,0.0
1738776199825488328,3.326,0.3936,7.016,-0.3005,3.346,0.00892,-0.02036,-0.358,-0.09644,3.02,0.2654,6.996,-0.4922,3.207,0.007812,-0.02733,-0.3557,-0.01,-0.0876,2.998,7.0,-2.998,-0.0876,0.0,0.0
1738776199875497579,3.309,0.5537,7.02,-0.4707,3.322,0.009514,-0.005272,-0.359,-0.0963,3.002,0.3713,6.996,-0.5977,3.188,0.007812,-0.01941,-0.3572,-0.01009,-0.3865,2.975,7.0,-2.975,-0.3865,0.0,0.0
1738776199925542354,3.28,0.7256,7.02,-0.654,3.291,0.0104,0.00907,-0.359,-0.0964,3.035,0.5303,6.996,-0.797,3.133,0.01172,0.0007234,-0.358,-0.01031,-0.3865,2.975,7.0,-2.975,-0.3865,0.0,0.0
1738776199975577116,3.244,0.883,7.02,-0.821,3.256,0.01117,0.02414,-0.357,-0.09625,3.002,0.663,6.996,-0.918,3.102,0.01172,0.009964,-0.358,-0.01049,-0.6816,2.922,7.0,-2.922,-0.6816,0.0,0.0
1738776200025526762,3.195,1.051,7.02,-0.999,3.209,0.01123,0.03854,-0.354,-0.09625,2.932,0.875,6.996,-1.156,3.023,0.01172,0.03162,-0.3545,-0.01049,-0.6816,2.922,7.0,-2.922,-0.6816,0.0,0.0
1738776200075433969,3.145,1.204,7.02,-1.159,3.158,0.01128,0.05374,-0.348,-0.0961,2.896,0.9546,6.996,-1.254,2.984,0.01172,0.0395,-0.353,-0.01046,-0.9697,2.84,7.0,-2.84,-0.9697,0.0,0.0
1738776200125471591,3.08,1.366,7.02,-1.328,3.098,0.01133,0.06854,-0.341,-0.0961,2.879,1.141,6.996,-1.4375,2.898,0.01172,0.0598,-0.3442,-0.010315,-0.9697,2.84,7.0,-2.84,-0.9697,0.0,0.0
1738776200175436258,3.012,1.514,7.02,-1.479,3.033,0.01164,0.0872,-0.3347,-0.096,2.773,1.326,6.996,-1.637,2.8,0.01172,0.08026,-0.336,-0.0102,-1.248,2.729,7.0,-2.729,-1.248,0.0,0.0
1738776200225443601,2.93,1.669,7.023,-1.637,2.955,0.011765,0.1056,-0.3286,-0.0961,2.703,1.432,6.996,-1.754,2.73,0.01172,0.09644,-0.3306,-0.01023,-1.248,2.729,7.0,-2.729,-1.248,0.0,0.0
1738776200275448799,2.848,1.809,7.023,-1.778,2.875,0.01248,0.1216,-0.3184,-0.096,2.65,1.512,6.996,-1.844,2.676,0.01172,0.1063,-0.3271,-0.01038,-1.515,2.59,7.0,-2.59,-1.515,0.0,0.0
1738776200325445175,2.752,1.956,7.023,-1.923,2.78,0.01279,0.1362,-0.3074,-0.096,2.6,1.671,6.996,-1.996,2.559,0.01172,0.1274,-0.3127,-0.01014,-1.515,2.59,7.0,-2.59,-1.515,0.0,0.0
1738776200375469207,2.656,2.088,7.023,-2.05,2.686,0.01337,0.1538,-0.2986,-0.09595,2.512,1.776,6.996,-2.102,2.477,0.01172,0.1384,-0.3052,-0.010284,-1.766,2.426,7.0,-2.426,-1.766,0.0,0.0
1738776200425435304,2.547,2.225,7.023,-2.184,2.576,0.01396,0.1708,-0.2908,-0.09607,2.371,1.936,6.996,-2.258,2.328,0.01172,0.1624,-0.2935,-0.01022,-1.766,2.426,7.0,-2.426,-1.766,0.0,0.0
1738776200475423336,2.44,2.346,7.023,-2.3,2.469,0.01507,0.1837,-0.2805,-0.096,2.3,2.016,6.996,-2.328,2.258,0.01563,0.1714,-0.289,-0.01038,-1.999,2.236,7.0,-2.236,-1.999,0.0,0.0
1738776200525429725,2.316,2.47,7.027,-2.42,2.348,0.01563,0.1953,-0.2703,-0.09595,2.215,2.148,6.996,-2.45,2.113,0.01563,0.1882,-0.2751,-0.0102,-1.999,2.236,7.0,-2.236,-1.999,0.0,0.0
1738776200575433492,2.197,2.58,7.027,-2.523,2.23,0.01624,0.211,-0.2588,-0.0959,2.11,2.227,6.996,-2.531,2.008,0.01563,0.197,-0.2673,-0.010315,-2.213,2.027,7.0,-2.027,-2.213,0.0,0.0
1738776200625459671,2.062,2.693,7.027,-2.627,2.096,0.01616,0.2269,-0.2471,-0.0959,1.952,2.36,6.996,-2.652,1.836,0.01563,0.2189,-0.2517,-0.010284,-2.213,2.027,7.0,-2.027,-2.213,0.0,0.0
1738776200675430059,1.935,2.791,7.027,-2.717,1.968,0.01654,0.2394,-0.2334,-0.0959,1.864,2.412,6.996,-2.707,1.754,0.01563,0.2273,-0.2452,-0.01027,-2.404,1.796,7.0,-1.796,-2.404,0.0,0.0
1738776200725507497,1.803,2.88,7.027,-2.799,1.834,0.01611,0.2495,-0.2208,-0.09576,1.76,2.545,6.996,-2.79,1.582,0.01563,0.2434,-0.2267,-0.010155,-2.404,1.796,7.0,-1.796,-2.404,0.0,0.0
1738776200775454998,1.632,2.986,7.03,-2.893,1.662,0.01598,0.2634,-0.204,-0.0958,1.637,2.625,6.996,-2.848,1.465,0.01563,0.2515,-0.2167,-0.010254,-2.57,1.547,7.0,-1.547,-2.57,0.0,0.0
1738776200825528621,1.503,3.057,7.03,-2.953,1.532,0.01558,0.2722,-0.1931,-0.09576,1.444,2.705,6.996,-2.93,1.27,0.01563,0.2666,-0.1984,-0.01023,-2.57,1.547,7.0,-1.547,-2.57,0.0,0.0
1738776200875530958,1.36,3.127,7.03,-3.014,1.388,0.01545,0.2812,-0.1805,-0.09576,1.357,2.758,6.996,-2.96,1.176,0.01563,0.2725,-0.1912,-0.01035,-2.713,1.282,7.0,-1.282,-2.713,0.0,0.0
1738776200925534963,1.201,3.193,7.03,-3.07,1.228,0.01543,0.2896,-0.1688,-0.0957,1.218,2.863,6.996,-3.008,0.996,0.01563,0.2842,-0.1743,-0.010284,-2.713,1.282,7.0,-1.282,-2.713,0.0,0.0
1738776200975446224,1.053,3.25,7.03,-3.12,1.077,0.01528,0.2993,-0.155,-0.0957,1.095,2.89,6.996,-3.04,0.867,0.01563,0.2903,-0.1655,-0.01024,-2.826,1.005,7.0,-1.005,-2.826,0.0,0.0
1738776201025515556,0.8896,3.3,7.035,-3.162,0.91,0.0144,0.3086,-0.1421,-0.09564,0.9023,2.943,6.996,-3.082,0.66,0.01172,0.3035,-0.147,-0.01018,-2.826,1.005,7.0,-1.005,-2.826,0.0,0.0
1738776201075436830,0.737,3.342,7.035,-3.195,0.753,0.014435,0.319,-0.1266,-0.0956,0.815,2.969,6.996,-3.098,0.5586,0.01172,0.3086,-0.14,-0.01017,-2.912,0.718,7.0,-0.718,-2.912,0.0,0.0
1738776201125438928,0.57,3.375,7.035,-3.225,0.578,0.01398,0.329,-0.1108,-0.0954,0.6577,3.049,6.996,-3.113,0.3672,0.01172,0.3223,-0.11884,-0.010056,-2.912,0.718,7.0,-0.718,-2.912,0.0,0.0
1738776201175433635,0.4148,3.398,7.035,-3.242,0.4136,0.01501,0.3367,-0.09344,-0.0954,0.535,3.049,6.996,-3.121,0.2305,0.01172,0.3296,-0.1072,-0.01004,-2.97,0.4233,7.0,-0.4233,-2.97,0.0,0.0
1738776201225448131,0.2458,3.416,7.035,-3.254,0.2328,0.01508,0.343,-0.07666,-0.0952,0.3254,3.076,6.996,-3.121,0.003906,0.01172,0.3394,-0.0836,-0.01004,-2.97,0.4233,7.0,-0.4233,-2.97,0.0,0.0
1738776201275429725,0.08954,3.424,7.04,-3.258,0.06506,0.01482,0.346,-0.06213,-0.09534,0.238,3.076,6.996,-3.117,-0.09375,0.01172,0.3428,-0.0745,-0.009926,-2.998,0.12476,7.0,-0.12476,-2.998,0.0,0.0
1738776201325446844,-0.0798,3.422,7.04,-3.254,-0.11566,0.01237,0.3477,-0.04913,-0.0954,0.0632,3.129,7.0,-3.098,-0.293,0.01172,0.3457,-0.0553,-0.01001,-2.998,0.12476,7.0,-0.12476,-2.998,0.0,0.0
1738776201375437974,-0.2487,3.41,7.04,-3.244,-0.296,0.00953,0.3508,-0.03378,-0.0956,-0.05927,3.102,7.0,-3.078,-0.4336,0.01172,0.3472,-0.04572,-0.010124,-2.994,-0.1752,7.0,0.1752,-2.994,0.0,0.0
1738776201425447702,-0.404,3.393,7.04,-3.227,-0.462,0.005894,0.3538,-0.02087,-0.0956,-0.269,3.076,7.0,-3.043,-0.6562,0.007812,0.3513,-0.0265,-0.01023,-2.994,-0.1752,7.0,0.1752,-2.994,0.0,0.0
1738776201475435495,-0.5586,3.367,7.04,-3.205,-0.628,0.00343,0.3545,-0.00348,-0.09564,-0.3564,3.049,7.0,-3.023,-0.758,0.003906,0.353,-0.01877,-0.01028,-2.963,-0.4731,7.0,0.4731,-2.963,0.0,0.0
1738776201525457859,-0.724,3.328,7.04,-3.172,-0.8066,0.000267,0.3545,0.01421,-0.09534,-0.5312,3.076,7.0,-2.973,-0.953,-0.0,0.3535,0.005,-0.01033,-2.963,-0.4731,7.0,0.4731,-2.963,0.0,0.0
1738776201575427770,-0.888,3.281,7.04,-3.133,-0.984,-0.001639,0.3533,0.02983,-0.09534,-0.654,3.023,7.0,-2.934,-1.086,-0.0,0.3535,0.01776,-0.01007,-2.9,-0.7666,7.0,0.7666,-2.9,0.0,0.0
1738776201625424385,-1.05,3.227,7.04,-3.086,-1.158,-0.003696,0.3518,0.04233,-0.09534,-0.8286,2.943,7.0,-2.86,-1.305,-0.0,0.352,0.0365,-0.01008,-2.9,-0.7666,7.0,0.7666,-2.9,0.0,0.0
1738776201675415992,-1.209,3.162,7.04,-3.033,-1.33,-0.00556,0.348,0.05664,-0.09534,-0.916,2.916,7.0,-2.824,-1.402,-0.0,0.351,0.04346,-0.01027,-2.809,-1.053,7.0,1.053,-2.809,0.0,0.0
1738776201725430965,-1.354,3.094,7.04,-2.979,-1.484,-0.006256,0.3447,0.0683,-0.0953,-1.091,2.89,7.0,-2.746,-1.582,-0.003906,0.346,0.06094,-0.010216,-2.809,-1.053,7.0,1.053,-2.809,0.0,0.0
1738776201775439023,-1.495,3.02,7.04,-2.92,-1.636,-0.007057,0.341,0.0843,-0.0953,-1.196,2.838,7.0,-2.695,-1.691,-0.003906,0.3438,0.06915,-0.01017,-2.69,-1.327,7.0,1.327,-2.69,0.0,0.0
1738776201825545072,-1.622,2.943,7.04,-2.86,-1.772,-0.007935,0.3384,0.0971,-0.0951,-1.371,2.705,7.0,-2.59,-1.902,-0.003906,0.3386,0.09186,-0.01015,-2.69,-1.327,7.0,1.327,-2.69,0.0,0.0
1738776201875451326,-1.769,2.848,7.04,-2.781,-1.931,-0.007423,0.3323,0.11487,-0.09515,-1.458,2.652,7.0,-2.54,-1.992,-0.003906,0.3367,0.1003,-0.01004,-2.545,-1.59,7.0,1.59,-2.545,0.0,0.0
1738776201925453662,-1.911,2.742,7.035,-2.695,-2.084,-0.006863,0.326,0.1305,-0.095,-1.615,2.572,7.0,-2.434,-2.152,-0.003906,0.3286,0.12213,-0.01014,-2.545,-1.59,7.0,1.59,-2.545,0.0,0.0
1738776201975428581,-2.04,2.64,7.035,-2.611,-2.219,-0.005444,0.315,0.1471,-0.0951,-1.703,2.52,7.0,-2.363,-2.246,-0.003906,0.3245,0.1322,-0.00997,-2.373,-1.836,7.0,1.836,-2.373,0.0,0.0
1738776202025747537,-2.172,2.521,7.035,-2.51,-2.36,-0.005306,0.3044,0.162,-0.0949,-1.86,2.334,7.0,-2.219,-2.434,-0.0,0.3086,0.1558,-0.00997,-2.373,-1.836,7.0,1.836,-2.373,0.0,0.0
1738776202075527906,-2.29,2.404,7.035,-2.412,-2.48,-0.004784,0.293,0.1753,-0.0951,-1.931,2.281,7.0,-2.152,-2.508,-0.0,0.303,0.1638,-0.0099,-2.178,-2.062,7.0,2.062,-2.178,0.0,0.0
1738776202125535249,-2.412,2.271,7.035,-2.299,-2.605,-0.004635,0.2815,0.1886,-0.09503,-2.088,2.174,7.0,-2.02,-2.633,-0.0,0.287,0.1815,-0.01021,-2.178,-2.062,7.0,2.062,-2.178,0.0,0.0
1738776202175519466,-2.52,2.145,7.035,-2.19,-2.713,-0.004486,0.267,0.2072,-0.0951,-2.176,2.068,7.0,-1.926,-2.719,-0.0,0.2786,0.1917,-0.01026,-1.961,-2.27,7.0,2.27,-1.961,0.0,0.0
1738776202225522279,-2.63,2.0,7.035,-2.06,-2.82,-0.00512,0.2534,0.2256,-0.09485,-2.297,1.883,7.0,-1.758,-2.848,-0.0,0.2595,0.2169,-0.01021,-1.961,-2.27,7.0,2.27,-1.961,0.0,0.0
1738776202275475025,-2.727,1.862,7.035,-1.934,-2.914,-0.004353,0.2366,0.2455,-0.0949,-2.35,1.803,7.0,-1.68,-2.902,-0.0,0.2517,0.2272,-0.010185,-1.725,-2.455,7.0,2.455,-1.725,0.0,0.0
1738776202325457811,-2.816,1.721,7.035,-1.798,-2.998,-0.003653,0.2222,0.263,-0.09454,-2.508,1.671,7.0,-1.523,-2.992,-0.0,0.2292,0.2532,-0.0102,-1.725,-2.455,7.0,2.455,-1.725,0.0,0.0
1738776202375444173,-2.904,1.5625,7.035,-1.643,-3.08,-0.002033,0.2053,0.283,-0.0945,-2.543,1.564,7.0,-1.414,-3.043,-0.0,0.2194,0.2654,-0.01004,-1.471,-2.615,7.0,2.615,-1.471,0.0,0.0
1738776202425487279,-2.98,1.413,7.035,-1.49,-3.148,-0.002295,0.192,0.2979,-0.0941,-2.596,1.485,7.0,-1.324,-3.082,-0.0,0.2095,0.2769,-0.01015,-1.471,-2.615,7.0,2.615,-1.471,0.0,0.0
1738776202475540637,-3.053,1.247,7.035,-1.321,-3.213,-0.001722,0.1711,0.3037,-0.0941,-2.682,1.272,7.0,-1.094,-3.164,-0.0,0.1891,0.2998,-0.00985,-1.202,-2.748,7.0,2.748,-1.202,0.0,0.0
1738776202525506496,-3.113,1.092,7.035,-1.165,-3.264,-0.000336,0.1539,0.3057,-0.094,-2.787,1.113,7.0,-0.8984,-3.207,-0.0,0.1626,0.3057,-0.00961,-1.202,-2.748,7.0,2.748,-1.202,0.0,0.0
1738776202575530052,-3.168,0.921,7.035,-0.995,-3.307,0.000516,0.1364,0.3076,-0.094,-2.822,0.981,7.0,-0.7656,-3.234,-0.0,0.1489,0.3071,-0.00967,-0.922,-2.855,7.0,2.855,-0.922,0.0,0.0
1738776202625537395,-3.213,0.7617,7.035,-0.839,-3.34,0.000432,0.1234,0.309,-0.09393,-2.875,0.769,7.0,-0.551,-3.266,-0.0,0.128,0.3093,-0.00959,-0.922,-2.855,7.0,2.855,-0.922,0.0,0.0
1738776202675508975,-3.254,0.5737,7.035,-0.6562,-3.367,5.3e-05,0.1059,0.313,-0.09406,-2.875,0.6895,7.0,-0.4648,-3.273,-0.0,0.1216,0.3103,-0.009674,-0.6323,-2.932,7.0,2.932,-0.6323,0.0,0.0
1738776202725555896,-3.281,0.4253,7.035,-0.5127,-3.383,-0.000412,0.0945,0.3162,-0.0939,-2.963,0.504,7.0,-0.2617,-3.277,-0.0,0.1001,0.3147,-0.009926,-0.6323,-2.932,7.0,2.932,-0.6323,0.0,0.0
1738776202775564193,-3.303,0.249,7.035,-0.3413,-3.395,-0.000512,0.0795,0.32,-0.0938,-2.98,0.398,7.0,-0.1484,-3.277,-0.0,0.0913,0.317,-0.0099,-0.3364,-2.98,7.0,2.98,-0.3364,0.0,0.0
1738776202825546264,-3.314,0.08594,7.035,-0.1824,-3.398,-0.000822,0.0678,0.3232,-0.0937,-2.98,0.1592,7.0,0.08203,-3.27,-0.0,0.0717,0.3223,-0.0096,-0.3364,-2.98,7.0,2.98,-0.3364,0.0,0.0
1738776202875511646,-3.32,-0.09076,7.035,-0.00988,-3.395,-0.001456,0.05127,0.3257,-0.0937,-2.98,0.07965,7.0,0.1797,-3.262,-0.0,0.0646,0.3242,-0.009476,-0.03717,-3.0,7.0,3.0,-0.03717,0.0,0.0
1738776202925532579,-3.316,-0.2534,7.035,0.149,-3.385,-0.002884,0.0377,0.3271,-0.09357,-3.031,-0.1059,7.0,0.3672,-3.234,-0.0,0.044,0.3267,-0.009636,-0.03717,-3.0,7.0,3.0,-0.03717,0.0,0.0
1738776202975602388,-3.305,-0.429,7.035,0.3208,-3.367,-0.005463,0.01962,0.3308,-0.09357,-3.016,-0.2385,7.0,0.496,-3.21,-0.0,0.0329,0.328,-0.00961,0.2625,-2.988,7.0,2.988,0.2625,0.0,0.0
1738776203025567770,-3.283,-0.6035,7.035,0.4934,-3.34,-0.00881,0.004265,0.3337,-0.09344,-2.963,-0.4507,7.004,0.711,-3.164,-0.0,0.01045,0.3325,-0.00971,0.2625,-2.988,7.0,2.988,0.2625,0.0,0.0
1738776203075488805,-3.256,-0.763,7.035,0.6523,-3.309,-0.0111,-0.00976,0.3335,-0.09344,-2.945,-0.5303,7.004,0.793,-3.145,-0.003906,0.003479,0.334,-0.00948,0.5596,-2.947,7.0,2.947,0.5596,0.0,0.0
1738776203125505447,-3.22,-0.921,7.03,0.81,-3.27,-0.012276,-0.02126,0.3323,-0.0933,-2.963,-0.716,7.0,0.9883,-3.074,-0.007812,-0.01625,0.333,-0.00921,0.5596,-2.947,7.0,2.947,0.5596,0.0,0.0
1738776203175542831,-3.174,-1.09,7.03,0.9785,-3.223,-0.01299,-0.03653,0.329,-0.0934,-2.928,-0.822,7.004,1.102,-3.04,-0.007812,-0.02444,0.3323,-0.009,0.851,-2.877,7.0,2.877,0.851,0.0,0.0
1738776203225576400,-3.123,-1.243,7.03,1.13,-3.174,-0.01437,-0.04892,0.326,-0.0934,-2.84,-1.034,7.004,1.32,-2.95,-0.007812,-0.04465,0.3276,-0.00913,0.851,-2.877,7.0,2.877,0.851,0.0,0.0
1738776203275530099,-3.06,-1.406,7.03,1.291,-3.113,-0.0162,-0.0662,0.322,-0.09344,-2.805,-1.113,7.004,1.41,-2.91,-0.007812,-0.05215,0.3257,-0.009186,1.134,-2.777,7.0,2.777,1.134,0.0,0.0
1738776203325549125,-2.994,-1.555,7.03,1.4375,-3.049,-0.01738,-0.0809,0.319,-0.0934,-2.787,-1.299,7.004,1.578,-2.82,-0.01172,-0.07355,0.3206,-0.009186,1.134,-2.777,7.0,2.777,1.134,0.0,0.0
1738776203375555038,-2.916,-1.711,7.027,1.592,-2.97,-0.01756,-0.107,0.3135,-0.0935,-2.717,-1.405,7.004,1.691,-2.754,-0.01172,-0.0863,0.318,-0.009125,1.405,-2.65,7.0,2.65,1.405,0.0,0.0
1738776203425535202,-2.836,-1.852,7.027,1.731,-2.889,-0.01671,-0.1289,0.3088,-0.0934,-2.596,-1.591,7.004,1.875,-2.637,-0.01172,-0.1195,0.311,-0.00904,1.405,-2.65,7.0,2.65,1.405,0.0,0.0
1738776203475536108,-2.734,-2.01,7.027,1.89,-2.78,-0.015495,-0.1544,0.3025,-0.0935,-2.543,-1.67,7.004,1.957,-2.574,-0.01172,-0.1324,0.308,-0.00904,1.663,-2.496,7.0,2.496,1.663,0.0,0.0
1738776203525541305,-2.64,-2.14,7.027,2.021,-2.676,-0.01402,-0.1715,0.2974,-0.0935,-2.49,-1.829,7.0,2.102,-2.438,-0.007812,-0.1613,0.3005,-0.00896,1.663,-2.496,7.0,2.496,1.663,0.0,0.0
1738776203575536966,-2.549,-2.256,7.027,2.139,-2.574,-0.01282,-0.1849,0.288,-0.0937,-2.42,-1.909,7.0,2.191,-2.355,-0.007812,-0.1732,0.2966,-0.008965,1.904,-2.318,7.0,2.318,1.904,0.0,0.0
1738776203625528573,-2.434,-2.387,7.023,2.27,-2.451,-0.01106,-0.197,0.277,-0.09357,-2.246,-2.068,7.0,2.36,-2.176,-0.003906,-0.1932,0.282,-0.00885,1.904,-2.318,7.0,2.318,1.904,0.0,0.0
1738776203675535440,-2.312,-2.512,7.023,2.39,-2.322,-0.01014,-0.2087,0.2622,-0.0937,-2.176,-2.148,7.0,2.426,-2.098,-0.003906,-0.1997,0.2756,-0.00895,2.127,-2.117,7.0,2.117,2.127,0.0,0.0
1738776203725552558,-2.195,-2.62,7.023,2.496,-2.2,-0.00832,-0.2177,0.2496,-0.0936,-2.088,-2.307,7.0,2.54,-1.9375,-0.003906,-0.2137,0.2566,-0.00886,2.127,-2.117,7.0,2.117,2.127,0.0,0.0
1738776203775548219,-2.062,-2.73,7.023,2.6,-2.062,-0.007053,-0.2292,0.236,-0.09375,-2.0,-2.387,7.0,2.613,-1.828,-0.0,-0.221,0.2467,-0.00879,2.326,-1.894,7.0,1.894,2.326,0.0,0.0
1738776203825603723,-1.936,-2.826,7.023,2.69,-1.934,-0.006386,-0.2383,0.225,-0.09375,-1.931,-2.412,7.0,2.66,-1.758,-0.0,-0.2266,0.2401,-0.008804,2.326,-1.894,7.0,1.894,2.326,0.0,0.0
1738776203875559091,-1.793,-2.924,7.023,2.777,-1.79,-0.006405,-0.2478,0.2087,-0.0939,-1.738,-2.545,7.0,2.773,-1.559,-0.0,-0.2405,0.2233,-0.008896,2.504,-1.652,7.0,1.652,2.504,0.0,0.0
1738776203925596475,-1.658,-3.006,7.023,2.852,-1.654,-0.005093,-0.256,0.1956,-0.0938,-1.615,-2.678,7.0,2.848,-1.387,-0.0,-0.252,0.2028,-0.008705,2.504,-1.652,7.0,1.652,2.504,0.0,0.0
1738776203975646495,-1.52,-3.082,7.023,2.918,-1.514,-0.00512,-0.276,0.1835,-0.09406,-1.511,-2.73,7.0,2.895,-1.27,-0.0,-0.2598,0.1924,-0.008675,2.656,-1.394,7.0,1.394,2.656,0.0,0.0
1738776204025573730,-1.366,-3.156,7.023,2.984,-1.352,-0.0051,-0.2964,0.1727,-0.094,-1.318,-2.81,7.0,2.965,-1.066,-0.0,-0.288,0.1769,-0.00874,2.656,-1.394,7.0,1.394,2.656,0.0,0.0
1738776204075530290,-1.209,-3.223,7.023,3.043,-1.182,-0.00427,-0.309,0.1565,-0.0943,-1.214,-2.836,7.0,2.992,-0.9688,-0.0,-0.2986,0.1709,-0.00869,2.783,-1.122,7.0,1.122,2.783,0.0,0.0
1738776204125551700,-1.062,-3.275,7.023,3.09,-1.021,-0.002155,-0.3167,0.1425,-0.09436,-1.091,-2.943,7.0,3.031,-0.7734,-0.0,-0.313,0.1501,-0.008736,2.783,-1.122,7.0,1.122,2.783,0.0,0.0
1738776204175533771,-0.9,-3.324,7.023,3.133,-0.845,-0.000645,-0.3245,0.1262,-0.09467,-0.9688,-2.969,7.0,3.055,-0.6367,-0.0,-0.3188,0.1389,-0.00887,2.88,-0.8384,7.0,0.8384,2.88,0.0,0.0
1738776204225556850,-0.7485,-3.36,7.023,3.166,-0.681,0.000498,-0.33,0.1133,-0.0946,-0.759,-2.996,7.0,3.086,-0.4102,0.003906,-0.3284,0.11884,-0.00893,2.88,-0.8384,7.0,0.8384,2.88,0.0,0.0
1738776204275516510,-0.5835,-3.39,7.023,3.193,-0.5024,0.00025,-0.3342,0.0991,-0.0947,-0.6714,-3.021,7.0,3.094,-0.3047,0.003906,-0.3313,0.1112,-0.00888,2.95,-0.5464,7.0,0.5464,2.95,0.0,0.0
1738776204325542449,-0.4297,-3.41,7.023,3.21,-0.3374,1.1e-05,-0.3372,0.0881,-0.0947,-0.514,-3.102,7.0,3.098,-0.1094,0.003906,-0.3357,0.0937,-0.0088,2.95,-0.5464,7.0,0.5464,2.95,0.0,0.0
