time,x_sphinx,y_sphinx,z_sphinx,vx_sphinx,vy_sphinx,vz_sphinx,roll_sphinx,pitch_sphinx,yaw_sphinx,x_anafi,y_anafi,z_anafi,vx_anafi,vy_anafi,vz_anafi,roll_anafi,pitch_anafi,yaw_anafi,wp_x,wp_y,wp_z,wp_vx,wp_vy,wp_vz,wp_yaw
1738832994364882946,2.363,-0.3857,6.977,0.1752,1.126,0.00343,-0.03445,-0.06696,-0.05084,2.268,-0.3179,6.996,0.08984,1.098,0.003906,-0.0333,-0.0666,0.03464,1.999,-0.06635,7.0,0.03317,0.9995,0.0,0.0
1738832994414890289,2.371,-0.3271,6.977,0.1421,1.13,0.004143,-0.03397,-0.0669,-0.05096,2.268,-0.265,6.996,0.0703,1.098,0.003906,-0.03302,-0.0667,0.0346,2.0,0.0,7.0,-0.0,1.0,0.0,0.0
1738832994464887380,2.377,-0.273,6.977,0.112,1.135,0.005676,-0.03363,-0.0668,-0.05106,2.285,-0.2118,6.996,0.03125,1.098,0.007812,-0.0325,-0.0665,0.0347,2.0,0.0,7.0,-0.0,1.0,0.0,0.0
1738832994514902353,2.383,-0.2137,6.977,0.07996,1.139,0.007233,-0.0323,-0.06555,-0.05118,2.285,-0.1588,6.996,0.003906,1.102,0.007812,-0.03162,-0.0657,0.03464,1.997,0.1,7.0,-0.05,0.9985,0.0,0.0
1738832994564914226,2.385,-0.159,6.98,0.0513,1.142,0.00946,-0.03088,-0.0642,-0.05127,2.285,-0.0793,6.992,-0.03125,1.102,0.007812,-0.02979,-0.0639,0.03464,1.997,0.1,7.0,-0.05,0.9985,0.0,0.0
1738832994614901542,2.387,-0.0996,6.98,0.02133,1.144,0.01211,-0.02864,-0.062,-0.0514,2.268,-0.05276,6.992,-0.04688,1.102,0.01172,-0.02855,-0.06274,0.03458,1.99,0.1997,7.0,-0.09985,0.995,0.0,0.0
1738832994664870500,2.389,-0.04013,6.98,-0.007168,1.145,0.013824,-0.02661,-0.06012,-0.0515,2.285,0.0002728,6.992,-0.08203,1.102,0.01172,-0.02573,-0.06,0.03427,1.99,0.1997,7.0,-0.09985,0.995,0.0,0.0
1738832994714903831,2.387,0.014786,6.98,-0.03256,1.145,0.01486,-0.0253,-0.05908,-0.05157,2.268,0.0533,6.992,-0.10156,1.102,0.01563,-0.0246,-0.05908,0.03424,1.978,0.2988,7.0,-0.1494,0.989,0.0,0.0
1738832994764893770,2.385,0.0697,6.98,-0.0573,1.144,0.01585,-0.02432,-0.05835,-0.05167,2.268,0.1328,6.992,-0.1328,1.098,0.01563,-0.02327,-0.05798,0.03394,1.978,0.2988,7.0,-0.1494,0.989,0.0,0.0
1738832994814894914,2.38,0.1292,6.98,-0.08356,1.143,0.01749,-0.02248,-0.0578,-0.0517,2.268,0.1593,6.992,-0.1484,1.094,0.01563,-0.02223,-0.05765,0.0339,1.96,0.3972,7.0,-0.1986,0.98,0.0,0.0
1738832994864919662,2.377,0.184,6.984,-0.1074,1.141,0.0191,-0.02087,-0.05746,-0.05173,2.25,0.2124,6.992,-0.1797,1.09,0.01563,-0.01987,-0.0571,0.03357,1.96,0.3972,7.0,-0.1986,0.98,0.0,0.0
1738832994914904356,2.371,0.2432,6.984,-0.1329,1.138,0.0208,-0.01967,-0.0573,-0.0517,2.25,0.2654,6.992,-0.1953,1.086,0.01953,-0.01883,-0.05695,0.03354,1.9375,0.4949,7.0,-0.2474,0.9688,0.0,0.0
1738832994964894771,2.363,0.2976,6.984,-0.1561,1.135,0.02206,-0.01881,-0.05728,-0.0517,2.232,0.345,6.992,-0.2227,1.082,0.01953,-0.01788,-0.05685,0.03333,1.9375,0.4949,7.0,-0.2474,0.9688,0.0,0.0
1738832995014901399,2.354,0.3567,6.99,-0.181,1.131,0.0232,-0.01706,-0.0573,-0.05164,2.232,0.3716,6.992,-0.2383,1.078,0.01953,-0.01685,-0.0569,0.0333,1.911,0.591,7.0,-0.2954,0.9556,0.0,0.0
1738832995064886808,2.346,0.411,6.99,-0.2039,1.126,0.02312,-0.01551,-0.05746,-0.05157,2.232,0.4246,6.992,-0.2656,1.07,0.01953,-0.01459,-0.05692,0.03305,1.911,0.591,7.0,-0.2954,0.9556,0.0,0.0
1738832995114892721,2.334,0.4692,6.99,-0.2284,1.121,0.02252,-0.014336,-0.0577,-0.05148,2.215,0.4775,6.992,-0.2812,1.0625,0.01953,-0.01355,-0.0571,0.03302,1.879,0.686,7.0,-0.343,0.9395,0.0,0.0
1738832995164880275,2.322,0.523,6.99,-0.251,1.115,0.02199,-0.01351,-0.05783,-0.0514,2.197,0.557,6.992,-0.3086,1.055,0.01953,-0.01243,-0.05722,0.033,1.879,0.686,7.0,-0.343,0.9395,0.0,0.0
1738832995214879035,2.309,0.5806,6.992,-0.2754,1.109,0.02075,-0.01178,-0.0591,-0.0513,2.197,0.5835,6.992,-0.3203,1.051,0.01953,-0.01149,-0.05783,0.033,1.842,0.779,7.0,-0.3894,0.921,0.0,0.0
1738832995264880657,2.295,0.634,6.992,-0.2983,1.103,0.02043,-0.01022,-0.06046,-0.0512,2.18,0.6367,6.992,-0.3477,1.039,0.01563,-0.00936,-0.0597,0.03293,1.842,0.779,7.0,-0.3894,0.921,0.0,0.0
1738832995314878940,2.277,0.6953,6.992,-0.326,1.095,0.02032,-0.00896,-0.0628,-0.05106,2.162,0.6895,6.992,-0.3633,1.031,0.01563,-0.00835,-0.0611,0.033,1.801,0.87,7.0,-0.435,0.9004,0.0,0.0
1738832995364880084,2.262,0.743,6.992,-0.3484,1.088,0.0201,-0.00821,-0.0645,-0.05096,2.145,0.7427,6.996,-0.3906,1.023,0.01563,-0.007275,-0.0636,0.03323,1.801,0.87,7.0,-0.435,0.9004,0.0,0.0
1738832995414899826,2.244,0.8,6.996,-0.3755,1.079,0.01955,-0.006474,-0.0661,-0.05087,2.145,0.796,6.996,-0.4062,1.016,0.01563,-0.00635,-0.06476,0.0334,1.755,0.959,7.0,-0.4795,0.8774,0.0,0.0
1738832995464900016,2.225,0.851,6.996,-0.4006,1.071,0.01921,-0.00492,-0.06714,-0.0508,2.127,0.8486,6.996,-0.4336,1.004,0.01563,-0.004047,-0.0662,0.03357,1.755,0.959,7.0,-0.4795,0.8774,0.0,0.0
1738832995514907598,2.203,0.9067,6.996,-0.4287,1.062,0.01906,-0.003729,-0.06903,-0.05078,2.11,0.902,6.996,-0.4531,0.992,0.01563,-0.003038,-0.06744,0.0337,1.705,1.045,7.0,-0.5225,0.8525,0.0,0.0
1738832995564897060,2.182,0.9575,6.996,-0.455,1.052,0.01923,-0.00298,-0.0707,-0.05075,2.074,0.9546,6.996,-0.4805,0.9805,0.01563,-0.002048,-0.06976,0.03394,1.705,1.045,7.0,-0.5225,0.8525,0.0,0.0
1738832995614902496,2.158,1.012,7.0,-0.4841,1.042,0.01912,-0.002472,-0.072,-0.05078,2.074,0.9814,6.996,-0.496,0.9727,0.01563,-0.001714,-0.0706,0.03384,1.65,1.129,7.0,-0.5645,0.825,0.0,0.0
1738832995664885759,2.13,1.07,7.0,-0.5156,1.031,0.01846,-0.002123,-0.07324,-0.05075,2.04,1.034,6.996,-0.5273,0.957,0.01172,-0.001297,-0.0719,0.03366,1.65,1.129,7.0,-0.5645,0.825,0.0,0.0
1738832995714924573,2.107,1.115,7.0,-0.5405,1.022,0.01785,-0.00194,-0.0749,-0.05072,2.021,1.087,6.996,-0.547,0.949,0.01172,-0.001053,-0.0732,0.03348,1.592,1.21,7.0,-0.605,0.796,0.0,0.0
1738832995764928102,2.08,1.164,7.0,-0.5684,1.013,0.01743,-0.001741,-0.0766,-0.05066,1.987,1.141,6.996,-0.582,0.9336,0.01172,-0.0009146,-0.07544,0.0334,1.592,1.21,7.0,-0.605,0.796,0.0,0.0
1738832995814905643,2.049,1.216,7.004,-0.599,1.003,0.0167,-0.000431,-0.0778,-0.0506,1.97,1.167,6.996,-0.6016,0.926,0.01172,-0.0001553,-0.0764,0.03345,1.529,1.288,7.0,-0.644,0.7646,0.0,0.0
1738832995864890336,2.02,1.265,7.004,-0.6274,0.9927,0.01576,0.000891,-0.0787,-0.05054,1.935,1.246,6.996,-0.6367,0.914,0.01172,0.001639,-0.0776,0.03345,1.529,1.288,7.0,-0.644,0.7646,0.0,0.0
1738832995914914846,1.986,1.315,7.004,-0.6587,0.9814,0.015114,0.001939,-0.0793,-0.05045,1.899,1.272,6.996,-0.664,0.9023,0.007812,0.002493,-0.0781,0.0335,1.463,1.363,7.0,-0.6816,0.7314,0.0,0.0
1738832995964915990,1.954,1.362,7.004,-0.687,0.9707,0.01499,0.002691,-0.0795,-0.0504,1.864,1.326,6.996,-0.699,0.8867,0.007812,0.003433,-0.07855,0.03357,1.463,1.363,7.0,-0.6816,0.7314,0.0,0.0
1738832996014916658,1.918,1.412,7.004,-0.718,0.9585,0.01477,0.004395,-0.0797,-0.05035,1.829,1.353,6.996,-0.7188,0.879,0.007812,0.004463,-0.07874,0.0337,1.394,1.435,7.0,-0.7173,0.697,0.0,0.0
1738832996064888000,1.883,1.458,7.008,-0.7456,0.947,0.01466,0.005993,-0.0799,-0.05035,1.795,1.405,6.996,-0.758,0.8633,0.007812,0.006615,-0.07886,0.03378,1.394,1.435,7.0,-0.7173,0.697,0.0,0.0
1738832996114932537,1.843,1.507,7.008,-0.7754,0.9336,0.01451,0.00841,-0.07996,-0.0503,1.76,1.459,6.996,-0.7812,0.8516,0.007812,0.00843,-0.079,0.0337,1.32,1.503,7.0,-0.7515,0.66,0.0,0.0
1738832996164910316,1.806,1.552,7.008,-0.803,0.92,0.01471,0.0105,-0.0799,-0.0503,1.707,1.512,6.996,-0.8164,0.832,0.007812,0.0111,-0.0791,0.03387,1.32,1.503,7.0,-0.7515,0.66,0.0,0.0
1738832996214924097,1.763,1.599,7.008,-0.8325,0.9043,0.01477,0.01323,-0.07874,-0.05026,1.672,1.538,6.996,-0.836,0.8203,0.007812,0.01284,-0.0784,0.03387,1.243,1.566,7.0,-0.783,0.6216,0.0,0.0
1738832996264918804,1.723,1.642,7.008,-0.8584,0.889,0.01422,0.01544,-0.0775,-0.05026,1.62,1.591,6.996,-0.867,0.801,0.007812,0.01598,-0.0768,0.03384,1.243,1.566,7.0,-0.783,0.6216,0.0,0.0
1738832996314912319,1.677,1.6875,7.01,-0.8857,0.8716,0.013535,0.01709,-0.07544,-0.05026,1.585,1.617,6.996,-0.8906,0.785,0.007812,0.0173,-0.0753,0.0338,1.163,1.627,7.0,-0.8135,0.5815,0.0,0.0
1738832996364912986,1.634,1.7295,7.01,-0.9097,0.855,0.0132,0.01826,-0.0735,-0.05023,1.532,1.671,6.996,-0.918,0.7656,0.003906,0.01881,-0.0729,0.0337,1.163,1.627,7.0,-0.8135,0.5815,0.0,0.0
1738832996414928913,1.59,1.77,7.01,-0.932,0.8374,0.01304,0.02113,-0.07104,-0.05017,1.497,1.697,6.996,-0.9336,0.754,0.003906,0.02057,-0.07117,0.03357,1.081,1.683,7.0,-0.8413,0.5405,0.0,0.0
1738832996464928627,1.54,1.8125,7.01,-0.955,0.8174,0.01276,0.02435,-0.06854,-0.05017,1.445,1.75,7.0,-0.961,0.7266,0.003906,0.02477,-0.06793,0.03372,1.081,1.683,7.0,-0.8413,0.5405,0.0,0.0
1738832996514911651,1.49,1.8545,7.01,-0.9766,0.796,0.01241,0.02664,-0.0658,-0.0501,1.41,1.776,7.0,-0.9766,0.711,0.003906,0.02652,-0.0659,0.03394,0.995,1.734,7.0,-0.867,0.4976,0.0,0.0
1738832996564917802,1.442,1.893,7.01,-0.9946,0.7754,0.01193,0.0282,-0.06354,-0.05014,1.34,1.83,7.0,-0.996,0.6836,0.003906,0.02856,-0.0629,0.034,0.995,1.734,7.0,-0.867,0.4976,0.0,0.0
1738832996614940643,1.391,1.933,7.016,-1.014,0.7524,0.01158,0.03046,-0.06073,-0.0501,1.305,1.856,7.0,-1.008,0.672,0.003906,0.03006,-0.06113,0.03397,0.907,1.782,7.0,-0.891,0.4536,0.0,0.0
1738832996664927721,1.342,1.968,7.016,-1.029,0.7305,0.01142,0.03238,-0.05832,-0.05014,1.253,1.883,7.0,-1.027,0.6445,0.003906,0.0327,-0.0577,0.03387,0.907,1.782,7.0,-0.891,0.4536,0.0,0.0
1738832996715059280,1.288,2.006,7.016,-1.044,0.706,0.01145,0.035,-0.05545,-0.0501,1.2,1.936,7.0,-1.035,0.625,0.003906,0.03455,-0.0556,0.03375,0.817,1.825,7.0,-0.9126,0.4084,0.0,0.0
1738832996764929056,1.237,2.04,7.016,-1.058,0.682,0.01113,0.0373,-0.0531,-0.05014,1.147,1.962,7.0,-1.051,0.5977,0.003906,0.03745,-0.05246,0.0339,0.817,1.825,7.0,-0.9126,0.4084,0.0,0.0
1738832996814913749,1.187,2.07,7.016,-1.069,0.6577,0.01105,0.03992,-0.0505,-0.0501,1.095,1.989,7.0,-1.059,0.582,0.003906,0.0393,-0.05066,0.03406,0.7246,1.864,7.0,-0.932,0.3623,0.0,0.0
1738832996864938020,1.13,2.104,7.016,-1.08,0.63,0.01101,0.04242,-0.04794,-0.05014,1.043,2.016,7.0,-1.07,0.551,0.003906,0.04254,-0.04736,0.03406,0.7246,1.864,7.0,-0.932,0.3623,0.0,0.0
1738832996914923429,1.078,2.133,7.016,-1.089,0.6035,0.01091,0.04407,-0.04642,-0.05014,0.99,2.041,7.0,-1.074,0.5273,0.003906,0.04404,-0.04593,0.03406,0.631,1.898,7.0,-0.949,0.3154,0.0,0.0
1738832996964933395,1.021,2.164,7.02,-1.099,0.5747,0.0108,0.04535,-0.04526,-0.05017,0.9375,2.096,7.0,-1.082,0.496,0.003906,0.04535,-0.04465,0.03406,0.631,1.898,7.0,-0.949,0.3154,0.0,0.0
1738832997014904260,0.9683,2.191,7.02,-1.106,0.5474,0.0112,0.04718,-0.04352,-0.05017,0.8853,2.096,7.0,-1.09,0.4766,0.003906,0.0466,-0.04364,0.03387,0.535,1.927,7.0,-0.9634,0.2676,0.0,0.0
1738832997064898967,0.9106,2.219,7.02,-1.114,0.517,0.01104,0.04913,-0.04172,-0.05017,0.8325,2.148,7.0,-1.094,0.4414,0.003906,0.04904,-0.04108,0.03372,0.535,1.927,7.0,-0.9634,0.2676,0.0,0.0
1738832997114953279,0.8525,2.244,7.02,-1.121,0.4866,0.01054,0.05164,-0.04056,-0.05014,0.7803,2.148,7.0,-1.098,0.418,0.003906,0.05087,-0.04016,0.0336,0.438,1.951,7.0,-0.9756,0.219,0.0,0.0
1738832997164976119,0.794,2.27,7.02,-1.127,0.4548,0.01031,0.05396,-0.03976,-0.0501,0.7104,2.174,7.0,-1.102,0.375,-0.0,0.05392,-0.03906,0.03342,0.438,1.951,7.0,-0.9756,0.219,0.0,0.0
1738832997214976549,0.7397,2.291,7.02,-1.133,0.4248,0.0098,0.05652,-0.03925,-0.05005,0.6753,2.201,7.0,-1.105,0.3555,-0.0,0.05576,-0.03867,0.0334,0.3398,1.971,7.0,-0.9854,0.1699,0.0,0.0
1738832997264874935,0.6763,2.312,7.02,-1.139,0.3887,0.00923,0.0592,-0.0389,-0.05,0.6055,2.201,7.0,-1.105,0.3164,-0.0,0.05878,-0.0383,0.03378,0.3398,1.971,7.0,-0.9854,0.1699,0.0,0.0
1738832997314888238,0.626,2.33,7.02,-1.144,0.3596,0.00862,0.06168,-0.03873,-0.04996,0.5703,2.227,7.0,-1.109,0.289,-0.0,0.06094,-0.0381,0.034,0.241,1.985,7.0,-0.9927,0.1205,0.0,0.0
1738832997364866018,0.562,2.35,7.023,-1.149,0.3215,0.00843,0.0641,-0.03845,-0.05,0.5005,2.227,7.0,-1.113,0.2461,-0.0,0.06384,-0.03796,0.0342,0.241,1.985,7.0,-0.9927,0.1205,0.0,0.0
1738832997414871692,0.516,2.361,7.023,-1.153,0.2942,0.00839,0.06433,-0.03735,-0.05002,0.4656,2.254,7.0,-1.113,0.2227,-0.0,0.06445,-0.03723,0.0344,0.1415,1.995,7.0,-0.9976,0.07074,0.0,0.0
1738832997464865207,0.4558,2.375,7.023,-1.157,0.259,0.007774,0.06415,-0.03595,-0.05005,0.3955,2.254,7.0,-1.113,0.1797,-0.0,0.06433,-0.0353,0.03455,0.1415,1.995,7.0,-0.9976,0.07074,0.0,0.0
1738832997514878273,0.3955,2.389,7.023,-1.161,0.2244,0.007217,0.0639,-0.035,-0.05014,0.343,2.254,7.0,-1.113,0.1523,-0.0,0.06415,-0.03464,0.03458,0.0416,2.0,7.0,-1.0,0.0208,0.0,0.0
1738832997564932346,0.3398,2.398,7.023,-1.164,0.1929,0.006725,0.06366,-0.03436,-0.0502,0.2732,2.281,7.0,-1.113,0.10547,-0.0,0.06384,-0.03375,0.0346,0.0416,2.0,7.0,-1.0,0.0208,0.0,0.0
1738832997614886283,0.284,2.406,7.023,-1.166,0.1617,0.006126,0.0635,-0.03397,-0.05032,0.2382,2.281,7.0,-1.117,0.08594,-0.0,0.06366,-0.03342,0.0346,-0.0584,1.999,7.0,-0.9995,-0.0292,0.0,0.0
1738832997664867877,0.2231,2.414,7.023,-1.169,0.1284,0.00565,0.06335,-0.0337,-0.0504,0.1682,2.281,7.0,-1.117,0.04688,-0.0,0.06354,-0.03305,0.03445,-0.0584,1.999,7.0,-0.9995,-0.0292,0.0,0.0
1738832997714867830,0.1622,2.42,7.023,-1.172,0.0957,0.005165,0.06323,-0.03348,-0.0505,0.1158,2.281,7.0,-1.117,0.01953,-0.0,0.06354,-0.0329,0.03445,-0.1582,1.994,7.0,-0.997,-0.0791,0.0,0.0
1738832997764863491,0.10596,2.424,7.023,-1.174,0.0658,0.004665,0.0632,-0.0333,-0.0506,0.0458,2.281,7.0,-1.121,-0.01563,-0.0,0.06335,-0.0327,0.03445,-0.1582,1.994,7.0,-0.997,-0.0791,0.0,0.0
1738832997814883470,0.0449,2.426,7.023,-1.176,0.03375,0.0045,0.0631,-0.032,-0.0507,0.01084,2.281,7.0,-1.117,-0.03516,-0.0,0.0634,-0.0321,0.0345,-0.2576,1.983,7.0,-0.9917,-0.1288,0.0,0.0
1738832997864890336,-0.0116,2.428,7.023,-1.177,0.004524,0.004086,0.0631,-0.03065,-0.05075,-0.0591,2.281,7.0,-1.117,-0.0742,-0.0,0.0633,-0.0302,0.03427,-0.2576,1.983,7.0,-0.9917,-0.1288,0.0,0.0
1738832997914874315,-0.0728,2.426,7.023,-1.178,-0.02681,0.003483,0.0632,-0.02968,-0.0508,-0.0941,2.281,7.0,-1.117,-0.09766,-0.0,0.0634,-0.02942,0.0342,-0.3564,1.968,7.0,-0.984,-0.1782,0.0,0.0
1738832997964880704,-0.1294,2.424,7.023,-1.178,-0.05545,0.003204,0.0632,-0.02895,-0.05087,-0.1815,2.281,7.0,-1.113,-0.1328,-0.0,0.0634,-0.02838,0.0341,-0.3564,1.968,7.0,-0.984,-0.1782,0.0,0.0
1738832998014905691,-0.1907,2.422,7.023,-1.178,-0.0862,0.003166,0.06323,-0.02727,-0.05093,-0.2166,2.281,7.0,-1.113,-0.1523,-0.0,0.0634,-0.02751,0.03403,-0.4543,1.947,7.0,-0.9736,-0.2272,0.0,0.0
1738832998064899682,-0.2472,2.416,7.027,-1.177,-0.11426,0.003344,0.06323,-0.02559,-0.05093,-0.2864,2.254,7.0,-1.109,-0.1875,-0.0,0.0634,-0.02518,0.03375,-0.4543,1.947,7.0,-0.9736,-0.2272,0.0,0.0
1738832998114901065,-0.3083,2.41,7.027,-1.175,-0.1444,0.003557,0.0633,-0.02322,-0.05093,-0.3215,2.254,7.0,-1.105,-0.207,-0.0,0.06335,-0.02351,0.03354,-0.5513,1.923,7.0,-0.9614,-0.2756,0.0,0.0
1738832998164901018,-0.3645,2.402,7.027,-1.172,-0.172,0.003769,0.06335,-0.0212,-0.05093,-0.3914,2.254,7.0,-1.102,-0.2422,-0.0,0.0635,-0.02086,0.0338,-0.5513,1.923,7.0,-0.9614,-0.2756,0.0,0.0
1738832998214874505,-0.4207,2.393,7.027,-1.168,-0.1993,0.004044,0.0634,-0.01979,-0.0509,-0.4263,2.227,7.0,-1.098,-0.2617,-0.0,0.0635,-0.01982,0.03384,-0.6465,1.893,7.0,-0.9463,-0.3232,0.0,0.0
1738832998264780282,-0.4814,2.38,7.027,-1.163,-0.2288,0.004288,0.0635,-0.0187,-0.0509,-0.4963,2.227,7.0,-1.09,-0.293,-0.0,0.0634,-0.01836,0.03406,-0.6465,1.893,7.0,-0.9463,-0.3232,0.0,0.0
1738832998314795970,-0.5415,2.37,7.027,-1.158,-0.2578,0.004242,0.06354,-0.0169,-0.0509,-0.549,2.227,7.0,-1.086,-0.3125,-0.0,0.06354,-0.01706,0.0341,-0.74,1.858,7.0,-0.929,-0.37,0.0,0.0
1738832998364768743,-0.6016,2.355,7.027,-1.151,-0.2866,0.004242,0.06366,-0.01517,-0.05096,-0.6187,2.201,7.0,-1.074,-0.3438,-0.0,0.06354,-0.01482,0.0341,-0.74,1.858,7.0,-0.929,-0.37,0.0,0.0
1738832998414899826,-0.6567,2.34,7.027,-1.1455,-0.3127,0.004307,0.0637,-0.01403,-0.051,-0.654,2.201,7.0,-1.07,-0.3594,-0.0,0.06366,-0.01404,0.03403,-0.8325,1.818,7.0,-0.909,-0.4163,0.0,0.0
1738832998464892864,-0.712,2.324,7.027,-1.139,-0.3389,0.004295,0.06384,-0.0132,-0.05103,-0.7236,2.174,7.0,-1.059,-0.3906,-0.0,0.06366,-0.01283,0.03397,-0.8325,1.818,7.0,-0.909,-0.4163,0.0,0.0
1738832998514892101,-0.7705,2.307,7.027,-1.131,-0.367,0.00422,0.06396,-0.011444,-0.05106,-0.759,2.174,7.0,-1.051,-0.4102,-0.0,0.0638,-0.0117,0.03384,-0.9224,1.774,7.0,-0.887,-0.4612,0.0,0.0
1738832998564903497,-0.8247,2.29,7.027,-1.123,-0.3926,0.00377,0.064,-0.00987,-0.05103,-0.8286,2.148,7.0,-1.039,-0.4414,-0.0,0.06384,-0.00962,0.03354,-0.9224,1.774,7.0,-0.887,-0.4612,0.0,0.0
1738832998614890813,-0.883,2.268,7.027,-1.114,-0.42,0.003553,0.06415,-0.008675,-0.051,-0.864,2.121,7.0,-1.031,-0.461,-0.0,0.0639,-0.008675,0.03348,-1.01,1.727,7.0,-0.8633,-0.505,0.0,0.0
1738832998664901018,-0.9316,2.248,7.027,-1.106,-0.443,0.003407,0.0642,-0.007866,-0.05096,-0.9336,2.096,7.0,-1.02,-0.4844,-0.0,0.064,-0.007545,0.03326,-1.01,1.727,7.0,-0.8633,-0.505,0.0,0.0
1738832998714873313,-0.9893,2.225,7.027,-1.097,-0.4702,0.002909,0.0654,-0.006207,-0.0509,-0.9683,2.096,7.0,-1.012,-0.504,-0.0,0.06476,-0.00635,0.03348,-1.095,1.674,7.0,-0.837,-0.5474,0.0,0.0
1738832998764888286,-1.046,2.2,7.027,-1.086,-0.498,0.002295,0.0669,-0.004448,-0.05087,-1.0205,2.068,7.0,-0.996,-0.535,-0.0,0.0666,-0.004234,0.03372,-1.095,1.674,7.0,-0.837,-0.5474,0.0,0.0
1738832998814855337,-1.098,2.174,7.027,-1.075,-0.524,0.002142,0.06793,-0.003292,-0.05084,-1.056,2.041,7.0,-0.9883,-0.551,-0.0,0.0673,-0.003386,0.03384,-1.177,1.617,7.0,-0.8086,-0.5884,0.0,0.0
1738832998864846944,-1.149,2.148,7.027,-1.064,-0.55,0.002092,0.06866,-0.002388,-0.05084,-1.126,2.016,7.0,-0.9727,-0.582,-0.0,0.0683,-0.00211,0.03397,-1.177,1.617,7.0,-0.8086,-0.5884,0.0,0.0
1738832998914874315,-1.204,2.12,7.027,-1.053,-0.578,0.00226,0.0692,-0.000695,-0.05087,-1.161,1.989,7.0,-0.961,-0.6055,-0.0,0.0688,-0.000911,0.034,-1.256,1.556,7.0,-0.778,-0.628,0.0,0.0
1738832998964878082,-1.259,2.088,7.027,-1.039,-0.606,0.002197,0.0696,0.001083,-0.05087,-1.23,1.936,7.0,-0.9453,-0.6406,-0.0,0.06934,0.001323,0.0341,-1.256,1.556,7.0,-0.778,-0.628,0.0,0.0
1738832999014877796,-1.308,2.059,7.027,-1.027,-0.632,0.002327,0.06976,0.0022,-0.0509,-1.266,1.909,7.0,-0.9336,-0.6562,-0.0,0.06946,0.0021,0.03403,-1.333,1.491,7.0,-0.7456,-0.6665,0.0,0.0
1738832999064864397,-1.357,2.027,7.027,-1.015,-0.657,0.00211,0.0699,0.003021,-0.0509,-1.318,1.883,7.0,-0.918,-0.6914,-0.0,0.06976,0.00322,0.03397,-1.333,1.491,7.0,-0.7456,-0.6665,0.0,0.0
1738832999114897489,-1.409,1.993,7.027,-1.0,-0.6846,0.002043,0.06995,0.004646,-0.05096,-1.354,1.856,7.0,-0.9062,-0.715,-0.0,0.0698,0.004345,0.03384,-1.405,1.423,7.0,-0.7114,-0.7026,0.0,0.0
1738832999164844751,-1.457,1.96,7.027,-0.987,-0.7095,0.002071,0.06995,0.00637,-0.05096,-1.423,1.803,7.0,-0.8867,-0.75,-0.0,0.0698,0.006687,0.03357,-1.405,1.423,7.0,-0.7114,-0.7026,0.0,0.0
1738832999214771747,-1.508,1.922,7.027,-0.971,-0.7363,0.002752,0.06885,0.008766,-0.05093,-1.458,1.776,7.0,-0.879,-0.7656,-0.0,0.0693,0.007904,0.03354,-1.475,1.351,7.0,-0.6753,-0.7373,0.0,0.0
1738832999264761447,-1.555,1.886,7.027,-0.9556,-0.7603,0.003485,0.06757,0.01103,-0.0509,-1.511,1.724,7.0,-0.8594,-0.797,-0.0,0.06744,0.01104,0.03387,-1.475,1.351,7.0,-0.6753,-0.7373,0.0,0.0
1738832999314779281,-1.604,1.846,7.03,-0.9375,-0.7847,0.003994,0.0665,0.01384,-0.0509,-1.546,1.697,7.0,-0.8438,-0.8164,-0.0,0.0667,0.01321,0.03397,-1.54,1.275,7.0,-0.6377,-0.77,0.0,0.0
1738832999364770412,-1.648,1.808,7.03,-0.92,-0.807,0.003998,0.06586,0.0161,-0.0509,-1.598,1.645,7.0,-0.824,-0.8438,-0.0,0.0658,0.01607,0.03397,-1.54,1.275,7.0,-0.6377,-0.77,0.0,0.0
1738832999414809942,-1.695,1.765,7.03,-0.9004,-0.8306,0.004063,0.0642,0.01883,-0.05093,-1.633,1.617,7.0,-0.8086,-0.8594,-0.0,0.0648,0.01782,0.034,-1.603,1.197,7.0,-0.5986,-0.8013,0.0,0.0
1738832999464771270,-1.741,1.722,7.03,-0.879,-0.8525,0.003786,0.06244,0.02144,-0.05093,-1.686,1.564,7.0,-0.785,-0.8867,-0.0,0.0626,0.02113,0.0338,-1.603,1.197,7.0,-0.5986,-0.8013,0.0,0.0
1738832999514817476,-1.783,1.68,7.03,-0.8584,-0.872,0.003902,0.06024,0.0241,-0.05096,-1.721,1.512,7.0,-0.7656,-0.9023,-0.0,0.0609,0.02324,0.0337,-1.66,1.115,7.0,-0.5576,-0.83,0.0,0.0
1738832999564801216,-1.824,1.638,7.03,-0.837,-0.89,0.00396,0.0582,0.02661,-0.05093,-1.756,1.459,7.0,-0.7383,-0.926,-0.0,0.05832,0.02647,0.03394,-1.66,1.115,7.0,-0.5576,-0.83,0.0,0.0
1738832999614811182,-1.867,1.591,7.03,-0.8125,-0.9087,0.003933,0.05664,0.0295,-0.05093,-1.79,1.432,7.0,-0.7227,-0.9375,-0.0,0.05722,0.0283,0.03397,-1.714,1.031,7.0,-0.5156,-0.857,0.0,0.0
1738832999664791822,-1.905,1.547,7.03,-0.7886,-0.9253,0.003723,0.05563,0.03192,-0.05093,-1.843,1.379,7.0,-0.6953,-0.957,-0.0,0.05573,0.0318,0.03406,-1.714,1.031,7.0,-0.5156,-0.857,0.0,0.0
1738832999714814662,-1.948,1.494,7.03,-0.7603,-0.9434,0.003412,0.05368,0.03384,-0.051,-1.878,1.326,7.0,-0.676,-0.9688,-0.0,0.05444,0.0331,0.03397,-1.763,0.944,7.0,-0.472,-0.8813,0.0,0.0
1738832999764822959,-1.981,1.453,7.03,-0.7373,-0.9565,0.003502,0.05215,0.0349,-0.051,-1.913,1.272,7.0,-0.6445,-0.9844,-0.0,0.05222,0.0347,0.034,-1.763,0.944,7.0,-0.472,-0.8813,0.0,0.0
1738832999814841032,-2.02,1.402,7.03,-0.71,-0.971,0.00386,0.04977,0.0369,-0.05103,-1.948,1.246,7.0,-0.629,-0.992,-0.0,0.05078,0.03586,0.0338,-1.809,0.855,7.0,-0.4275,-0.9043,0.0,0.0
1738832999864788055,-2.053,1.355,7.03,-0.684,-0.9834,0.003712,0.0477,0.03876,-0.051,-1.982,1.193,7.0,-0.5977,-1.004,-0.0,0.0478,0.0384,0.03366,-1.809,0.855,7.0,-0.4275,-0.9043,0.0,0.0
1738832999914811611,-2.088,1.304,7.03,-0.655,-0.996,0.003492,0.0461,0.0412,-0.051,-2.018,1.141,7.0,-0.578,-1.016,-0.0,0.04654,0.04007,0.03366,-1.849,0.763,7.0,-0.3816,-0.9243,0.0,0.0
1738832999964840412,-2.12,1.256,7.03,-0.6274,-1.007,0.003008,0.04514,0.04343,-0.05096,-2.053,1.087,7.0,-0.543,-1.023,-0.0,0.0453,0.04294,0.03406,-1.849,0.763,7.0,-0.3816,-0.9243,0.0,0.0
1738833000014827013,-2.152,1.199,7.03,-0.594,-1.019,0.002337,0.04446,0.04517,-0.051,-2.07,1.034,7.0,-0.5234,-1.031,-0.0,0.0449,0.04407,0.03406,-1.885,0.67,7.0,-0.335,-0.9424,0.0,0.0
1738833000064788579,-2.178,1.154,7.03,-0.5684,-1.027,0.001897,0.04416,0.0462,-0.051,-2.105,0.9814,7.0,-0.4883,-1.039,-0.0,0.0443,0.04553,0.03418,-1.885,0.67,7.0,-0.335,-0.9424,0.0,0.0
1738833000114817380,-2.207,1.101,7.03,-0.537,-1.038,0.001666,0.04388,0.04825,-0.05106,-2.123,0.9546,7.0,-0.4648,-1.047,-0.0,0.04416,0.0471,0.0342,-1.916,0.575,7.0,-0.2876,-0.958,0.0,0.0
1738833000164799451,-2.232,1.051,7.03,-0.5073,-1.047,0.001324,0.04373,0.05002,-0.0511,-2.158,0.875,7.0,-0.4258,-1.055,-0.0,0.04395,0.04944,0.0341,-1.916,0.575,7.0,-0.2876,-0.958,0.0,0.0
1738833000214823484,-2.258,0.996,7.03,-0.475,-1.058,0.000825,0.04257,0.05133,-0.05115,-2.176,0.8486,7.0,-0.4023,-1.059,-0.0,0.04327,0.0503,0.0341,-1.942,0.4785,7.0,-0.2393,-0.971,0.0,0.0
1738833000264801263,-2.28,0.945,7.03,-0.4448,-1.065,0.000579,0.04126,0.0522,-0.05115,-2.193,0.796,7.0,-0.3594,-1.066,-0.003906,0.04138,0.05154,0.03387,-1.942,0.4785,7.0,-0.2393,-0.971,0.0,0.0
1738833000314793109,-2.3,0.889,7.03,-0.4119,-1.074,0.000876,0.04022,0.05405,-0.05115,-2.21,0.7427,7.0,-0.336,-1.07,-0.003906,0.04053,0.05295,0.0338,-1.964,0.3809,7.0,-0.1904,-0.982,0.0,0.0
1738833000364789724,-2.32,0.8374,7.03,-0.3809,-1.081,0.001182,0.03952,0.05573,-0.05115,-2.229,0.663,7.0,-0.293,-1.078,-0.0,0.0397,0.05502,0.03366,-1.964,0.3809,7.0,-0.1904,-0.982,0.0,0.0
1738833000414804458,-2.34,0.7812,7.03,-0.3467,-1.089,0.001637,0.03906,0.05695,-0.05112,-2.229,0.6367,7.0,-0.2695,-1.078,-0.0,0.0393,0.056,0.03394,-1.98,0.2822,7.0,-0.1411,-0.99,0.0,0.0
1738833000464776754,-2.355,0.7285,7.03,-0.3152,-1.096,0.001966,0.0388,0.05768,-0.05115,-2.262,0.5835,7.0,-0.2305,-1.082,-0.0,0.03897,0.057,0.03418,-1.98,0.2822,7.0,-0.1411,-0.99,0.0,0.0
1738833000514781951,-2.371,0.6714,7.03,-0.281,-1.103,0.002304,0.03864,0.0582,-0.05118,-2.262,0.531,7.0,-0.2031,-1.086,-0.0,0.03882,0.05753,0.03436,-1.991,0.183,7.0,-0.0915,-0.9956,0.0,0.0
1738833000564781904,-2.383,0.6187,7.03,-0.2498,-1.109,0.00233,0.03848,0.05844,-0.05127,-2.28,0.4775,7.0,-0.1602,-1.09,-0.0,0.03867,0.0579,0.03445,-1.991,0.183,7.0,-0.0915,-0.9956,0.0,0.0
1738833000614815473,-2.396,0.5605,7.03,-0.2161,-1.116,0.002588,0.03723,0.05862,-0.05133,-2.28,0.4246,7.0,-0.1367,-1.094,-0.0,0.03787,0.05798,0.0346,-1.998,0.0832,7.0,-0.0416,-0.999,0.0,0.0
1738833000664802789,-2.404,0.507,7.03,-0.1853,-1.121,0.00258,0.03604,0.05872,-0.05142,-2.28,0.3716,7.0,-0.09766,-1.098,-0.0,0.03625,0.0581,0.03464,-1.998,0.0832,7.0,-0.0416,-0.999,0.0,0.0
1738833000714797973,-2.414,0.4485,7.035,-0.1521,-1.127,0.002476,0.0362,0.05878,-0.05154,-2.297,0.3184,7.0,-0.0703,-1.098,-0.0,0.03616,0.0582,0.03464,-2.0,-0.01682,7.0,0.00841,-1.0,0.0,0.0
1738833000764783859,-2.42,0.3943,7.035,-0.1219,-1.132,0.001905,0.0368,0.05875,-0.05167,-2.297,0.2654,7.0,-0.03125,-1.102,-0.0,0.03693,0.05826,0.03467,-2.0,-0.01682,7.0,0.00841,-1.0,0.0,0.0
1738833000814774751,-2.426,0.3352,7.035,-0.08966,-1.138,0.001089,0.03625,0.05765,-0.0518,-2.297,0.2124,7.0,-0.007812,-1.102,-0.0,0.03677,0.05756,0.03476,-1.997,-0.11676,7.0,0.05838,-0.9985,0.0,0.0
1738833000864786624,-2.43,0.2805,7.035,-0.06088,-1.143,0.000558,0.0354,0.05637,-0.05194,-2.297,0.1593,7.0,0.02344,-1.105,-0.0,0.03552,0.05585,0.03485,-1.997,-0.11676,7.0,0.05838,-0.9985,0.0,0.0
1738833000914774894,-2.432,0.221,7.035,-0.03056,-1.146,-0.000114,0.0347,0.05542,-0.05206,-2.297,0.1063,7.0,0.04688,-1.105,-0.0,0.03497,0.055,0.03482,-1.988,-0.2164,7.0,0.1082,-0.994,0.0,0.0
1738833000964790582,-2.434,0.1658,7.035,-0.003202,-1.15,-0.000558,0.03424,0.05484,-0.0522,-2.297,0.05328,7.0,0.08203,-1.109,-0.003906,0.03436,0.05426,0.03427,-1.988,-0.2164,7.0,0.1082,-0.994,0.0,0.0
1738833001014779806,-2.432,0.10583,7.035,0.0259,-1.154,-0.001291,0.0339,0.0544,-0.0523,-2.297,0.00027,7.0,0.10156,-1.109,-0.003906,0.03418,0.05392,0.0341,-1.975,-0.3154,7.0,0.1577,-0.9873,0.0,0.0
1738833001064784526,-2.43,0.05032,7.035,0.05228,-1.158,-0.002493,0.03363,0.05414,-0.05234,-2.297,-0.05276,7.0,0.1328,-1.109,-0.003906,0.03372,0.0535,0.0338,-1.975,-0.3154,7.0,0.1577,-0.9873,0.0,0.0
1738833001114807128,-2.428,-0.00998,7.03,0.08044,-1.161,-0.004383,0.0323,0.05392,-0.05237,-2.28,-0.1058,7.0,0.1523,-1.109,-0.003906,0.03302,0.05334,0.0336,-1.957,-0.4138,7.0,0.2069,-0.9785,0.0,0.0
1738833001164784193,-2.422,-0.0658,7.03,0.1061,-1.164,-0.00635,0.03098,0.05386,-0.05237,-2.28,-0.1588,7.004,0.1875,-1.113,-0.007812,0.03111,0.0532,0.0334,-1.957,-0.4138,7.0,0.2069,-0.9785,0.0,0.0
1738833001214798688,-2.416,-0.1263,7.03,0.1335,-1.166,-0.00906,0.02995,0.05374,-0.05234,-2.28,-0.2118,7.004,0.2031,-1.109,-0.007812,0.03043,0.05304,0.03326,-1.934,-0.511,7.0,0.2556,-0.967,0.0,0.0
1738833001264786005,-2.408,-0.1824,7.03,0.1587,-1.167,-0.01117,0.02925,0.0538,-0.05228,-2.262,-0.265,7.004,0.2344,-1.109,-0.01172,0.02939,0.05304,0.03317,-1.934,-0.511,7.0,0.2556,-0.967,0.0,0.0
1738833001314785242,-2.4,-0.243,7.03,0.1857,-1.168,-0.01395,0.02768,0.05383,-0.05222,-2.262,-0.3179,7.004,0.25,-1.109,-0.01172,0.02852,0.05307,0.03305,-1.905,-0.607,7.0,0.3035,-0.9526,0.0,0.0
1738833001364774465,-2.39,-0.299,7.03,0.2103,-1.168,-0.01645,0.02606,0.0539,-0.05215,-2.244,-0.3975,7.004,0.2812,-1.109,-0.01563,0.02628,0.0531,0.033,-1.905,-0.607,7.0,0.3035,-0.9526,0.0,0.0
1738833001414768695,-2.379,-0.3599,7.03,0.2368,-1.167,-0.01897,0.02365,0.054,-0.05206,-2.244,-0.424,7.004,0.2969,-1.105,-0.01563,0.02472,0.05313,0.03296,-1.873,-0.7017,7.0,0.3508,-0.9365,0.0,0.0
1738833001464787721,-2.367,-0.4158,7.027,0.2612,-1.165,-0.02104,0.02167,0.05414,-0.05194,-2.229,-0.5034,7.004,0.3242,-1.102,-0.01953,0.02187,0.05325,0.03287,-1.873,-0.7017,7.0,0.3508,-0.9365,0.0,0.0
1738833001514840602,-2.354,-0.4763,7.027,0.2876,-1.162,-0.02246,0.02014,0.05554,-0.05185,-2.21,-0.53,7.004,0.3438,-1.098,-0.01953,0.02066,0.05414,0.03278,-1.836,-0.7944,7.0,0.3972,-0.918,0.0,0.0
1738833001564857244,-2.338,-0.532,7.027,0.3127,-1.159,-0.02397,0.01904,0.05698,-0.0517,-2.193,-0.6094,7.004,0.375,-1.09,-0.01953,0.01915,0.05606,0.03317,-1.836,-0.7944,7.0,0.3972,-0.918,0.0,0.0
1738833001614833116,-2.322,-0.5923,7.023,0.34,-1.154,-0.0248,0.01593,0.058,-0.05164,-2.193,-0.636,7.004,0.3906,-1.086,-0.01953,0.01709,0.0568,0.0333,-1.794,-0.8853,7.0,0.4426,-0.897,0.0,0.0
1738833001664829969,-2.305,-0.6475,7.023,0.366,-1.149,-0.02461,0.013016,0.0589,-0.05154,-2.176,-0.716,7.004,0.418,-1.078,-0.01953,0.01333,0.0579,0.03372,-1.794,-0.8853,7.0,0.4426,-0.897,0.0,0.0
1738833001714837789,-2.287,-0.7026,7.023,0.3918,-1.143,-0.02441,0.009865,0.06055,-0.0515,-2.158,-0.742,7.004,0.4375,-1.074,-0.01953,0.010765,0.05914,0.0339,-1.747,-0.9736,7.0,0.4868,-0.8735,0.0,0.0
1738833001764915943,-2.266,-0.7617,7.023,0.4207,-1.134,-0.02425,0.00699,0.06226,-0.0515,-2.123,-0.822,7.004,0.4688,-1.059,-0.01953,0.007088,0.0612,0.034,-1.747,-0.9736,7.0,0.4868,-0.8735,0.0,0.0
1738833001814874649,-2.244,-0.816,7.02,0.4478,-1.125,-0.02399,0.005177,0.06335,-0.05154,-2.123,-0.848,7.004,0.4844,-1.055,-0.01953,0.005894,0.0619,0.03412,-1.696,-1.06,7.0,0.53,-0.848,0.0,0.0
1738833001864889144,-2.22,-0.874,7.02,0.4773,-1.114,-0.0241,0.003853,0.06415,-0.05154,-2.105,-0.9277,7.004,0.5117,-1.039,-0.01953,0.00418,0.063,0.0341,-1.696,-1.06,7.0,0.53,-0.848,0.0,0.0
1738833001914859533,-2.195,-0.9316,7.02,0.507,-1.104,-0.0248,0.003017,0.0646,-0.0516,-2.07,-0.954,7.004,0.535,-1.031,-0.01953,0.003582,0.06323,0.03406,-1.642,-1.144,7.0,0.572,-0.821,0.0,0.0
1738833001964839458,-2.17,-0.9844,7.016,0.5337,-1.094,-0.02487,0.00245,0.0649,-0.0516,-2.035,-1.034,7.004,0.5703,-1.016,-0.01953,0.002726,0.0638,0.03403,-1.642,-1.144,7.0,0.572,-0.821,0.0,0.0
1738833002014859437,-2.14,-1.041,7.016,0.563,-1.082,-0.02364,0.000894,0.0653,-0.05167,-2.018,-1.061,7.004,0.59,-1.008,-0.01953,0.001863,0.06396,0.0339,-1.582,-1.224,7.0,0.612,-0.791,0.0,0.0
1738833002064799785,-2.113,-1.093,7.016,0.59,-1.071,-0.02242,-0.000603,0.0656,-0.05167,-1.982,-1.113,7.0,0.625,-0.992,-0.01563,-0.0001157,0.0644,0.03394,-1.582,-1.224,7.0,0.612,-0.791,0.0,0.0
1738833002114918470,-2.082,-1.148,7.01,0.619,-1.059,-0.02138,-0.002968,0.0669,-0.0517,-1.965,-1.166,7.0,0.6445,-0.9844,-0.01563,-0.0016575,0.0653,0.0339,-1.519,-1.301,7.0,0.6504,-0.7593,0.0,0.0
1738833002164886474,-2.05,-1.199,7.01,0.6465,-1.046,-0.02124,-0.00501,0.06805,-0.05167,-1.913,-1.22,7.0,0.6836,-0.965,-0.01563,-0.004482,0.067,0.03378,-1.519,-1.301,7.0,0.6504,-0.7593,0.0,0.0
1738833002214912176,-2.02,-1.249,7.01,0.674,-1.033,-0.02098,-0.00752,0.0678,-0.0517,-1.8955,-1.272,7.0,0.703,-0.953,-0.01563,-0.006214,0.06683,0.03372,-1.452,-1.376,7.0,0.688,-0.726,0.0,0.0
1738833002264888286,-1.983,-1.302,7.01,0.703,-1.017,-0.02074,-0.009926,0.0671,-0.05164,-1.843,-1.325,7.0,0.7383,-0.9336,-0.01172,-0.00934,0.06604,0.03363,-1.452,-1.376,7.0,0.688,-0.726,0.0,0.0
1738833002314917325,-1.946,-1.3545,7.008,0.7314,-1.001,-0.0203,-0.0116,0.0665,-0.0516,-1.808,-1.352,7.0,0.7617,-0.922,-0.01172,-0.01064,0.0656,0.0336,-1.381,-1.446,7.0,0.723,-0.6904,0.0,0.0
1738833002364902257,-1.911,-1.402,7.008,0.757,-0.985,-0.02048,-0.01273,0.06604,-0.05157,-1.756,-1.432,7.0,0.797,-0.8984,-0.01172,-0.012215,0.06494,0.03354,-1.381,-1.446,7.0,0.723,-0.6904,0.0,0.0
1738833002414919376,-1.874,-1.449,7.008,0.7817,-0.9688,-0.02057,-0.01452,0.0646,-0.05154,-1.738,-1.458,7.0,0.8125,-0.8867,-0.01172,-0.01335,0.064,0.0335,-1.308,-1.514,7.0,0.757,-0.654,0.0,0.0
1738833002464891195,-1.833,-1.499,7.008,0.808,-0.95,-0.01999,-0.01643,0.0629,-0.05148,-1.686,-1.511,7.0,0.8438,-0.867,-0.01172,-0.01572,0.0621,0.03363,-1.308,-1.514,7.0,0.757,-0.654,0.0,0.0
1738833002514877796,-1.793,-1.544,7.004,0.831,-0.9326,-0.01936,-0.01878,0.06088,-0.05145,-1.65,-1.537,7.0,0.8633,-0.8516,-0.01172,-0.01764,0.0604,0.03375,-1.23,-1.577,7.0,0.7886,-0.615,0.0,0.0
1738833002564888477,-1.749,-1.592,7.004,0.8545,-0.912,-0.0181,-0.02113,0.0587,-0.05142,-1.615,-1.564,7.0,0.875,-0.84,-0.01172,-0.01912,0.05896,0.0339,-1.23,-1.577,7.0,0.7886,-0.615,0.0,0.0
1738833002614864349,-1.708,-1.635,7.004,0.875,-0.8926,-0.01695,-0.02371,0.05627,-0.05145,-1.563,-1.644,7.0,0.9023,-0.8125,-0.007812,-0.02219,0.05615,0.0341,-1.149,-1.637,7.0,0.8184,-0.5747,0.0,0.0
1738833002664896965,-1.662,-1.681,7.004,0.8955,-0.87,-0.0158,-0.02626,0.05383,-0.05145,-1.511,-1.696,7.0,0.926,-0.789,-0.007812,-0.02536,0.05292,0.03406,-1.149,-1.637,7.0,0.8184,-0.5747,0.0,0.0
1738833002714879512,-1.618,-1.723,7.0,0.913,-0.8486,-0.01474,-0.02898,0.0523,-0.0515,-1.458,-1.723,6.996,0.9414,-0.7695,-0.007812,-0.02754,0.05167,0.034,-1.066,-1.692,7.0,0.846,-0.533,0.0,0.0
1738833002764921903,-1.57,-1.766,7.0,0.932,-0.824,-0.01338,-0.0316,0.0511,-0.0515,-1.44,-1.75,6.996,0.949,-0.758,-0.007812,-0.029,0.0511,0.03397,-1.066,-1.692,7.0,0.846,-0.533,0.0,0.0
1738833002814877033,-1.521,-1.808,7.0,0.949,-0.7983,-0.01235,-0.03458,0.04797,-0.0515,-1.371,-1.803,6.996,0.9727,-0.7266,-0.003906,-0.0326,0.04846,0.03375,-0.9805,-1.743,7.0,0.8716,-0.4902,0.0,0.0
1738833002864871978,-1.476,-1.846,7.0,0.964,-0.7734,-0.01123,-0.037,0.045,-0.05148,-1.318,-1.855,6.996,0.9883,-0.6953,-0.003906,-0.03595,0.04422,0.03394,-0.9805,-1.743,7.0,0.8716,-0.4902,0.0,0.0
1738833002914863348,-1.429,-1.882,7.0,0.977,-0.748,-0.01034,-0.03976,0.04294,-0.05148,-1.283,-1.882,6.996,1.0,-0.676,-0.003906,-0.03824,0.04236,0.034,-0.892,-1.79,7.0,0.895,-0.446,0.0,0.0
1738833002964878082,-1.378,-1.92,7.0,0.99,-0.7188,-0.00946,-0.04236,0.04132,-0.05148,-1.248,-1.882,6.996,1.004,-0.664,-0.0,-0.0396,0.04153,0.03406,-0.892,-1.79,7.0,0.895,-0.446,0.0,0.0
1738833003014819383,-1.326,-1.957,7.0,1.002,-0.6895,-0.00921,-0.04413,0.03912,-0.05154,-1.179,-1.936,6.996,1.02,-0.625,-0.0,-0.04242,0.03915,0.0344,-0.802,-1.832,7.0,0.916,-0.401,0.0,0.0
1738833003064802885,-1.281,-1.986,6.996,1.012,-0.6636,-0.00894,-0.04526,0.03735,-0.05154,-1.126,-1.988,6.996,1.031,-0.5938,-0.0,-0.04404,0.0366,0.0341,-0.802,-1.832,7.0,0.916,-0.401,0.0,0.0
1738833003114777565,-1.229,-2.02,6.996,1.021,-0.6333,-0.00879,-0.04724,0.036,-0.0516,-1.073,-2.016,6.996,1.035,-0.5703,-0.0,-0.0455,0.0355,0.0339,-0.709,-1.87,7.0,0.935,-0.3545,0.0,0.0
1738833003164770603,-1.176,-2.053,6.996,1.031,-0.602,-0.008865,-0.04913,0.0351,-0.05157,-1.004,-2.041,6.996,1.047,-0.539,-0.0,-0.04776,0.0345,0.0339,-0.709,-1.87,7.0,0.935,-0.3545,0.0,0.0
1738833003214869737,-1.126,-2.08,6.996,1.039,-0.5728,-0.00859,-0.05038,0.0346,-0.0516,-0.9683,-2.068,6.996,1.051,-0.5195,-0.0,-0.04874,0.0341,0.0338,-0.6147,-1.903,7.0,0.9517,-0.3074,0.0,0.0
1738833003264893531,-1.071,-2.11,6.996,1.048,-0.541,-0.00814,-0.05145,0.03436,-0.05157,-0.916,-2.094,6.996,1.059,-0.4805,-0.0,-0.05005,0.03366,0.0337,-0.6147,-1.903,7.0,0.9517,-0.3074,0.0,0.0
1738833003314943552,-1.0205,-2.135,6.996,1.056,-0.511,-0.008064,-0.05316,0.03418,-0.05154,-0.864,-2.121,6.996,1.0625,-0.457,-0.0,-0.05133,0.0336,0.03378,-0.5186,-1.932,7.0,0.966,-0.2593,0.0,0.0
1738833003364925622,-0.97,-2.158,6.996,1.063,-0.481,-0.00811,-0.05487,0.034,-0.05154,-0.846,-2.146,6.996,1.066,-0.4414,-0.0,-0.05237,0.03345,0.03375,-0.5186,-1.932,7.0,0.966,-0.2593,0.0,0.0
1738833003414894819,-0.91,-2.186,6.996,1.072,-0.4453,-0.00811,-0.05624,0.0327,-0.0515,-0.759,-2.174,6.996,1.074,-0.3945,-0.0,-0.05447,0.03244,0.03375,-0.4216,-1.955,7.0,0.9775,-0.2108,0.0,0.0
1738833003464811325,-0.859,-2.205,6.996,1.079,-0.4146,-0.007774,-0.05716,0.03143,-0.05145,-0.706,-2.201,6.996,1.078,-0.3555,-0.0,-0.0556,0.03082,0.03387,-0.4216,-1.955,7.0,0.9775,-0.2108,0.0,0.0
1738833003514820575,-0.8066,-2.225,6.992,1.085,-0.3835,-0.007496,-0.0588,0.03052,-0.05148,-0.6714,-2.201,6.996,1.082,-0.3281,-0.0,-0.057,0.02998,0.03387,-0.3232,-1.974,7.0,0.987,-0.1616,0.0,0.0
1738833003564804077,-0.75,-2.244,6.992,1.091,-0.3496,-0.007107,-0.06052,0.02982,-0.05145,-0.636,-2.201,6.996,1.082,-0.3125,-0.0,-0.05795,0.02957,0.03387,-0.3232,-1.974,7.0,0.987,-0.1616,0.0,0.0
1738833003614866971,-0.6978,-2.26,6.992,1.097,-0.3179,-0.006596,-0.06165,0.0294,-0.05145,-0.5664,-2.227,6.996,1.09,-0.2656,-0.0,-0.05988,0.02892,0.03394,-0.2244,-1.987,7.0,0.9937,-0.1122,0.0,0.0
1738833003664787769,-0.6406,-2.275,6.992,1.103,-0.2834,-0.00634,-0.06247,0.02911,-0.05145,-0.4963,-2.254,6.996,1.09,-0.2227,-0.0,-0.061,0.0285,0.03412,-0.2244,-1.987,7.0,0.9937,-0.1122,0.0,0.0
1738833003714815378,-0.5874,-2.287,6.992,1.107,-0.2515,-0.00607,-0.063,0.02895,-0.05148,-0.4614,-2.254,6.996,1.094,-0.1953,-0.0,-0.06152,0.02835,0.0342,-0.1247,-1.996,7.0,0.998,-0.06235,0.0,0.0
1738833003764773130,-0.53,-2.3,6.992,1.112,-0.2173,-0.005943,-0.0633,0.0288,-0.05154,-0.4263,-2.254,6.996,1.094,-0.1797,-0.0,-0.0616,0.02826,0.03427,-0.1247,-1.996,7.0,0.998,-0.06235,0.0,0.0
1738833003814824819,-0.476,-2.31,6.992,1.117,-0.1859,-0.00625,-0.0635,0.02762,-0.05157,-0.3564,-2.28,6.996,1.094,-0.1328,-0.0,-0.06195,0.0274,0.0343,-0.02478,-2.0,7.0,1.0,-0.01239,0.0,0.0
1738833003864836692,-0.418,-2.318,6.992,1.121,-0.1522,-0.006428,-0.06366,0.02623,-0.05164,-0.2864,-2.28,6.996,1.098,-0.08984,-0.0,-0.06226,0.0256,0.03452,-0.02478,-2.0,7.0,1.0,-0.01239,0.0,0.0
1738833003914861679,-0.364,-2.324,6.992,1.125,-0.12146,-0.00635,-0.0637,0.02644,-0.05167,-0.2515,-2.28,6.996,1.098,-0.0625,-0.0,-0.06226,0.0256,0.0346,0.0752,-1.999,7.0,0.9995,0.0376,0.0,0.0
1738833003964864492,-0.3054,-2.33,6.992,1.129,-0.08844,-0.00661,-0.06366,0.02718,-0.05176,-0.2166,-2.28,6.996,1.098,-0.04688,-0.0,-0.06232,0.02605,0.0347,0.0752,-1.999,7.0,0.9995,0.0376,0.0,0.0
1738833004014862775,-0.2375,-2.334,6.992,1.134,-0.05127,-0.006516,-0.06226,0.02783,-0.05188,-0.1466,-2.28,6.996,1.098,-0.003906,-0.0,-0.0616,0.0269,0.03476,0.175,-1.992,7.0,0.996,0.0875,0.0,0.0
1738833004064787149,-0.1967,-2.336,6.992,1.138,-0.02962,-0.006374,-0.06143,0.02812,-0.05197,-0.0766,-2.28,6.996,1.098,0.03125,-0.0,-0.05997,0.02747,0.03476,0.175,-1.992,7.0,0.996,0.0875,0.0,0.0
1738833004114778280,-0.1375,-2.336,6.99,1.142,0.00111,-0.00674,-0.06158,0.0273,-0.05212,-0.04163,-2.28,6.996,1.102,0.0547,-0.0,-0.06006,0.02687,0.0347,0.2744,-1.981,7.0,0.9907,0.1372,0.0,0.0
1738833004164834022,-0.0825,-2.336,6.99,1.1455,0.02934,-0.007706,-0.06216,0.0261,-0.05222,-0.006645,-2.28,6.996,1.102,0.0703,-0.0,-0.06042,0.02618,0.0348,0.2744,-1.981,7.0,0.9907,0.1372,0.0,0.0
1738833004214863777,-0.02289,-2.334,6.99,1.148,0.0596,-0.009,-0.06158,0.02515,-0.05234,0.0633,-2.28,6.996,1.102,0.1094,-0.0,-0.06036,0.02472,0.0349,0.373,-1.965,7.0,0.9824,0.1865,0.0,0.0
1738833004264873266,0.0369,-2.33,6.99,1.151,0.0891,-0.0099,-0.06067,0.02454,-0.0525,0.1333,-2.28,6.996,1.102,0.1445,-0.0,-0.05917,0.02383,0.03488,0.373,-1.965,7.0,0.9824,0.1865,0.0,0.0
1738833004314865827,0.09216,-2.324,6.99,1.153,0.1157,-0.01017,-0.06006,0.02428,-0.05267,0.1857,-2.254,6.996,1.102,0.168,-0.0,-0.05865,0.02364,0.03455,0.4707,-1.943,7.0,0.9717,0.2354,0.0,0.0
1738833004364846706,0.1522,-2.318,6.99,1.155,0.1439,-0.01067,-0.05957,0.02406,-0.05276,0.2556,-2.254,6.996,1.102,0.1992,-0.0,-0.05807,0.02336,0.03412,0.4707,-1.943,7.0,0.9717,0.2354,0.0,0.0
1738833004414812326,0.2124,-2.31,6.99,1.157,0.1716,-0.0114,-0.05927,0.02269,-0.0529,0.2905,-2.254,6.996,1.102,0.2188,-0.0,-0.05783,0.02257,0.03397,0.5674,-1.918,7.0,0.959,0.2837,0.0,0.0
1738833004464793682,0.2678,-2.3,6.99,1.158,0.1968,-0.01178,-0.05917,0.02135,-0.05292,0.343,-2.227,6.996,1.098,0.25,-0.0,-0.0576,0.02075,0.0337,0.5674,-1.918,7.0,0.959,0.2837,0.0,0.0
1738833004514892578,0.3281,-2.291,6.984,1.159,0.2241,-0.012115,-0.06033,0.02037,-0.05295,0.3955,-2.227,6.996,1.098,0.2695,-0.0,-0.05838,0.01997,0.03354,0.6626,-1.887,7.0,0.9434,0.3313,0.0,0.0
1738833004564863920,0.3838,-2.28,6.984,1.159,0.2496,-0.012886,-0.06158,0.01953,-0.05295,0.413,-2.227,7.0,1.098,0.2812,-0.0,-0.05917,0.01956,0.03354,0.6626,-1.887,7.0,0.9434,0.3313,0.0,0.0
1738833004614871263,0.444,-2.266,6.984,1.158,0.2776,-0.0133,-0.06256,0.01665,-0.05292,0.5005,-2.201,7.0,1.094,0.3164,-0.003906,-0.06076,0.01682,0.03342,0.756,-1.852,7.0,0.926,0.378,0.0,0.0
1738833004664776563,0.5044,-2.25,6.984,1.156,0.3057,-0.01345,-0.0633,0.013664,-0.05286,0.5703,-2.201,7.0,1.09,0.3477,-0.003906,-0.0616,0.0133,0.03354,0.756,-1.852,7.0,0.926,0.378,0.0,0.0
1738833004714782714,0.555,-2.236,6.984,1.153,0.3293,-0.013626,-0.0637,0.01188,-0.05283,0.6055,-2.174,7.0,1.086,0.3633,-0.003906,-0.06198,0.01158,0.03366,0.8477,-1.812,7.0,0.906,0.4238,0.0,0.0
1738833004764884948,0.6147,-2.219,6.984,1.149,0.3574,-0.01384,-0.0642,0.01037,-0.05283,0.6406,-2.174,7.0,1.082,0.379,-0.003906,-0.06216,0.01073,0.03378,0.8477,-1.812,7.0,0.906,0.4238,0.0,0.0
1738833004814826726,0.675,-2.2,6.98,1.145,0.3857,-0.013565,-0.0657,0.00947,-0.05286,0.7104,-2.146,6.996,1.074,0.414,-0.003906,-0.0634,0.0092,0.0341,0.937,-1.767,7.0,0.8833,0.4685,0.0,0.0
1738833004864801645,0.7295,-2.18,6.98,1.14,0.412,-0.013405,-0.0671,0.00884,-0.0529,0.7803,-2.121,6.996,1.066,0.4414,-0.003906,-0.0653,0.00837,0.03418,0.937,-1.767,7.0,0.8833,0.4685,0.0,0.0
1738833004914909601,0.784,-2.158,6.98,1.135,0.439,-0.0133,-0.0681,0.006313,-0.05295,0.8154,-2.121,6.996,1.0625,0.4648,-0.003906,-0.0662,0.006306,0.0339,1.024,-1.718,7.0,0.859,0.512,0.0,0.0
1738833004964882373,0.843,-2.135,6.98,1.128,0.468,-0.01277,-0.0689,0.00328,-0.05295,0.85,-2.094,6.996,1.059,0.4766,-0.0,-0.06665,0.00467,0.03378,1.024,-1.718,7.0,0.859,0.512,0.0,0.0
1738833005014899730,0.9014,-2.11,6.98,1.119,0.497,-0.01263,-0.06824,0.001177,-0.05298,0.9204,-2.068,6.996,1.043,0.5117,-0.0,-0.06683,0.0013,0.03372,1.108,-1.664,7.0,0.832,0.554,0.0,0.0
1738833005064827919,0.9546,-2.086,6.98,1.111,0.523,-0.01193,-0.0674,-0.000236,-0.05298,0.99,-2.041,6.996,1.031,0.547,-0.0,-0.06555,-0.0007086,0.03372,1.108,-1.664,7.0,0.832,0.554,0.0,0.0
1738833005114835739,1.013,-2.059,6.977,1.102,0.551,-0.011185,-0.0679,-0.002344,-0.053,1.025,-2.016,6.996,1.023,0.5703,-0.0,-0.0659,-0.002256,0.03375,1.19,-1.607,7.0,0.8037,0.595,0.0,0.0
1738833005164916276,1.064,-2.031,6.977,1.092,0.5767,-0.01057,-0.06854,-0.004204,-0.053,1.061,-1.988,6.996,1.02,0.582,-0.0,-0.06635,-0.003366,0.03387,1.19,-1.607,7.0,0.8037,0.595,0.0,0.0
1738833005214900016,1.121,-2.0,6.977,1.08,0.604,-0.009605,-0.06793,-0.005558,-0.053,1.13,-1.936,6.996,1.0,0.621,-0.0,-0.0666,-0.0056,0.03412,1.27,-1.546,7.0,0.773,0.635,0.0,0.0
1738833005264887571,1.173,-1.971,6.977,1.069,0.629,-0.008484,-0.0672,-0.00645,-0.05307,1.2,-1.909,6.996,0.9844,0.6562,-0.0,-0.06555,-0.00682,0.03433,1.27,-1.546,7.0,0.773,0.635,0.0,0.0
1738833005314832210,1.229,-1.9375,6.977,1.057,0.656,-0.007442,-0.0677,-0.00827,-0.05316,1.235,-1.882,6.996,0.9766,0.6797,-0.0,-0.06586,-0.00812,0.03412,1.345,-1.48,7.0,0.74,0.6724,0.0,0.0
1738833005364837646,1.278,-1.905,6.977,1.045,0.68,-0.006405,-0.06836,-0.01001,-0.0532,1.253,-1.855,6.996,0.9688,0.6914,-0.0,-0.0663,-0.00906,0.034,1.345,-1.48,7.0,0.74,0.6724,0.0,0.0
1738833005414875984,1.333,-1.869,6.977,1.031,0.7065,-0.005737,-0.06775,-0.012474,-0.0532,1.322,-1.803,6.996,0.949,0.7266,-0.0,-0.0664,-0.01192,0.0338,1.417,-1.411,7.0,0.7056,0.7085,0.0,0.0
1738833005464890480,1.382,-1.834,6.977,1.017,0.73,-0.004944,-0.0669,-0.01466,-0.05322,1.393,-1.75,6.996,0.9297,0.758,-0.0,-0.06537,-0.01496,0.03375,1.417,-1.411,7.0,0.7056,0.7085,0.0,0.0
1738833005514870882,1.431,-1.799,6.977,1.002,0.753,-0.004242,-0.0652,-0.01718,-0.0532,1.428,-1.723,6.996,0.918,0.7812,-0.0,-0.064,-0.01706,0.03372,1.486,-1.339,7.0,0.6694,0.743,0.0,0.0
1738833005564872264,1.481,-1.759,6.977,0.985,0.7764,-0.003366,-0.06323,-0.01971,-0.05322,1.445,-1.696,6.996,0.91,0.789,0.003906,-0.0629,-0.01837,0.03375,1.486,-1.339,7.0,0.6694,0.743,0.0,0.0
1738833005614849328,1.528,-1.722,6.977,0.9683,0.7974,-0.002953,-0.06085,-0.02237,-0.0532,1.515,-1.644,6.996,0.883,0.824,0.003906,-0.06003,-0.02187,0.034,1.551,-1.263,7.0,0.6313,0.7754,0.0,0.0
1738833005664862155,1.578,-1.68,6.977,0.9487,0.818,-0.00201,-0.05856,-0.02495,-0.05322,1.567,-1.591,6.996,0.8594,0.8477,0.003906,-0.05707,-0.02512,0.03378,1.551,-1.263,7.0,0.6313,0.7754,0.0,0.0
1738833005714899063,1.624,-1.64,6.977,0.9297,0.836,-0.000822,-0.05704,-0.02757,-0.05325,1.603,-1.564,6.996,0.8438,0.8633,0.003906,-0.0559,-0.02722,0.03366,1.612,-1.184,7.0,0.592,0.806,0.0,0.0
1738833005764876127,1.672,-1.596,6.977,0.9077,0.855,0.000195,-0.05585,-0.03017,-0.05325,1.62,-1.537,6.996,0.832,0.871,0.003906,-0.05524,-0.02861,0.0335,1.612,-1.184,7.0,0.592,0.806,0.0,0.0
1738833005814859151,1.718,-1.551,6.977,0.885,0.8726,0.000447,-0.05392,-0.03314,-0.0532,1.689,-1.458,6.996,0.8047,0.8945,0.003906,-0.05322,-0.03226,0.0336,1.669,-1.102,7.0,0.551,0.8345,0.0,0.0
1738833005864972114,1.76,-1.509,6.977,0.863,0.888,0.000333,-0.0523,-0.03568,-0.0532,1.742,-1.405,6.996,0.7773,0.914,0.003906,-0.05093,-0.03568,0.03372,1.669,-1.102,7.0,0.551,0.8345,0.0,0.0
1738833005914904594,1.804,-1.462,6.977,0.8374,0.9043,0.000287,-0.05106,-0.03864,-0.05316,1.777,-1.379,6.996,0.758,0.926,0.003906,-0.04996,-0.03793,0.03384,1.723,-1.017,7.0,0.5083,0.8613,0.0,0.0
1738833005964951276,1.844,-1.418,6.977,0.813,0.918,0.000534,-0.05017,-0.04095,-0.0532,1.795,-1.352,6.996,0.746,0.9336,0.003906,-0.04947,-0.03934,0.0337,1.723,-1.017,7.0,0.5083,0.8613,0.0,0.0
1738833006014915466,1.882,-1.374,6.977,0.788,0.9316,0.000851,-0.04855,-0.0425,-0.05316,1.847,-1.272,6.996,0.711,0.949,0.003906,-0.04776,-0.0421,0.03348,1.771,-0.929,7.0,0.4646,0.8857,0.0,0.0
1738833006064952850,1.919,-1.328,6.977,0.7627,0.944,0.001823,-0.04697,-0.0436,-0.05316,1.899,-1.22,6.996,0.6797,0.965,0.007812,-0.04556,-0.0437,0.0334,1.771,-0.929,7.0,0.4646,0.8857,0.0,0.0
1738833006114914655,1.961,-1.275,6.977,0.7324,0.9575,0.001885,-0.04565,-0.04694,-0.05313,1.935,-1.192,6.996,0.66,0.9727,0.007812,-0.0447,-0.0458,0.03333,1.815,-0.8394,7.0,0.4197,0.9077,0.0,0.0
1738833006164920568,1.996,-1.2295,6.977,0.705,0.9688,0.001838,-0.04486,-0.05008,-0.05307,1.952,-1.166,6.996,0.6484,0.9805,0.007812,-0.04425,-0.0477,0.03336,1.815,-0.8394,7.0,0.4197,0.9077,0.0,0.0
1738833006214863777,2.03,-1.183,6.977,0.677,0.979,0.001361,-0.04327,-0.05225,-0.053,1.987,-1.087,6.996,0.6055,0.992,0.003906,-0.04257,-0.05154,0.03366,1.8545,-0.7476,7.0,0.3738,0.9272,0.0,0.0
1738833006264848232,2.062,-1.131,6.977,0.6455,0.9893,0.000632,-0.0416,-0.05396,-0.053,2.04,-1.034,6.996,0.5703,1.0,0.003906,-0.04037,-0.05365,0.0338,1.8545,-0.7476,7.0,0.3738,0.9272,0.0,0.0
1738833006314884185,2.094,-1.083,6.977,0.616,0.998,-0.000141,-0.04047,-0.05606,-0.053,2.057,-0.981,6.996,0.551,1.008,0.003906,-0.03946,-0.0553,0.03366,1.89,-0.6543,7.0,0.3271,0.945,0.0,0.0
1738833006364816427,2.125,-1.031,6.977,0.5835,1.007,-0.000203,-0.03964,-0.0581,-0.053,2.074,-0.954,6.996,0.5312,1.012,0.003906,-0.03894,-0.0567,0.0335,1.89,-0.6543,7.0,0.3271,0.945,0.0,0.0
1738833006414841890,2.152,-0.983,6.977,0.5527,1.016,0.000103,-0.03915,-0.0593,-0.05298,2.11,-0.9014,6.996,0.4922,1.02,0.003906,-0.03812,-0.0586,0.03342,1.92,-0.5586,7.0,0.2793,0.96,0.0,0.0
1738833006464791774,2.18,-0.9297,6.977,0.5195,1.023,0.000437,-0.03882,-0.06033,-0.05295,2.145,-0.822,6.996,0.4492,1.027,0.003906,-0.03772,-0.0599,0.03345,1.92,-0.5586,7.0,0.2793,0.96,0.0,0.0
1738833006514851570,2.203,-0.8804,6.977,0.4885,1.031,0.001202,-0.0386,-0.06198,-0.05292,2.162,-0.795,6.996,0.4219,1.031,0.003906,-0.03748,-0.06122,0.03336,1.946,-0.4622,7.0,0.2311,0.973,0.0,0.0
1738833006564899921,2.229,-0.8267,6.977,0.454,1.039,0.002174,-0.03848,-0.0638,-0.05283,2.18,-0.7686,6.996,0.4062,1.035,0.003906,-0.0375,-0.06226,0.0334,1.946,-0.4622,7.0,0.2311,0.973,0.0,0.0
1738833006614893198,2.25,-0.7764,6.977,0.422,1.047,0.002687,-0.03842,-0.06494,-0.0528,2.197,-0.689,6.996,0.3594,1.043,0.003906,-0.03735,-0.06433,0.0336,1.967,-0.3643,7.0,0.1821,0.9834,0.0,0.0
1738833006664881229,2.27,-0.726,6.977,0.3901,1.054,0.002598,-0.03836,-0.06586,-0.0528,2.215,-0.636,6.996,0.3125,1.047,0.003906,-0.0373,-0.0656,0.0337,1.967,-0.3643,7.0,0.1821,0.9834,0.0,0.0
1738833006714878320,2.29,-0.671,6.977,0.3552,1.062,0.002565,-0.03833,-0.0676,-0.05276,2.232,-0.583,6.996,0.2852,1.051,0.003906,-0.03723,-0.0669,0.0339,1.982,-0.2656,7.0,0.1328,0.991,0.0,0.0
1738833006764900445,2.305,-0.62,6.977,0.3223,1.068,0.003315,-0.0383,-0.0691,-0.0528,2.232,-0.5566,6.996,0.2695,1.051,0.003906,-0.03717,-0.0679,0.034,1.982,-0.2656,7.0,0.1328,0.991,0.0,0.0
1738833006814866065,2.32,-0.564,6.977,0.2866,1.076,0.004257,-0.03717,-0.0691,-0.05283,2.25,-0.477,6.996,0.2188,1.059,0.007812,-0.03653,-0.0689,0.03433,1.993,-0.1661,7.0,0.08307,0.9966,0.0,0.0
1738833006864896535,2.334,-0.512,6.977,0.2544,1.082,0.004646,-0.03598,-0.06854,-0.0529,2.268,-0.424,6.996,0.1719,1.0625,0.007812,-0.03485,-0.0681,0.03445,1.993,-0.1661,7.0,0.08307,0.9966,0.0,0.0
