time,x_sphinx,y_sphinx,z_sphinx,vx_sphinx,vy_sphinx,vz_sphinx,roll_sphinx,pitch_sphinx,yaw_sphinx,x_anafi,y_anafi,z_anafi,vx_anafi,vy_anafi,vz_anafi,roll_anafi,pitch_anafi,yaw_anafi,wp_x,wp_y,wp_z,wp_vx,wp_vy,wp_vz,wp_yaw
1738776627563511371,1.552,-1.196,6.973,0.702,0.8657,-0.00139,-0.0446,-0.03864,-0.0959,1.585,-1.193,6.996,0.6875,0.871,0.003906,-0.04645,-0.0346,-0.00964,1.999,-0.06635,7.0,0.03317,0.9995,0.0,0.0
1738776627613491773,1.585,-1.154,6.973,0.68,0.8774,-0.001159,-0.04242,-0.04144,-0.0959,1.637,-1.14,6.996,0.66,0.8867,0.003906,-0.04297,-0.03925,-0.00978,2.0,0.0,7.0,-0.0,1.0,0.0,0.0
1738776627663476228,1.62,-1.108,6.973,0.655,0.889,-0.000748,-0.0408,-0.04346,-0.0959,1.654,-1.113,6.996,0.6484,0.8945,0.003906,-0.0417,-0.04086,-0.00977,2.0,0.0,7.0,-0.0,1.0,0.0,0.0
1738776627713560819,1.65,-1.065,6.973,0.6313,0.8994,-0.000251,-0.03967,-0.04492,-0.0958,1.689,-1.061,6.996,0.617,0.91,0.003906,-0.03967,-0.04337,-0.00976,1.997,0.1,7.0,-0.05,0.9985,0.0,0.0
1738776627763520717,1.683,-1.019,6.973,0.6045,0.9097,0.000165,-0.0377,-0.04834,-0.0958,1.725,-1.008,6.996,0.6016,0.918,0.007812,-0.03873,-0.0445,-0.00959,1.997,0.1,7.0,-0.05,0.9985,0.0,0.0
1738776627813413381,1.711,-0.9746,6.973,0.5786,0.918,0.000882,-0.036,-0.0514,-0.0958,1.76,-0.9546,6.996,0.5703,0.9297,0.007812,-0.03638,-0.0487,-0.00931,1.99,0.1997,7.0,-0.09985,0.995,0.0,0.0
1738776627863398551,1.74,-0.9263,6.973,0.5493,0.9263,0.001086,-0.0336,-0.05362,-0.0958,1.777,-0.9277,6.996,0.551,0.9336,0.007812,-0.03534,-0.0506,-0.00947,1.99,0.1997,7.0,-0.09985,0.995,0.0,0.0
1738776627913446903,1.767,-0.882,6.973,0.5215,0.933,0.000885,-0.03143,-0.05515,-0.0959,1.812,-0.875,6.996,0.5117,0.9414,0.007812,-0.03238,-0.05353,-0.00967,1.978,0.2988,7.0,-0.1494,0.989,0.0,0.0
1738776627963416337,1.793,-0.833,6.973,0.491,0.939,0.001044,-0.02866,-0.05618,-0.0958,1.829,-0.822,6.996,0.4922,0.9453,0.007812,-0.03091,-0.05463,-0.00969,1.978,0.2988,7.0,-0.1494,0.989,0.0,0.0
1738776628013406038,1.815,-0.788,6.973,0.4626,0.943,0.00137,-0.02637,-0.05673,-0.0958,1.864,-0.7686,6.996,0.4492,0.949,0.007812,-0.02727,-0.056,-0.00977,1.96,0.3972,7.0,-0.1986,0.98,0.0,0.0
1738776628063390254,1.839,-0.739,6.973,0.4321,0.9463,0.002516,-0.02344,-0.057,-0.0958,1.864,-0.742,6.996,0.4336,0.953,0.007812,-0.0259,-0.05634,-0.0098,1.96,0.3972,7.0,-0.1986,0.98,0.0,0.0
1738776628113527297,1.858,-0.6934,6.973,0.4038,0.948,0.003416,-0.02121,-0.05716,-0.0958,1.882,-0.6895,6.996,0.3906,0.953,0.007812,-0.02235,-0.05676,-0.00973,1.9375,0.4949,7.0,-0.2474,0.9688,0.0,0.0
1738776628163341760,1.879,-0.644,6.973,0.3735,0.9487,0.003767,-0.01955,-0.05737,-0.0958,1.899,-0.636,6.996,0.3633,0.953,0.007812,-0.02054,-0.057,-0.00969,1.9375,0.4949,7.0,-0.2474,0.9688,0.0,0.0
1738776628213346958,1.896,-0.5986,6.973,0.3457,0.949,0.003576,-0.01854,-0.05753,-0.09576,1.917,-0.583,6.996,0.3242,0.953,0.007812,-0.01854,-0.05725,-0.00974,1.911,0.591,7.0,-0.2954,0.9556,0.0,0.0
1738776628263326644,1.913,-0.5493,6.973,0.3157,0.9487,0.003563,-0.01784,-0.05762,-0.09576,1.917,-0.5566,6.996,0.3086,0.953,0.007812,-0.01794,-0.0573,-0.00959,1.911,0.591,7.0,-0.2954,0.9556,0.0,0.0
1738776628313332796,1.928,-0.5034,6.973,0.288,0.948,0.003603,-0.01756,-0.0575,-0.09576,1.935,-0.477,6.996,0.2656,0.949,0.007812,-0.017,-0.0574,-0.00961,1.879,0.686,7.0,-0.343,0.9395,0.0,0.0
1738776628363317489,1.942,-0.4543,6.973,0.259,0.948,0.003641,-0.01855,-0.0562,-0.09576,1.952,-0.4507,6.996,0.2422,0.949,0.007812,-0.01682,-0.0574,-0.00962,1.879,0.686,7.0,-0.343,0.9395,0.0,0.0
1738776628413319826,1.954,-0.4087,6.973,0.2333,0.948,0.00375,-0.01958,-0.05505,-0.09576,1.952,-0.371,6.996,0.2031,0.9453,0.007812,-0.01804,-0.05585,-0.0096,1.842,0.779,7.0,-0.3894,0.921,0.0,0.0
1738776628463294982,1.965,-0.3594,6.973,0.2059,0.9487,0.004623,-0.0204,-0.0553,-0.09576,1.97,-0.371,6.996,0.1875,0.9453,0.007812,-0.01865,-0.05508,-0.009674,1.842,0.779,7.0,-0.3894,0.921,0.0,0.0
1738776628513331413,1.975,-0.314,6.973,0.1807,0.9497,0.005753,-0.02097,-0.05585,-0.09576,1.97,-0.2915,6.996,0.1484,0.9453,0.007812,-0.01976,-0.05536,-0.00973,1.801,0.87,7.0,-0.435,0.9004,0.0,0.0
1738776628563308000,1.983,-0.2644,6.973,0.1533,0.951,0.007362,-0.02135,-0.05627,-0.0957,1.97,-0.265,6.996,0.1328,0.9414,0.007812,-0.0202,-0.0558,-0.00971,1.801,0.87,7.0,-0.435,0.9004,0.0,0.0
1738776628613333463,1.99,-0.2188,6.973,0.128,0.9526,0.00956,-0.02156,-0.05637,-0.0957,1.987,-0.1854,6.992,0.09766,0.9414,0.01172,-0.0207,-0.0563,-0.0097,1.755,0.959,7.0,-0.4795,0.8774,0.0,0.0
1738776628663285970,1.996,-0.1654,6.973,0.09955,0.954,0.012924,-0.02171,-0.05377,-0.0957,1.987,-0.1854,6.992,0.08203,0.9414,0.01172,-0.0208,-0.0564,-0.00969,1.755,0.959,7.0,-0.4795,0.8774,0.0,0.0
1738776628713332176,2.0,-0.1234,6.977,0.0786,0.955,0.0155,-0.02176,-0.05164,-0.09564,1.987,-0.1059,6.992,0.04297,0.9414,0.01563,-0.02098,-0.05347,-0.0098,1.705,1.045,7.0,-0.5225,0.8525,0.0,0.0
1738776628763339281,2.004,-0.07367,6.977,0.055,0.9565,0.01874,-0.02179,-0.04996,-0.09564,1.987,-0.0794,6.992,0.02734,0.9414,0.01563,-0.02107,-0.05182,-0.00982,1.705,1.045,7.0,-0.5225,0.8525,0.0,0.0
1738776628813329696,2.006,-0.02776,6.977,0.03406,0.9575,0.02167,-0.0218,-0.04892,-0.0956,1.987,-0.02638,6.99,0.0,0.9414,0.01953,-0.02107,-0.04974,-0.01001,1.65,1.129,7.0,-0.5645,0.825,0.0,0.0
1738776628863304615,2.008,0.02208,6.977,0.0121,0.959,0.02379,-0.02184,-0.04828,-0.0955,1.987,0.0001361,6.992,-0.007812,0.9414,0.01953,-0.02109,-0.04904,-0.00976,1.65,1.129,7.0,-0.5645,0.825,0.0,0.0
1738776628913329362,2.008,0.0681,6.98,-0.007725,0.96,0.02414,-0.02184,-0.04813,-0.0955,1.987,0.07965,6.992,-0.03906,0.9414,0.02344,-0.0212,-0.04828,-0.00942,1.592,1.21,7.0,-0.605,0.796,0.0,0.0
1738776628963303089,2.006,0.11426,6.98,-0.02734,0.961,0.0247,-0.0218,-0.04803,-0.0956,1.987,0.1062,6.992,-0.0547,0.9414,0.02344,-0.0212,-0.0481,-0.00925,1.592,1.21,7.0,-0.605,0.796,0.0,0.0
1738776629013325929,2.004,0.1642,6.98,-0.04828,0.962,0.02539,-0.02182,-0.04782,-0.09564,1.987,0.1592,6.992,-0.0781,0.9414,0.02344,-0.0211,-0.048,-0.00908,1.529,1.288,7.0,-0.644,0.7646,0.0,0.0
1738776629063283443,2.002,0.2144,6.984,-0.06885,0.9634,0.02539,-0.02182,-0.04773,-0.0957,1.987,0.1858,6.992,-0.08984,0.9414,0.02344,-0.02112,-0.04785,-0.0089,1.529,1.288,7.0,-0.644,0.7646,0.0,0.0
1738776629113334417,1.997,0.2605,6.984,-0.08765,0.964,0.02487,-0.02165,-0.0479,-0.09576,1.97,0.2654,6.992,-0.1172,0.9414,0.02344,-0.02112,-0.04767,-0.008736,1.463,1.363,7.0,-0.6816,0.7314,0.0,0.0
1738776629163293600,1.993,0.307,6.984,-0.10675,0.965,0.02383,-0.02045,-0.05023,-0.0959,1.97,0.2917,6.992,-0.1289,0.9414,0.02344,-0.02103,-0.04776,-0.008736,1.463,1.363,7.0,-0.6816,0.7314,0.0,0.0
1738776629213337659,1.986,0.357,6.99,-0.1288,0.965,0.02312,-0.01913,-0.05295,-0.096,1.97,0.3447,6.992,-0.1562,0.9414,0.02344,-0.01938,-0.05093,-0.00874,1.394,1.435,7.0,-0.7173,0.697,0.0,0.0
1738776629263298988,1.978,0.4148,6.99,-0.1553,0.9644,0.02235,-0.01802,-0.05493,-0.0961,1.97,0.3713,6.992,-0.1641,0.9375,0.01953,-0.01868,-0.0525,-0.00901,1.394,1.435,7.0,-0.7173,0.697,0.0,0.0
1738776629313326120,1.97,0.4612,6.99,-0.177,0.964,0.02232,-0.0172,-0.05603,-0.0962,1.952,0.451,6.992,-0.1914,0.9375,0.01953,-0.01746,-0.05472,-0.00919,1.32,1.503,7.0,-0.7515,0.66,0.0,0.0
1738776629363296747,1.963,0.4998,6.99,-0.1953,0.963,0.02213,-0.01581,-0.0566,-0.0962,1.935,0.4773,6.992,-0.2109,0.9375,0.01953,-0.01685,-0.05566,-0.00929,1.32,1.503,7.0,-0.7515,0.66,0.0,0.0
1738776629413319587,1.952,0.55,6.992,-0.2192,0.961,0.0218,-0.01417,-0.0572,-0.09625,1.935,0.557,6.992,-0.2383,0.9336,0.01953,-0.01467,-0.0566,-0.00943,1.243,1.566,7.0,-0.783,0.6216,0.0,0.0
1738776629463281869,1.94,0.5957,6.992,-0.2413,0.9585,0.02174,-0.01309,-0.05756,-0.09625,1.935,0.557,6.992,-0.25,0.9297,0.01953,-0.01381,-0.05695,-0.00945,1.243,1.566,7.0,-0.783,0.6216,0.0,0.0
1738776629513333320,1.928,0.6455,6.992,-0.2654,0.9556,0.02118,-0.01215,-0.05786,-0.0963,1.917,0.636,6.996,-0.2773,0.926,0.01953,-0.01234,-0.05737,-0.00949,1.163,1.627,7.0,-0.8135,0.5815,0.0,0.0
1738776629563293695,1.913,0.6953,6.996,-0.289,0.952,0.02032,-0.010345,-0.05817,-0.0963,1.899,0.663,6.996,-0.289,0.922,0.01953,-0.01182,-0.05756,-0.009415,1.163,1.627,7.0,-0.8135,0.5815,0.0,0.0
1738776629613380193,1.898,0.7407,6.996,-0.311,0.9478,0.01895,-0.008705,-0.05838,-0.0964,1.882,0.716,6.996,-0.3164,0.918,0.01563,-0.0094,-0.0579,-0.00948,1.081,1.683,7.0,-0.8413,0.5405,0.0,0.0
1738776629663290739,1.882,0.79,6.996,-0.3347,0.9424,0.01733,-0.006264,-0.05862,-0.0964,1.882,0.7427,6.996,-0.3281,0.914,0.01563,-0.00862,-0.05798,-0.00951,1.081,1.683,7.0,-0.8413,0.5405,0.0,0.0
1738776629713295936,1.865,0.835,6.996,-0.3564,0.9365,0.01628,-0.004326,-0.0588,-0.09644,1.864,0.8223,6.996,-0.3555,0.9062,0.01172,-0.005512,-0.0583,-0.00942,0.995,1.734,7.0,-0.867,0.4976,0.0,0.0
1738776629763297080,1.848,0.88,6.996,-0.3784,0.93,0.01604,-0.00294,-0.05994,-0.09644,1.847,0.8486,6.996,-0.371,0.8984,0.01172,-0.00404,-0.05838,-0.00947,0.995,1.734,7.0,-0.867,0.4976,0.0,0.0
1738776629813310146,1.827,0.928,7.0,-0.4028,0.9224,0.01619,-0.001925,-0.06134,-0.0965,1.829,0.9014,6.996,-0.3984,0.8906,0.01172,-0.002138,-0.05994,-0.009346,0.907,1.782,7.0,-0.891,0.4536,0.0,0.0
1738776629863326311,1.808,0.972,7.0,-0.4258,0.915,0.0163,-0.001316,-0.0633,-0.09656,1.812,0.928,6.996,-0.4102,0.883,0.01172,-0.001618,-0.0606,-0.00928,0.907,1.782,7.0,-0.891,0.4536,0.0,0.0
1738776629913305044,1.784,1.02,7.0,-0.4517,0.907,0.01628,-0.000781,-0.0655,-0.0966,1.795,0.981,6.996,-0.4375,0.871,0.01172,-0.0007477,-0.0632,-0.00913,0.817,1.825,7.0,-0.9126,0.4084,0.0,0.0
1738776629963299274,1.761,1.066,7.0,-0.478,0.899,0.01599,0.00078,-0.067,-0.0967,1.777,1.008,6.996,-0.4492,0.867,0.01172,-0.0004845,-0.0647,-0.009056,0.817,1.825,7.0,-0.9126,0.4084,0.0,0.0
1738776630013303518,1.737,1.109,7.0,-0.503,0.891,0.01605,0.002157,-0.068,-0.09674,1.76,1.087,6.996,-0.4805,0.8516,0.01172,0.001525,-0.06665,-0.00947,0.7246,1.864,7.0,-0.932,0.3623,0.0,0.0
1738776630063292503,1.712,1.152,7.004,-0.528,0.8823,0.01591,0.003153,-0.06866,-0.09674,1.742,1.113,6.996,-0.496,0.8477,0.01172,0.002481,-0.06726,-0.00958,0.7246,1.864,7.0,-0.932,0.3623,0.0,0.0
1738776630113367080,1.684,1.197,7.004,-0.5547,0.873,0.015434,0.004017,-0.0693,-0.09674,1.707,1.167,6.996,-0.5273,0.836,0.01172,0.003702,-0.0681,-0.009796,0.631,1.898,7.0,-0.949,0.3154,0.0,0.0
1738776630163323640,1.656,1.239,7.004,-0.58,0.864,0.015144,0.005653,-0.07074,-0.09674,1.689,1.193,6.996,-0.547,0.828,0.01172,0.004227,-0.0686,-0.0099,0.631,1.898,7.0,-0.949,0.3154,0.0,0.0
1738776630213356733,1.626,1.284,7.004,-0.608,0.853,0.01515,0.007317,-0.0723,-0.0967,1.654,1.246,6.996,-0.582,0.8125,0.007812,0.006573,-0.0706,-0.009995,0.535,1.927,7.0,-0.9634,0.2676,0.0,0.0
1738776630263298034,1.594,1.328,7.004,-0.636,0.842,0.015205,0.00849,-0.07336,-0.0967,1.637,1.272,6.996,-0.5977,0.8047,0.007812,0.007526,-0.07153,-0.01003,0.535,1.927,7.0,-0.9634,0.2676,0.0,0.0
1738776630313292264,1.594,1.328,7.004,-0.636,0.842,0.015205,0.00849,-0.07336,-0.0967,1.585,1.326,6.996,-0.633,0.789,0.007812,0.00892,-0.07294,-0.01,0.438,1.951,7.0,-0.9756,0.219,0.0,0.0
1738776630363285779,1.527,1.411,7.008,-0.691,0.8193,0.01446,0.01117,-0.0746,-0.09656,1.567,1.353,6.996,-0.6523,0.7812,0.007812,0.00944,-0.0734,-0.00993,0.438,1.951,7.0,-0.9756,0.219,0.0,0.0
1738776630413304567,1.496,1.447,7.008,-0.715,0.8086,0.01414,0.012665,-0.07477,-0.09656,1.515,1.405,6.996,-0.6953,0.7656,0.007812,0.011765,-0.0742,-0.00985,0.3398,1.971,7.0,-0.9854,0.1699,0.0,0.0
1738776630463347911,1.455,1.492,7.008,-0.7446,0.794,0.013756,0.015274,-0.07227,-0.09656,1.497,1.432,6.996,-0.711,0.758,0.007812,0.0128,-0.07434,-0.0098,0.3398,1.971,7.0,-0.9854,0.1699,0.0,0.0
1738776630513328313,1.419,1.529,7.008,-0.7686,0.7803,0.01319,0.01738,-0.0698,-0.09656,1.444,1.485,6.996,-0.746,0.742,0.007812,0.01572,-0.0716,-0.00972,0.241,1.985,7.0,-0.9927,0.1205,0.0,0.0
1738776630563304901,1.378,1.569,7.01,-0.7935,0.7646,0.01331,0.02016,-0.0667,-0.09656,1.41,1.512,6.996,-0.7656,0.7305,0.007812,0.01727,-0.0698,-0.00976,0.241,1.985,7.0,-0.9927,0.1205,0.0,0.0
1738776630613292694,1.34,1.606,7.01,-0.8145,0.7485,0.013954,0.02257,-0.0641,-0.0965,1.357,1.564,6.996,-0.797,0.711,0.007812,0.0208,-0.0658,-0.009926,0.1415,1.995,7.0,-0.9976,0.07074,0.0,0.0
1738776630663274288,1.3,1.642,7.01,-0.834,0.7314,0.0147,0.02643,-0.06125,-0.0965,1.322,1.591,6.996,-0.8086,0.699,0.007812,0.02217,-0.0642,-0.009865,0.1415,1.995,7.0,-0.9976,0.07074,0.0,0.0
1738776630713304996,1.256,1.679,7.01,-0.854,0.711,0.0146,0.03024,-0.05865,-0.0965,1.27,1.644,6.996,-0.836,0.676,0.007812,0.02724,-0.0605,-0.009636,0.0416,2.0,7.0,-1.0,0.0208,0.0,0.0
1738776630763283014,1.215,1.713,7.01,-0.871,0.6904,0.01455,0.0327,-0.056,-0.0965,1.234,1.671,6.996,-0.8477,0.664,0.007812,0.02982,-0.05875,-0.0096,0.0416,2.0,7.0,-1.0,0.0208,0.0,0.0
1738776630813303470,1.169,1.748,7.01,-0.888,0.6675,0.01439,0.0346,-0.05347,-0.09656,1.183,1.697,7.0,-0.875,0.633,0.007812,0.03336,-0.05502,-0.00964,-0.0584,1.999,7.0,-0.9995,-0.0292,0.0,0.0
1738776630863269329,1.122,1.782,7.016,-0.904,0.644,0.013954,0.03683,-0.0508,-0.09656,1.147,1.724,7.0,-0.883,0.621,0.007812,0.03436,-0.05362,-0.00964,-0.0584,1.999,7.0,-0.9995,-0.0292,0.0,0.0
1738776630913296937,1.079,1.8125,7.016,-0.917,0.621,0.01348,0.03894,-0.04837,-0.09656,1.095,1.776,7.0,-0.9023,0.5938,0.007812,0.03705,-0.0504,-0.00992,-0.1582,1.994,7.0,-0.997,-0.0791,0.0,0.0
1738776630963256835,1.034,1.842,7.016,-0.9287,0.597,0.013084,0.04147,-0.0456,-0.09656,1.06,1.776,7.0,-0.91,0.574,0.003906,0.03857,-0.04868,-0.00992,-0.1582,1.994,7.0,-0.997,-0.0791,0.0,0.0
1738776631013350248,0.9897,1.87,7.016,-0.9395,0.5728,0.0126,0.04364,-0.04312,-0.09656,0.99,1.83,7.0,-0.926,0.539,0.003906,0.04218,-0.0447,-0.00958,-0.2576,1.983,7.0,-0.9917,-0.1288,0.0,0.0
1738776631063267946,0.9404,1.898,7.016,-0.9497,0.5454,0.01237,0.0453,-0.04132,-0.09656,0.9727,1.83,7.0,-0.9336,0.5234,0.003906,0.04346,-0.0432,-0.009575,-0.2576,1.983,7.0,-0.9917,-0.1288,0.0,0.0
1738776631113281965,0.8906,1.927,7.016,-0.959,0.517,0.01214,0.04648,-0.04,-0.09656,0.9023,1.883,7.0,-0.9414,0.4844,0.003906,0.04544,-0.04105,-0.00957,-0.3564,1.968,7.0,-0.984,-0.1782,0.0,0.0
1738776631163256883,0.8447,1.95,7.02,-0.9673,0.491,0.011795,0.04825,-0.03815,-0.09656,0.8677,1.883,7.0,-0.949,0.461,0.003906,0.0464,-0.0401,-0.00957,-0.3564,1.968,7.0,-0.984,-0.1782,0.0,0.0
1738776631213262796,0.798,1.974,7.02,-0.9746,0.4644,0.011345,0.0499,-0.03635,-0.09656,0.798,1.909,7.0,-0.961,0.4219,0.003906,0.0488,-0.03766,-0.00973,-0.4543,1.947,7.0,-0.9736,-0.2272,0.0,0.0
1738776631263247966,0.747,1.997,7.02,-0.981,0.4348,0.011185,0.05112,-0.03384,-0.09656,0.7803,1.936,7.0,-0.961,0.4062,0.003906,0.04974,-0.03656,-0.00972,-0.4543,1.947,7.0,-0.9736,-0.2272,0.0,0.0
1738776631313267707,0.6997,2.018,7.02,-0.986,0.4072,0.010735,0.05194,-0.03174,-0.09656,0.7104,1.962,7.0,-0.9688,0.3672,0.003906,0.05127,-0.03342,-0.01001,-0.5513,1.923,7.0,-0.9614,-0.2756,0.0,0.0
1738776631363249778,0.6484,2.037,7.02,-0.99,0.3774,0.0103,0.05246,-0.03021,-0.09656,0.6753,1.962,7.0,-0.9727,0.3477,0.003906,0.05188,-0.03195,-0.00981,-0.5513,1.923,7.0,-0.9614,-0.2756,0.0,0.0
1738776631413256645,0.601,2.055,7.02,-0.994,0.3499,0.00987,0.05273,-0.02922,-0.09656,0.6055,1.988,7.0,-0.9766,0.3047,-0.0,0.05264,-0.02997,-0.0096,-0.6465,1.893,7.0,-0.9463,-0.3232,0.0,0.0
1738776631463281631,0.5493,2.072,7.02,-0.997,0.3203,0.00922,0.05292,-0.02853,-0.09656,0.5703,1.988,7.0,-0.9766,0.289,-0.0,0.05273,-0.02937,-0.0095,-0.6465,1.893,7.0,-0.9463,-0.3232,0.0,0.0
1738776631513290166,0.501,2.088,7.023,-1.0,0.2932,0.00877,0.053,-0.02812,-0.0966,0.518,2.016,7.0,-0.9766,0.25,-0.0,0.05298,-0.0286,-0.00931,-0.74,1.858,7.0,-0.929,-0.37,0.0,0.0
1738776631563266992,0.4492,2.102,7.023,-1.003,0.2642,0.008316,0.05304,-0.0278,-0.0966,0.4653,2.016,7.0,-0.9805,0.2305,-0.0,0.05307,-0.02834,-0.0093,-0.74,1.858,7.0,-0.929,-0.37,0.0,0.0
1738776631613327980,0.401,2.113,7.023,-1.005,0.2377,0.008026,0.05307,-0.02753,-0.0967,0.3955,2.016,7.0,-0.9805,0.1875,-0.0,0.05313,-0.02791,-0.00929,-0.8325,1.818,7.0,-0.909,-0.4163,0.0,0.0
1738776631663347482,0.3486,2.125,7.023,-1.008,0.2092,0.007656,0.05304,-0.02618,-0.09674,0.378,2.041,7.0,-0.9805,0.1758,-0.0,0.05313,-0.02773,-0.009285,-0.8325,1.818,7.0,-0.909,-0.4163,0.0,0.0
1738776631713303804,0.3003,2.135,7.023,-1.009,0.1832,0.00705,0.05304,-0.02486,-0.0968,0.308,2.041,7.0,-0.9805,0.1367,-0.0,0.05313,-0.02618,-0.00925,-0.9224,1.774,7.0,-0.887,-0.4612,0.0,0.0
1738776631763289451,0.2477,2.143,7.023,-1.01,0.1554,0.006382,0.05304,-0.02385,-0.09686,0.273,2.041,7.0,-0.9805,0.1172,-0.0,0.05313,-0.02515,-0.00922,-0.9224,1.774,7.0,-0.887,-0.4612,0.0,0.0
1738776631813275814,0.1992,2.15,7.023,-1.01,0.1299,0.006073,0.05304,-0.02315,-0.0969,0.203,2.041,7.0,-0.9805,0.08203,-0.0,0.05322,-0.02385,-0.00935,-1.01,1.727,7.0,-0.8633,-0.505,0.0,0.0
1738776631863252878,0.1466,2.156,7.023,-1.011,0.10254,0.005856,0.05304,-0.0226,-0.0969,0.1855,2.068,7.0,-0.9805,0.0664,-0.0,0.05313,-0.0234,-0.00943,-1.01,1.727,7.0,-0.8633,-0.505,0.0,0.0
1738776631913249015,0.09814,2.16,7.023,-1.011,0.0776,0.005714,0.05304,-0.02228,-0.097,0.1156,2.068,7.0,-0.9766,0.03125,-0.0,0.0532,-0.0228,-0.00959,-1.095,1.674,7.0,-0.837,-0.5474,0.0,0.0
1738776631963329315,0.04562,2.164,7.023,-1.01,0.05078,0.005943,0.05307,-0.02203,-0.097,0.0806,2.068,7.0,-0.9766,0.01172,-0.0,0.05313,-0.02254,-0.00967,-1.095,1.674,7.0,-0.837,-0.5474,0.0,0.0
1738776632013297080,-0.002851,2.166,7.023,-1.01,0.0263,0.006073,0.05307,-0.02182,-0.097,0.0107,2.068,7.0,-0.9766,-0.01953,-0.0,0.0532,-0.02228,-0.00974,-1.177,1.617,7.0,-0.8086,-0.5884,0.0,0.0
1738776632063261747,-0.05536,2.166,7.023,-1.009,8.1e-05,0.005943,0.0531,-0.02055,-0.097,-0.02428,2.068,7.0,-0.9727,-0.03125,-0.0,0.05313,-0.02219,-0.00983,-1.177,1.617,7.0,-0.8086,-0.5884,0.0,0.0
1738776632113260746,-0.10376,2.166,7.027,-1.008,-0.02396,0.00589,0.0532,-0.01923,-0.0969,-0.0767,2.068,7.0,-0.9727,-0.0625,-0.0,0.0532,-0.02054,-0.01005,-1.256,1.556,7.0,-0.778,-0.628,0.0,0.0
1738776632163275957,-0.1561,2.164,7.027,-1.006,-0.05008,0.006104,0.05447,-0.01819,-0.09686,-0.1117,2.068,7.0,-0.9688,-0.08203,-0.0,0.0532,-0.01968,-0.010025,-1.256,1.556,7.0,-0.778,-0.628,0.0,0.0
1738776632213361501,-0.2043,2.16,7.027,-1.004,-0.0746,0.006245,0.05582,-0.01752,-0.09686,-0.1816,2.068,7.0,-0.965,-0.1133,-0.0,0.05493,-0.01828,-0.01026,-1.333,1.491,7.0,-0.7456,-0.6665,0.0,0.0
1738776632263271331,-0.2566,2.156,7.027,-1.002,-0.10175,0.006336,0.05804,-0.01701,-0.09674,-0.2167,2.068,7.0,-0.965,-0.125,-0.0,0.0557,-0.01802,-0.010345,-1.333,1.491,7.0,-0.7456,-0.6665,0.0,0.0
1738776632313286304,-0.3044,2.15,7.027,-0.9995,-0.1276,0.00639,0.06,-0.01666,-0.09674,-0.2866,2.041,7.0,-0.957,-0.1602,-0.0,0.05844,-0.01733,-0.009834,-1.405,1.423,7.0,-0.7114,-0.7026,0.0,0.0
1738776632363279819,-0.3564,2.143,7.027,-0.9966,-0.156,0.006546,0.06146,-0.015274,-0.09674,-0.3215,2.041,7.0,-0.957,-0.1758,-0.0,0.0598,-0.01715,-0.00967,-1.405,1.423,7.0,-0.7114,-0.7026,0.0,0.0
1738776632413290739,-0.4043,2.135,7.027,-0.9937,-0.1826,0.00658,0.06235,-0.01387,-0.09674,-0.374,2.041,7.0,-0.949,-0.2148,-0.0,0.0617,-0.01526,-0.00937,-1.475,1.351,7.0,-0.6753,-0.7373,0.0,0.0
1738776632463263034,-0.4558,2.125,7.027,-0.9897,-0.2113,0.006638,0.06183,-0.01282,-0.09674,-0.409,2.041,7.0,-0.9453,-0.2266,-0.0,0.06223,-0.01439,-0.009346,-1.475,1.351,7.0,-0.6753,-0.7373,0.0,0.0
1738776632513272285,-0.5034,2.113,7.027,-0.9854,-0.2372,0.006462,0.061,-0.01217,-0.0968,-0.479,2.016,7.0,-0.9414,-0.2617,-0.0,0.0616,-0.0131,-0.00922,-1.54,1.275,7.0,-0.6377,-0.77,0.0,0.0
1738776632563271760,-0.554,2.102,7.027,-0.981,-0.2644,0.006245,0.0603,-0.0117,-0.0969,-0.514,2.016,7.0,-0.9336,-0.2812,-0.0,0.0609,-0.01259,-0.00919,-1.54,1.275,7.0,-0.6377,-0.77,0.0,0.0
1738776632613355875,-0.601,2.088,7.027,-0.9766,-0.289,0.0059,0.05984,-0.01136,-0.097,-0.5664,1.988,7.0,-0.9297,-0.3125,-0.0,0.06006,-0.01208,-0.00917,-1.603,1.197,7.0,-0.5986,-0.8013,0.0,0.0
1738776632663286685,-0.652,2.072,7.027,-0.971,-0.3152,0.00567,0.05954,-0.00993,-0.09705,-0.6016,1.988,7.0,-0.926,-0.3281,-0.0,0.05972,-0.0119,-0.00916,-1.603,1.197,7.0,-0.5986,-0.8013,0.0,0.0
1738776632713287591,-0.698,2.057,7.027,-0.966,-0.339,0.004993,0.05945,-0.00854,-0.0971,-0.654,1.962,7.0,-0.918,-0.3594,-0.0,0.05936,-0.01018,-0.00919,-1.66,1.115,7.0,-0.5576,-0.83,0.0,0.0
1738776632763273715,-0.7485,2.037,7.03,-0.9595,-0.365,0.004917,0.0606,-0.007423,-0.09717,-0.689,1.962,7.0,-0.91,-0.375,-0.0,0.05927,-0.009224,-0.009254,-1.66,1.115,7.0,-0.5576,-0.83,0.0,0.0
1738776632813287496,-0.7983,2.018,7.03,-0.9526,-0.3914,0.00481,0.06192,-0.006603,-0.09717,-0.759,1.936,7.0,-0.9023,-0.4062,-0.0,0.06082,-0.007835,-0.00939,-1.714,1.031,7.0,-0.5156,-0.857,0.0,0.0
1738776632863274812,-0.8438,1.999,7.03,-0.9463,-0.4158,0.004482,0.0628,-0.00613,-0.0972,-0.7764,1.909,7.0,-0.8984,-0.418,-0.0,0.0615,-0.007305,-0.00955,-1.714,1.031,7.0,-0.5156,-0.857,0.0,0.0
1738776632913284301,-0.889,1.979,7.03,-0.9395,-0.4404,0.004383,0.0635,-0.00573,-0.0972,-0.846,1.909,7.0,-0.8867,-0.4492,-0.0,0.0628,-0.00669,-0.00971,-1.763,0.944,7.0,-0.472,-0.8813,0.0,0.0
1738776632963276863,-0.9375,1.955,7.03,-0.932,-0.467,0.004333,0.06396,-0.004288,-0.0973,-0.8813,1.883,7.0,-0.883,-0.4648,-0.0,0.06323,-0.006428,-0.009705,-1.763,0.944,7.0,-0.472,-0.8813,0.0,0.0
1738776633013355731,-0.9824,1.932,7.03,-0.925,-0.4917,0.003963,0.06433,-0.00287,-0.0972,-0.9336,1.856,7.0,-0.871,-0.496,-0.0,0.0637,-0.00452,-0.0099,-1.809,0.855,7.0,-0.4275,-0.9043,0.0,0.0
1738776633063338041,-1.03,1.905,7.03,-0.9165,-0.518,0.002901,0.06464,-0.001853,-0.0972,-0.9688,1.856,7.0,-0.867,-0.508,-0.0,0.0639,-0.003653,-0.01005,-1.809,0.855,7.0,-0.4275,-0.9043,0.0,0.0
1738776633113382101,-1.074,1.88,7.03,-0.908,-0.5425,0.002378,0.06476,-0.001062,-0.09717,-1.021,1.803,7.0,-0.8555,-0.543,-0.0,0.0644,-0.002432,-0.01027,-1.849,0.763,7.0,-0.3816,-0.9243,0.0,0.0
1738776633163344621,-1.121,1.852,7.03,-0.899,-0.5684,0.002153,0.0649,0.00088,-0.0971,-1.056,1.776,7.0,-0.8477,-0.5664,-0.0,0.0645,-0.001837,-0.009995,-1.849,0.763,7.0,-0.3816,-0.9243,0.0,0.0
1738776633213351726,-1.164,1.823,7.03,-0.889,-0.5923,0.001724,0.06494,0.002558,-0.0971,-1.126,1.75,7.0,-0.836,-0.6016,-0.0,0.06464,0.000574,-0.00974,-1.885,0.67,7.0,-0.335,-0.9424,0.0,0.0
1738776633263343095,-1.21,1.792,7.03,-0.8784,-0.618,0.001615,0.06494,0.005024,-0.0971,-1.144,1.724,7.0,-0.828,-0.6133,-0.0,0.06464,0.001604,-0.00954,-1.885,0.67,7.0,-0.335,-0.9424,0.0,0.0
1738776633313364267,-1.252,1.762,7.03,-0.867,-0.6416,0.001934,0.0649,0.007084,-0.0971,-1.196,1.671,7.0,-0.8125,-0.6484,-0.0,0.06476,0.004623,-0.00944,-1.916,0.575,7.0,-0.2876,-0.958,0.0,0.0
1738776633363349437,-1.296,1.728,7.03,-0.854,-0.667,0.002333,0.0649,0.0086,-0.0971,-1.23,1.644,7.0,-0.8047,-0.668,-0.0,0.0648,0.006096,-0.00956,-1.916,0.575,7.0,-0.2876,-0.958,0.0,0.0
1738776633413346529,-1.341,1.692,7.03,-0.8403,-0.692,0.002657,0.06476,0.00967,-0.09717,-1.283,1.591,7.0,-0.789,-0.703,-0.0,0.0648,0.007996,-0.00959,-1.942,0.4785,7.0,-0.2393,-0.971,0.0,0.0
1738776633463348150,-1.381,1.658,7.03,-0.8276,-0.7144,0.003136,0.0635,0.01143,-0.09717,-1.318,1.591,7.0,-0.7812,-0.715,-0.0,0.0648,0.008514,-0.00966,-1.942,0.4785,7.0,-0.2393,-0.971,0.0,0.0
1738776633513344049,-1.42,1.624,7.03,-0.814,-0.736,0.00344,0.0621,0.013245,-0.09717,-1.371,1.538,7.0,-0.7656,-0.75,-0.0,0.06323,0.01076,-0.009766,-1.964,0.3809,7.0,-0.1904,-0.982,0.0,0.0
1738776633563344240,-1.462,1.585,7.03,-0.7983,-0.7583,0.003876,0.05975,0.0158,-0.0971,-1.389,1.512,7.0,-0.754,-0.7656,-0.0,0.0623,0.012054,-0.00999,-1.964,0.3809,7.0,-0.1904,-0.982,0.0,0.0
1738776633613344669,-1.5,1.548,7.03,-0.7827,-0.778,0.004116,0.0578,0.01791,-0.0971,-1.458,1.432,7.0,-0.7344,-0.797,-0.0,0.05923,0.0154,-0.009735,-1.98,0.2822,7.0,-0.1411,-0.99,0.0,0.0
1738776633663361549,-1.537,1.51,7.03,-0.766,-0.7964,0.004192,0.05533,0.02037,-0.0971,-1.476,1.432,7.0,-0.7266,-0.8086,-0.0,0.0581,0.0167,-0.00962,-1.98,0.2822,7.0,-0.1411,-0.99,0.0,0.0
1738776633713430881,-1.576,1.468,7.03,-0.7466,-0.8145,0.00436,0.05295,0.02304,-0.0971,-1.528,1.353,7.0,-0.703,-0.832,-0.0,0.0548,0.01994,-0.00947,-1.991,0.183,7.0,-0.0915,-0.9956,0.0,0.0
1738776633763355493,-1.614,1.426,7.03,-0.726,-0.832,0.00437,0.0513,0.02731,-0.09717,-1.563,1.326,7.0,-0.6875,-0.8477,-0.0,0.05316,0.02193,-0.00944,-1.991,0.183,7.0,-0.0915,-0.9956,0.0,0.0
1738776633813360691,-1.648,1.385,7.03,-0.705,-0.8477,0.00399,0.05023,0.03082,-0.09717,-1.599,1.272,7.0,-0.664,-0.871,-0.0,0.05124,0.02728,-0.00967,-1.998,0.0832,7.0,-0.0416,-0.999,0.0,0.0
1738776633863344907,-1.685,1.341,7.035,-0.6807,-0.8633,0.003763,0.04843,0.0345,-0.0972,-1.615,1.246,7.0,-0.6523,-0.879,-0.0,0.05054,0.02934,-0.00962,-1.998,0.0832,7.0,-0.0416,-0.999,0.0,0.0
1738776633913378000,-1.717,1.299,7.035,-0.6567,-0.877,0.003523,0.04675,0.03748,-0.0972,-1.668,1.193,7.0,-0.621,-0.8984,-0.0,0.04837,0.0339,-0.00945,-2.0,-0.01682,7.0,0.00841,-1.0,0.0,0.0
1738776633963336944,-1.748,1.256,7.035,-0.632,-0.89,0.003696,0.04553,0.03955,-0.0972,-1.686,1.167,7.0,-0.6016,-0.9062,-0.0,0.04715,0.03598,-0.00943,-2.0,-0.01682,7.0,0.00841,-1.0,0.0,0.0
1738776634013362884,-1.78,1.21,7.035,-0.6045,-0.904,0.003439,0.04456,0.041,-0.0973,-1.738,1.087,7.0,-0.5703,-0.926,-0.0,0.0455,0.03882,-0.00957,-1.997,-0.11676,7.0,0.05838,-0.9985,0.0,0.0
1738776634063333749,-1.809,1.166,7.035,-0.579,-0.9155,0.002998,0.0429,0.0408,-0.0973,-1.756,1.061,7.0,-0.5547,-0.9297,-0.0,0.04498,0.0395,-0.00956,-1.997,-0.11676,7.0,0.05838,-0.9985,0.0,0.0
1738776634113421201,-1.838,1.118,7.035,-0.552,-0.9272,0.003422,0.04102,0.04025,-0.0973,-1.791,1.008,7.0,-0.5195,-0.9453,-0.0,0.04282,0.03925,-0.0097,-1.988,-0.2164,7.0,0.1082,-0.994,0.0,0.0
1738776634163337469,-1.865,1.069,7.035,-0.525,-0.9375,0.003626,0.03848,0.04108,-0.0973,-1.808,0.981,7.0,-0.5,-0.953,-0.0,0.0416,0.03888,-0.00973,-1.988,-0.2164,7.0,0.1082,-0.994,0.0,0.0
1738776634213441371,-1.891,1.024,7.035,-0.4998,-0.9463,0.003435,0.0365,0.0419,-0.0972,-1.825,0.9014,7.0,-0.457,-0.965,-0.0,0.0383,0.04007,-0.009766,-1.975,-0.3154,7.0,0.1577,-0.9873,0.0,0.0
1738776634263438701,-1.916,0.975,7.035,-0.4724,-0.9546,0.003048,0.035,0.0425,-0.0972,-1.843,0.875,7.0,-0.4414,-0.9688,-0.0,0.0372,0.0405,-0.00978,-1.975,-0.3154,7.0,0.1577,-0.9873,0.0,0.0
1738776634313405036,-1.9375,0.9287,7.035,-0.4473,-0.9614,0.002962,0.03394,0.04297,-0.0972,-1.86,0.8223,7.0,-0.4062,-0.9766,-0.0,0.03537,0.0413,-0.00998,-1.957,-0.4138,7.0,0.2069,-0.9785,0.0,0.0
1738776634363306522,-1.96,0.879,7.035,-0.4197,-0.968,0.002586,0.03198,0.04327,-0.09717,-1.878,0.769,7.0,-0.3867,-0.9805,-0.0,0.03452,0.04163,-0.01008,-1.957,-0.4138,7.0,0.2069,-0.9785,0.0,0.0
1738776634413404703,-1.9795,0.832,7.035,-0.3945,-0.973,0.002256,0.03041,0.04346,-0.0971,-1.8955,0.716,7.0,-0.3438,-0.9883,-0.0,0.03198,0.04202,-0.010124,-1.934,-0.511,7.0,0.2556,-0.967,0.0,0.0
1738776634463395357,-1.998,0.785,7.035,-0.3696,-0.9775,0.001594,0.02928,0.04355,-0.09705,-1.913,0.6895,7.0,-0.332,-0.9883,-0.0,0.03104,0.0421,-0.01022,-1.934,-0.511,7.0,0.2556,-0.967,0.0,0.0
1738776634513398408,-2.018,0.7305,7.035,-0.3406,-0.9824,0.001476,0.02821,0.04364,-0.0969,-1.931,0.61,7.0,-0.293,-0.992,-0.0,0.02966,0.0423,-0.01034,-1.905,-0.607,7.0,0.3035,-0.9526,0.0,0.0
1738776634563264608,-2.033,0.683,7.035,-0.3157,-0.986,0.002106,0.02649,0.0438,-0.09686,-1.948,0.5835,7.0,-0.2734,-0.996,-0.0,0.02888,0.04236,-0.01035,-1.905,-0.607,7.0,0.3035,-0.9526,0.0,0.0
1738776634613312721,-2.049,0.6357,7.035,-0.2913,-0.9883,0.00249,0.02498,0.04388,-0.09674,-1.948,0.504,7.0,-0.2383,-0.996,-0.0,0.02655,0.0426,-0.01049,-1.873,-0.7017,7.0,0.3508,-0.9365,0.0,0.0
1738776634663312196,-2.062,0.5884,7.035,-0.2668,-0.99,0.002357,0.02388,0.04382,-0.0966,-1.966,0.504,7.0,-0.2227,-0.996,-0.0,0.02568,0.0426,-0.010506,-1.873,-0.7017,7.0,0.3508,-0.9365,0.0,0.0
1738776634713328361,-2.074,0.5366,7.035,-0.2406,-0.9917,0.002478,0.02306,0.04376,-0.0965,-1.982,0.4243,7.0,-0.1875,-1.0,-0.0,0.02422,0.0425,-0.01054,-1.836,-0.7944,7.0,0.3972,-0.918,0.0,0.0
1738776634763263702,-2.086,0.485,7.035,-0.2146,-0.9927,0.002619,0.02252,0.04376,-0.0964,-1.982,0.398,7.0,-0.168,-1.0,-0.0,0.0237,0.0425,-0.01055,-1.836,-0.7944,7.0,0.3972,-0.918,0.0,0.0
1738776634813374280,-2.096,0.4414,7.035,-0.1929,-0.9937,0.002464,0.02225,0.04373,-0.09625,-1.982,0.3184,7.0,-0.1328,-1.0,-0.0,0.02309,0.0426,-0.01056,-1.794,-0.8853,7.0,0.4426,-0.897,0.0,0.0
1738776634863263845,-2.105,0.3857,7.035,-0.1655,-0.9946,0.00173,0.022,0.04364,-0.09607,-2.0,0.2917,7.0,-0.1211,-0.996,-0.0,0.02283,0.0425,-0.01057,-1.794,-0.8853,7.0,0.4426,-0.897,0.0,0.0
1738776634913439273,-2.113,0.3381,7.035,-0.1425,-0.995,0.000864,0.0219,0.0435,-0.09595,-2.0,0.2388,7.0,-0.08984,-0.996,-0.0,0.02257,0.04242,-0.01066,-1.747,-0.9736,7.0,0.4868,-0.8735,0.0,0.0
1738776634963348627,-2.12,0.2903,7.035,-0.1198,-0.9956,-0.00019,0.02184,0.0423,-0.09576,-2.0,0.1858,7.0,-0.0703,-0.996,-0.0,0.02257,0.04224,-0.01066,-1.747,-0.9736,7.0,0.4868,-0.8735,0.0,0.0
1738776635013443470,-2.125,0.2385,7.035,-0.09625,-0.996,-0.000629,0.02174,0.041,-0.0956,-2.0,0.1327,7.0,-0.03906,-0.992,-0.003906,0.02249,0.04062,-0.0106,-1.696,-1.06,7.0,0.53,-0.848,0.0,0.0
1738776635063310146,-2.129,0.1907,7.035,-0.0752,-0.9966,-0.001183,0.02171,0.04022,-0.09546,-2.018,0.1062,7.0,-0.02734,-0.992,-0.003906,0.02242,0.03983,-0.01052,-1.696,-1.06,7.0,0.53,-0.848,0.0,0.0
1738776635113341093,-2.133,0.1428,7.035,-0.0546,-0.997,-0.001417,0.0217,0.03964,-0.09534,-2.018,0.02664,7.0,0.0,-0.992,-0.003906,0.02242,0.0388,-0.01036,-1.642,-1.144,7.0,0.572,-0.821,0.0,0.0
1738776635163275003,-2.135,0.08704,7.035,-0.03116,-0.997,-0.002054,0.02168,0.0392,-0.09515,-2.018,0.0001338,7.0,0.01172,-0.9883,-0.003906,0.02242,0.03845,-0.01036,-1.642,-1.144,7.0,0.572,-0.821,0.0,0.0
1738776635213269233,-2.135,0.04312,7.035,-0.01306,-0.9976,-0.00245,0.02168,0.039,-0.09503,-2.018,-0.0529,7.0,0.04297,-0.9883,-0.003906,0.02234,0.03784,-0.0102,-1.582,-1.224,7.0,0.612,-0.791,0.0,0.0
1738776635263290166,-2.135,-0.00876,7.035,0.00823,-0.998,-0.002941,0.02164,0.03995,-0.0949,-2.018,-0.0794,7.0,0.05078,-0.9883,-0.003906,0.02234,0.03784,-0.01011,-1.582,-1.224,7.0,0.612,-0.791,0.0,0.0
1738776635313328266,-2.135,-0.05667,7.035,0.02826,-0.998,-0.003872,0.02158,0.04117,-0.09485,-2.018,-0.1589,7.0,0.0781,-0.9844,-0.003906,0.02234,0.03906,-0.01001,-1.519,-1.301,7.0,0.6504,-0.7593,0.0,0.0
1738776635363312959,-2.133,-0.1086,7.035,0.05048,-0.998,-0.005836,0.02034,0.04318,-0.0947,-2.018,-0.1854,7.0,0.08984,-0.9844,-0.003906,0.02225,0.03983,-0.01,-1.519,-1.301,7.0,0.6504,-0.7593,0.0,0.0
1738776635413330078,-2.129,-0.1565,7.035,0.0718,-0.998,-0.00792,0.01909,0.04498,-0.09467,-2.0,-0.265,7.004,0.1211,-0.9844,-0.007812,0.02051,0.04257,-0.0101,-1.452,-1.376,7.0,0.688,-0.726,0.0,0.0
1738776635463307380,-2.125,-0.2084,7.035,0.09564,-0.997,-0.00992,0.0181,0.0475,-0.0946,-2.018,-0.2915,7.0,0.1289,-0.9805,-0.007812,0.01982,0.0436,-0.009926,-1.452,-1.376,7.0,0.688,-0.726,0.0,0.0
1738776635513379096,-2.12,-0.2603,7.035,0.12067,-0.9956,-0.012146,0.0173,0.04974,-0.09454,-2.0,-0.3445,7.004,0.1602,-0.9805,-0.007812,0.01869,0.04678,-0.00958,-1.381,-1.446,7.0,0.723,-0.6904,0.0,0.0
1738776635563322544,-2.113,-0.3118,7.03,0.1461,-0.994,-0.014656,0.01559,0.04996,-0.09454,-2.0,-0.371,7.004,0.1758,-0.9766,-0.01172,0.01799,0.04834,-0.00941,-1.381,-1.446,7.0,0.723,-0.6904,0.0,0.0
1738776635613312959,-2.105,-0.3596,7.03,0.1692,-0.9917,-0.01677,0.01413,0.0498,-0.09454,-1.982,-0.424,7.004,0.1914,-0.9766,-0.01172,0.01714,0.04868,-0.009254,-1.308,-1.514,7.0,0.757,-0.654,0.0,0.0
1738776635663313627,-2.096,-0.407,7.03,0.1923,-0.989,-0.0197,0.013054,0.05066,-0.09454,-1.982,-0.477,7.004,0.2188,-0.9688,-0.01563,0.01498,0.0484,-0.00913,-1.308,-1.514,7.0,0.757,-0.654,0.0,0.0
1738776635713320970,-2.086,-0.4585,7.03,0.2177,-0.985,-0.02264,0.012146,0.05182,-0.09454,-1.966,-0.5303,7.004,0.2461,-0.965,-0.01563,0.013596,0.04944,-0.00899,-1.23,-1.577,7.0,0.7886,-0.615,0.0,0.0
1738776635763325929,-2.074,-0.5093,7.027,0.2434,-0.981,-0.02483,0.01033,0.0528,-0.0946,-1.966,-0.583,7.004,0.2656,-0.961,-0.01953,0.0129,0.0503,-0.009,-1.23,-1.577,7.0,0.7886,-0.615,0.0,0.0
1738776635813439369,-2.062,-0.5527,7.027,0.2654,-0.977,-0.02654,0.00894,0.0534,-0.09467,-1.948,-0.636,7.008,0.293,-0.953,-0.01953,0.01065,0.0515,-0.008965,-1.149,-1.637,7.0,0.8184,-0.5747,0.0,0.0
1738776635863311767,-2.047,-0.607,7.027,0.2935,-0.971,-0.02745,0.007687,0.05402,-0.0947,-1.948,-0.6626,7.004,0.3047,-0.949,-0.02344,0.00978,0.05185,-0.00899,-1.149,-1.637,7.0,0.8184,-0.5747,0.0,0.0
1738776635913353919,-2.031,-0.654,7.023,0.3176,-0.966,-0.02827,0.00682,0.05438,-0.0947,-1.931,-0.716,7.004,0.332,-0.9414,-0.02344,0.0084,0.05252,-0.00902,-1.066,-1.692,7.0,0.846,-0.533,0.0,0.0
1738776635963325977,-2.016,-0.6997,7.023,0.3416,-0.96,-0.02815,0.00513,0.05463,-0.0948,-1.913,-0.7686,7.004,0.3516,-0.9336,-0.02344,0.007618,0.0528,-0.00904,-1.066,-1.692,7.0,0.846,-0.533,0.0,0.0
1738776636013320684,-1.998,-0.7495,7.023,0.3677,-0.9526,-0.02771,0.003487,0.05496,-0.09485,-1.8955,-0.822,7.004,0.379,-0.926,-0.02344,0.00537,0.05313,-0.009094,-0.9805,-1.743,7.0,0.8716,-0.4902,0.0,0.0
1738776636063302516,-1.9795,-0.795,7.02,0.3916,-0.946,-0.02794,0.002396,0.05606,-0.09485,-1.8955,-0.848,7.004,0.3906,-0.922,-0.02344,0.004505,0.05328,-0.00912,-0.9805,-1.743,7.0,0.8716,-0.4902,0.0,0.0
1738776636113350391,-1.959,-0.844,7.02,0.4182,-0.9375,-0.02812,0.001583,0.05756,-0.0949,-1.878,-0.9014,7.004,0.4219,-0.91,-0.01953,0.003115,0.05466,-0.00924,-0.892,-1.79,7.0,0.895,-0.446,0.0,0.0
1738776636163336038,-1.9375,-0.8887,7.02,0.4434,-0.93,-0.02788,0.001049,0.0597,-0.0949,-1.86,-0.9546,7.004,0.4375,-0.9023,-0.01953,0.002504,0.0558,-0.009254,-0.892,-1.79,7.0,0.895,-0.446,0.0,0.0
1738776636213397502,-1.916,-0.933,7.016,0.4692,-0.923,-0.02733,0.000631,0.06165,-0.0949,-1.843,-0.981,7.004,0.4531,-0.8984,-0.01953,0.002235,0.05707,-0.00944,-0.802,-1.832,7.0,0.916,-0.401,0.0,0.0
1738776636263316631,-1.891,-0.981,7.016,0.4978,-0.914,-0.0263,-0.000828,0.0632,-0.095,-1.825,-1.034,7.004,0.4844,-0.8867,-0.01953,0.001625,0.05975,-0.00919,-0.802,-1.832,7.0,0.916,-0.401,0.0,0.0
1738776636313333034,-1.864,-1.028,7.016,0.527,-0.9053,-0.0267,-0.002544,0.064,-0.095,-1.791,-1.087,7.004,0.5156,-0.875,-0.01953,-0.0002773,0.06165,-0.00899,-0.709,-1.87,7.0,0.935,-0.3545,0.0,0.0
1738776636363330841,-1.838,-1.071,7.01,0.5537,-0.896,-0.02617,-0.005905,0.0646,-0.0951,-1.773,-1.113,7.004,0.539,-0.867,-0.01953,-0.001572,0.06226,-0.00886,-0.709,-1.87,7.0,0.935,-0.3545,0.0,0.0
1738776636413333177,-1.811,-1.114,7.01,0.5806,-0.885,-0.02559,-0.009056,0.06506,-0.0951,-1.756,-1.14,7.004,0.5547,-0.8594,-0.01953,-0.00347,0.06256,-0.00874,-0.6147,-1.903,7.0,0.9517,-0.3074,0.0,0.0
1738776636463325023,-1.78,-1.16,7.01,0.61,-0.872,-0.0246,-0.01152,0.06537,-0.0953,-1.721,-1.193,7.0,0.59,-0.8438,-0.01563,-0.00796,0.06323,-0.00863,-0.6147,-1.903,7.0,0.9517,-0.3074,0.0,0.0
1738776636513336658,-1.75,-1.201,7.008,0.6367,-0.8594,-0.02345,-0.01319,0.06555,-0.09534,-1.668,-1.246,7.0,0.629,-0.828,-0.01563,-0.010895,0.0638,-0.00864,-0.5186,-1.932,7.0,0.966,-0.2593,0.0,0.0
1738776636563329219,-1.716,-1.246,7.008,0.6655,-0.8447,-0.02292,-0.01555,0.0656,-0.0955,-1.65,-1.299,7.0,0.6523,-0.8164,-0.01563,-0.01228,0.0639,-0.0086,-0.5186,-1.932,7.0,0.966,-0.2593,0.0,0.0
1738776636613334178,-1.681,-1.289,7.008,0.6943,-0.829,-0.02292,-0.01758,0.0654,-0.09564,-1.599,-1.353,7.0,0.6914,-0.797,-0.01172,-0.01514,0.064,-0.00869,-0.4216,-1.955,7.0,0.9775,-0.2108,0.0,0.0
1738776636663304090,-1.646,-1.329,7.004,0.7197,-0.814,-0.02277,-0.01889,0.06323,-0.0957,-1.581,-1.379,7.0,0.707,-0.789,-0.01172,-0.01625,0.0639,-0.00864,-0.4216,-1.955,7.0,0.9775,-0.2108,0.0,0.0
1738776636713328123,-1.608,-1.371,7.004,0.746,-0.7974,-0.02188,-0.02014,0.06046,-0.0958,-1.528,-1.432,7.0,0.742,-0.7695,-0.01172,-0.01796,0.06097,-0.00858,-0.3232,-1.974,7.0,0.987,-0.1616,0.0,0.0
1738776636763329029,-1.569,-1.412,7.004,0.7705,-0.78,-0.02066,-0.02339,0.05734,-0.096,-1.493,-1.458,7.0,0.7617,-0.758,-0.01172,-0.01874,0.05914,-0.0085,-0.3232,-1.974,7.0,0.987,-0.1616,0.0,0.0
1738776636813338279,-1.532,-1.448,7.004,0.792,-0.7617,-0.0196,-0.02621,0.0549,-0.09607,-1.476,-1.484,7.0,0.7773,-0.746,-0.01172,-0.02028,0.0574,-0.0087,-0.2244,-1.987,7.0,0.9937,-0.1122,0.0,0.0
1738776636863308191,-1.493,-1.484,7.0,0.8115,-0.7427,-0.01854,-0.02908,0.0524,-0.0962,-1.423,-1.538,7.0,0.8047,-0.7227,-0.007812,-0.0246,0.0536,-0.00903,-0.2244,-1.987,7.0,0.9937,-0.1122,0.0,0.0
1738776636913411378,-1.45,-1.522,7.0,0.832,-0.7207,-0.01706,-0.0322,0.04965,-0.09625,-1.371,-1.564,7.0,0.832,-0.699,-0.007812,-0.02847,0.0502,-0.009094,-0.1247,-1.996,7.0,0.998,-0.06235,0.0,0.0
1738776636963318347,-1.41,-1.557,7.0,0.849,-0.699,-0.01631,-0.0353,0.04675,-0.0963,-1.336,-1.591,7.0,0.8477,-0.6836,-0.007812,-0.03053,0.04846,-0.00903,-0.1247,-1.996,7.0,0.998,-0.06235,0.0,0.0
1738776637013334035,-1.369,-1.59,7.0,0.8647,-0.6763,-0.01605,-0.038,0.04422,-0.0964,-1.266,-1.644,7.0,0.871,-0.6523,-0.003906,-0.0349,0.0444,-0.008896,-0.02478,-2.0,7.0,1.0,-0.01239,0.0,0.0
1738776637063299655,-1.323,-1.624,7.0,0.881,-0.6504,-0.015594,-0.04117,0.0424,-0.09644,-1.248,-1.67,7.0,0.879,-0.6406,-0.003906,-0.03647,0.04285,-0.00907,-0.02478,-2.0,7.0,1.0,-0.01239,0.0,0.0
1738776637113378286,-1.277,-1.657,6.996,0.896,-0.623,-0.01539,-0.0438,0.0411,-0.0965,-1.179,-1.724,6.996,0.8984,-0.6094,-0.003906,-0.04034,0.04065,-0.009285,0.0752,-1.999,7.0,0.9995,0.0376,0.0,0.0
1738776637163319349,-1.234,-1.687,6.996,0.909,-0.597,-0.01505,-0.04547,0.0392,-0.09656,-1.161,-1.75,6.996,0.9062,-0.59,-0.003906,-0.042,0.04004,-0.009476,0.0752,-1.999,7.0,0.9995,0.0376,0.0,0.0
1738776637213354349,-1.19,-1.715,6.996,0.9214,-0.571,-0.01431,-0.0466,0.0375,-0.09656,-1.126,-1.75,6.996,0.918,-0.5703,-0.003906,-0.04327,0.03873,-0.00956,0.175,-1.992,7.0,0.996,0.0875,0.0,0.0
1738776637263313770,-1.142,-1.744,6.996,0.9336,-0.542,-0.01349,-0.0474,0.0352,-0.09656,-1.073,-1.776,6.996,0.9297,-0.535,-0.003906,-0.04498,0.03632,-0.00963,0.175,-1.992,7.0,0.996,0.0875,0.0,0.0
1738776637313365697,-1.097,-1.77,6.996,0.9434,-0.5156,-0.012794,-0.04782,0.03302,-0.0966,-1.004,-1.829,6.996,0.9453,-0.496,-0.003906,-0.04593,0.03345,-0.009575,0.2744,-1.981,7.0,0.9907,0.1372,0.0,0.0
1738776637363320350,-1.048,-1.795,6.992,0.953,-0.4866,-0.01222,-0.0481,0.03023,-0.0966,-0.9688,-1.829,6.996,0.953,-0.4688,-0.0,-0.04633,0.03165,-0.00937,0.2744,-1.981,7.0,0.9907,0.1372,0.0,0.0
1738776637413333654,-1.002,-1.817,6.992,0.9604,-0.4602,-0.0113,-0.04825,0.028,-0.0967,-0.9336,-1.855,6.996,0.961,-0.4531,-0.0,-0.0465,0.03009,-0.00934,0.373,-1.965,7.0,0.9824,0.1865,0.0,0.0
1738776637463308572,-0.9517,-1.841,6.992,0.9673,-0.4316,-0.01061,-0.04834,0.02637,-0.0967,-0.8813,-1.883,6.996,0.965,-0.414,-0.0,-0.04675,0.0269,-0.00935,0.373,-1.965,7.0,0.9824,0.1865,0.0,0.0
1738776637513353109,-0.905,-1.861,6.992,0.973,-0.4055,-0.01016,-0.04837,0.0253,-0.09674,-0.811,-1.883,6.996,0.9727,-0.375,-0.0,-0.0468,0.0249,-0.00965,0.4707,-1.943,7.0,0.9717,0.2354,0.0,0.0
1738776637563310384,-0.854,-1.882,6.992,0.979,-0.3777,-0.00967,-0.04837,0.02452,-0.09674,-0.759,-1.909,6.996,0.9766,-0.3516,-0.0,-0.0469,0.02412,-0.00972,0.4707,-1.943,7.0,0.9717,0.2354,0.0,0.0
1738776637613336801,-0.803,-1.9,6.992,0.9844,-0.35,-0.00895,-0.0483,0.02402,-0.09674,-0.741,-1.909,6.996,0.9805,-0.3398,-0.0,-0.0469,0.02377,-0.009796,0.5674,-1.918,7.0,0.959,0.2837,0.0,0.0
1738776637663309335,-0.756,-1.916,6.992,0.989,-0.325,-0.0085,-0.04718,0.02266,-0.0967,-0.6714,-1.936,6.996,0.9844,-0.3008,-0.0,-0.0469,0.02309,-0.009865,0.5674,-1.918,7.0,0.959,0.2837,0.0,0.0
1738776637713299274,-0.704,-1.933,6.992,0.9927,-0.2988,-0.0079,-0.04578,0.02106,-0.0967,-0.6187,-1.936,6.996,0.9883,-0.2656,-0.0,-0.04535,0.0212,-0.0098,0.6626,-1.887,7.0,0.9434,0.3313,0.0,0.0
1738776637763279199,-0.6567,-1.946,6.99,0.9956,-0.2756,-0.007507,-0.04483,0.02,-0.0967,-0.5664,-1.962,6.996,0.992,-0.2461,-0.0,-0.04446,0.02016,-0.00977,0.6626,-1.887,7.0,0.9434,0.3313,0.0,0.0
1738776637813279151,-0.609,-1.959,6.99,0.9976,-0.2527,-0.00756,-0.04416,0.01924,-0.0967,-0.5312,-1.962,6.996,0.992,-0.2266,-0.0,-0.0438,0.01947,-0.00975,0.756,-1.852,7.0,0.926,0.378,0.0,0.0
1738776637863259553,-0.5566,-1.972,6.99,1.0,-0.2286,-0.007366,-0.04367,0.0187,-0.0967,-0.479,-1.962,6.996,0.992,-0.1953,-0.0,-0.04272,0.01826,-0.00963,0.756,-1.852,7.0,0.926,0.378,0.0,0.0
1738776637913357973,-0.505,-1.983,6.99,1.002,-0.2051,-0.007084,-0.04324,0.01842,-0.0967,-0.409,-1.988,6.996,0.996,-0.1641,-0.0,-0.0423,0.01767,-0.00953,0.8477,-1.812,7.0,0.906,0.4238,0.0,0.0
1738776637963285684,-0.4565,-1.992,6.99,1.004,-0.184,-0.00706,-0.0419,0.01822,-0.0967,-0.374,-1.988,6.996,0.996,-0.1445,-0.0,-0.04196,0.0175,-0.00943,0.8477,-1.812,7.0,0.906,0.4238,0.0,0.0
1738776638013272762,-0.4043,-2.002,6.99,1.005,-0.162,-0.006794,-0.04053,0.01804,-0.09674,-0.339,-1.988,6.996,0.996,-0.1328,-0.0,-0.04108,0.01733,-0.00934,0.937,-1.767,7.0,0.8833,0.4685,0.0,0.0
1738776638063266992,-0.356,-2.008,6.99,1.006,-0.1422,-0.006653,-0.04068,0.01689,-0.0968,-0.2866,-1.988,6.996,0.996,-0.10547,-0.0,-0.03928,0.01709,-0.009315,0.937,-1.767,7.0,0.8833,0.4685,0.0,0.0
1738776638113288402,-0.3079,-2.016,6.99,1.007,-0.1224,-0.006516,-0.04135,0.01555,-0.0968,-0.2167,-1.988,6.996,0.996,-0.0781,-0.0,-0.03952,0.01562,-0.00912,1.024,-1.718,7.0,0.859,0.512,0.0,0.0
1738776638163290262,-0.2554,-2.021,6.99,1.007,-0.1005,-0.006474,-0.0431,0.01452,-0.0969,-0.1816,-2.016,6.996,0.996,-0.0625,-0.0,-0.03995,0.01467,-0.0091,1.024,-1.718,7.0,0.859,0.512,0.0,0.0
1738776638213316679,-0.207,-2.025,6.99,1.007,-0.0797,-0.00653,-0.0447,0.013855,-0.097,-0.1467,-2.016,6.996,0.996,-0.04688,-0.0,-0.04108,0.01389,-0.00892,1.108,-1.664,7.0,0.832,0.554,0.0,0.0
1738776638263285160,-0.1588,-2.027,6.99,1.006,-0.05847,-0.00676,-0.0459,0.01341,-0.0971,-0.09424,-2.016,6.996,0.992,-0.02344,-0.0,-0.0433,0.013016,-0.00892,1.108,-1.664,7.0,0.832,0.554,0.0,0.0
1738776638313333988,-0.1065,-2.031,6.99,1.005,-0.03522,-0.00774,-0.0468,0.01303,-0.09717,-0.02428,-2.016,6.996,0.9883,0.0,-0.0,-0.04486,0.01248,-0.009346,1.19,-1.607,7.0,0.8037,0.595,0.0,0.0
1738776638363288402,-0.05423,-2.031,6.984,1.005,-0.01185,-0.008736,-0.0474,0.01279,-0.0972,0.0107,-2.016,6.996,0.9883,0.01563,-0.0,-0.04547,0.012215,-0.009514,1.19,-1.607,7.0,0.8037,0.595,0.0,0.0
1738776638413322925,-0.006046,-2.031,6.984,1.004,0.00972,-0.00924,-0.04773,0.012634,-0.0972,0.0457,-2.016,6.996,0.9883,0.03125,-0.0,-0.0458,0.01204,-0.00969,1.27,-1.546,7.0,0.773,0.635,0.0,0.0
1738776638463305711,0.0461,-2.031,6.984,1.003,0.033,-0.00986,-0.04797,0.01139,-0.0972,0.09814,-2.016,6.996,0.9844,0.0586,-0.0,-0.04633,0.011856,-0.00995,1.27,-1.546,7.0,0.773,0.635,0.0,0.0
1738776638513326644,0.0942,-2.03,6.984,1.001,0.05438,-0.0107,-0.04822,0.00998,-0.09717,0.1681,-2.016,6.996,0.9805,0.08594,-0.0,-0.04657,0.01021,-0.01017,1.345,-1.48,7.0,0.74,0.6724,0.0,0.0
1738776638563306093,0.1461,-2.025,6.984,0.998,0.0778,-0.011475,-0.0496,0.007755,-0.09717,0.2031,-2.016,6.996,0.9766,0.10156,-0.0,-0.04675,0.00917,-0.01023,1.345,-1.48,7.0,0.74,0.6724,0.0,0.0
1738776638613301992,0.194,-2.021,6.984,0.9946,0.0999,-0.01171,-0.05087,0.005905,-0.09705,0.238,-2.016,6.996,0.9766,0.1172,-0.0,-0.0476,0.007786,-0.0102,1.417,-1.411,7.0,0.7056,0.7085,0.0,0.0
1738776638663289546,0.2456,-2.016,6.984,0.9907,0.12427,-0.01165,-0.0519,0.004574,-0.09705,0.2905,-1.988,6.996,0.9688,0.1406,-0.0,-0.0494,0.005104,-0.01014,1.417,-1.411,7.0,0.7056,0.7085,0.0,0.0
1738776638713314294,0.293,-2.008,6.98,0.9863,0.1469,-0.01186,-0.05267,0.00369,-0.097,0.3604,-1.988,6.996,0.965,0.1719,-0.0,-0.0506,0.003546,-0.01002,1.486,-1.339,7.0,0.6694,0.743,0.0,0.0
1738776638763346672,0.3442,-2.0,6.98,0.981,0.1719,-0.01179,-0.0544,0.003023,-0.0969,0.3955,-1.988,6.996,0.961,0.1875,-0.0,-0.05112,0.003027,-0.00992,1.486,-1.339,7.0,0.6694,0.743,0.0,0.0
1738776638813355207,0.391,-1.991,6.98,0.9766,0.1954,-0.01197,-0.05594,0.002642,-0.0969,0.4304,-1.988,6.996,0.957,0.1992,-0.0,-0.05206,0.002594,-0.00983,1.551,-1.263,7.0,0.6313,0.7754,0.0,0.0
1738776638863326311,0.438,-1.981,6.98,0.9717,0.2195,-0.01224,-0.05795,0.002335,-0.0969,0.5005,-1.962,6.996,0.949,0.2266,-0.0,-0.05423,0.001984,-0.009636,1.551,-1.263,7.0,0.6313,0.7754,0.0,0.0
1738776638913333177,0.4883,-1.97,6.98,0.9663,0.2465,-0.01176,-0.06024,0.00212,-0.0969,0.5527,-1.962,6.996,0.9375,0.2578,-0.0,-0.05716,0.00163,-0.00946,1.612,-1.184,7.0,0.592,0.806,0.0,0.0
1738776638963295936,0.5386,-1.956,6.98,0.961,0.2742,-0.011154,-0.06183,0.000847,-0.097,0.588,-1.962,6.996,0.9336,0.2773,-0.0,-0.05853,0.001452,-0.00937,1.612,-1.184,7.0,0.592,0.806,0.0,0.0
1738776639013272285,0.5845,-1.942,6.98,0.9556,0.3,-0.01053,-0.06287,-0.000509,-0.097,0.6226,-1.936,6.996,0.9297,0.293,-0.0,-0.05975,0.0007596,-0.00926,1.669,-1.102,7.0,0.551,0.8345,0.0,0.0
1738776639063351154,0.634,-1.926,6.977,0.949,0.3281,-0.01014,-0.0636,-0.001551,-0.09705,0.6753,-1.936,6.996,0.922,0.3242,-0.0,-0.06122,-0.001057,-0.009125,1.669,-1.102,7.0,0.551,0.8345,0.0,0.0
1738776639113379955,0.679,-1.909,6.977,0.9434,0.3542,-0.01017,-0.06415,-0.002308,-0.09717,0.7275,-1.909,6.996,0.91,0.3555,-0.0,-0.06207,-0.002441,-0.00908,1.723,-1.017,7.0,0.5083,0.8613,0.0,0.0
1738776639163363218,0.728,-1.891,6.977,0.936,0.3826,-0.01045,-0.06573,-0.002848,-0.0972,0.7627,-1.883,6.996,0.9062,0.371,-0.0,-0.0625,-0.00288,-0.00924,1.723,-1.017,7.0,0.5083,0.8613,0.0,0.0
1738776639213369131,0.773,-1.871,6.977,0.9297,0.4092,-0.01068,-0.0672,-0.003155,-0.0972,0.798,-1.883,6.996,0.9023,0.3867,-0.0,-0.0632,-0.003233,-0.0094,1.771,-0.929,7.0,0.4646,0.8857,0.0,0.0
1738776639263352632,0.8213,-1.849,6.977,0.923,0.4387,-0.011505,-0.06946,-0.003403,-0.0973,0.85,-1.855,6.996,0.8906,0.418,-0.0,-0.0652,-0.003685,-0.00973,1.771,-0.929,7.0,0.4646,0.8857,0.0,0.0
1738776639313400745,0.865,-1.827,6.977,0.9165,0.4666,-0.01218,-0.0715,-0.00362,-0.0972,0.92,-1.829,6.996,0.879,0.457,-0.0,-0.0683,-0.004055,-0.009964,1.815,-0.8394,7.0,0.4197,0.9077,0.0,0.0
1738776639363388299,0.9126,-1.803,6.977,0.9097,0.4968,-0.01279,-0.0718,-0.004913,-0.09717,0.9375,-1.829,6.996,0.875,0.4727,-0.0,-0.0696,-0.004154,-0.01013,1.815,-0.8394,7.0,0.4197,0.9077,0.0,0.0
1738776639413383007,0.9565,-1.777,6.973,0.9023,0.525,-0.01275,-0.07153,-0.00626,-0.09717,0.9727,-1.803,6.996,0.871,0.4883,-0.0,-0.07,-0.00476,-0.01011,1.8545,-0.7476,7.0,0.3738,0.9272,0.0,0.0
1738776639463269948,1.003,-1.75,6.973,0.894,0.5547,-0.01216,-0.0713,-0.008415,-0.0971,1.025,-1.776,6.996,0.8594,0.5234,-0.0,-0.0697,-0.006577,-0.01022,1.8545,-0.7476,7.0,0.3738,0.9272,0.0,0.0
1738776639513267278,1.046,-1.723,6.973,0.8853,0.582,-0.01073,-0.0711,-0.01025,-0.09705,1.095,-1.75,6.996,0.8477,0.5664,-0.0,-0.06946,-0.00943,-0.0103,1.89,-0.6543,7.0,0.3271,0.945,0.0,0.0
1738776639563257694,1.092,-1.691,6.973,0.875,0.611,-0.00919,-0.0709,-0.01161,-0.097,1.13,-1.724,6.996,0.84,0.59,-0.0,-0.0693,-0.0108,-0.01016,1.89,-0.6543,7.0,0.3271,0.945,0.0,0.0
1738776639613321781,1.133,-1.661,6.973,0.865,0.637,-0.00813,-0.0708,-0.01261,-0.0969,1.147,-1.696,6.996,0.832,0.6055,-0.0,-0.0693,-0.01149,-0.010056,1.92,-0.5586,7.0,0.2793,0.96,0.0,0.0
1738776639663321018,1.178,-1.628,6.973,0.8545,0.6655,-0.00693,-0.0707,-0.014465,-0.09686,1.2,-1.644,6.996,0.8203,0.6445,-0.0,-0.0691,-0.01304,-0.00983,1.92,-0.5586,7.0,0.2793,0.96,0.0,0.0
1738776639713344097,1.226,-1.59,6.973,0.8413,0.696,-0.005283,-0.07043,-0.01659,-0.0968,1.252,-1.591,6.996,0.8047,0.6836,-0.0,-0.06903,-0.015366,-0.00966,1.946,-0.4622,7.0,0.2311,0.973,0.0,0.0
1738776639763329505,1.259,-1.562,6.973,0.8315,0.717,-0.00443,-0.06934,-0.01855,-0.0968,1.287,-1.564,6.996,0.797,0.703,0.003906,-0.06885,-0.01657,-0.00954,1.946,-0.4622,7.0,0.2311,0.973,0.0,0.0
1738776639813353538,1.302,-1.523,6.973,0.8174,0.7437,-0.004047,-0.0679,-0.02107,-0.09686,1.34,-1.511,6.996,0.7773,0.742,0.003906,-0.06714,-0.01993,-0.009605,1.967,-0.3643,7.0,0.1821,0.9834,0.0,0.0
1738776639863326311,1.344,-1.483,6.973,0.802,0.7686,-0.003902,-0.06573,-0.02492,-0.09686,1.375,-1.484,6.996,0.7695,0.758,0.003906,-0.0663,-0.02132,-0.00974,1.967,-0.3643,7.0,0.1821,0.9834,0.0,0.0
1738776639913383960,1.382,-1.446,6.97,0.7856,0.791,-0.002974,-0.06366,-0.02855,-0.0968,1.427,-1.432,6.996,0.75,0.789,0.003906,-0.0636,-0.02621,-0.00979,1.982,-0.2656,7.0,0.1328,0.991,0.0,0.0
1738776639963400125,1.422,-1.404,6.97,0.7666,0.814,-0.002151,-0.06094,-0.03235,-0.0968,1.444,-1.405,6.996,0.7383,0.8047,0.003906,-0.0623,-0.02872,-0.00973,1.982,-0.2656,7.0,0.1328,0.991,0.0,0.0
1738776640013411283,1.459,-1.365,6.97,0.747,0.834,-0.001332,-0.05872,-0.0353,-0.09686,1.4795,-1.379,6.996,0.7266,0.824,0.003906,-0.06046,-0.0312,-0.00959,1.993,-0.1661,7.0,0.08307,0.9966,0.0,0.0
1738776640063393354,1.494,-1.324,6.97,0.727,0.8525,-0.000874,-0.05615,-0.03735,-0.09686,1.515,-1.325,6.996,0.699,0.8477,0.003906,-0.05725,-0.03543,-0.0097,1.993,-0.1661,7.0,0.08307,0.9966,0.0,0.0
