time,x_sphinx,y_sphinx,z_sphinx,vx_sphinx,vy_sphinx,vz_sphinx,roll_sphinx,pitch_sphinx,yaw_sphinx,x_anafi,y_anafi,z_anafi,vx_anafi,vy_anafi,vz_anafi,roll_anafi,pitch_anafi,yaw_anafi,wp_x,wp_y,wp_z,wp_vx,wp_vy,wp_vz,wp_yaw
1738833257923059463,3.318,-0.3445,6.977,0.11176,1.085,0.01209,-0.0385,-0.02544,-0.05392,3.14,-0.2913,6.996,0.03125,1.051,0.007812,-0.0371,-0.02554,0.03345,3.0,-0.04956,7.0,0.01653,1.0,0.0,0.0
1738833257973067760,3.32,-0.3184,6.977,0.1066,1.088,0.012596,-0.03845,-0.02556,-0.0539,3.158,-0.265,6.996,0.02734,1.051,0.007812,-0.03705,-0.02545,0.03345,3.0,0.0,7.0,-0.0,1.0,0.0,0.0
1738833258023062944,3.328,-0.2354,6.98,0.09235,1.096,0.014694,-0.0383,-0.02791,-0.05377,3.158,-0.1853,6.996,0.01172,1.059,0.01172,-0.0368,-0.02658,0.0333,3.0,0.0,7.0,-0.0,1.0,0.0,0.0
1738833258073080539,3.332,-0.1781,6.98,0.0773,1.103,0.01566,-0.03735,-0.02892,-0.05365,3.158,-0.1588,6.992,0.003906,1.0625,0.01172,-0.0367,-0.02771,0.03333,2.998,0.1,7.0,-0.03333,0.9995,0.0,0.0
1738833258123057126,3.336,-0.1251,6.98,0.06555,1.107,0.01678,-0.0358,-0.02963,-0.05356,3.158,-0.0793,6.992,-0.007812,1.07,0.01172,-0.03546,-0.02902,0.03342,2.998,0.1,7.0,-0.03333,0.9995,0.0,0.0
1738833258173023700,3.338,-0.0674,6.98,0.0526,1.111,0.0183,-0.03366,-0.03009,-0.05347,3.158,-0.05276,6.992,-0.01172,1.07,0.01172,-0.0346,-0.02939,0.03342,2.994,0.1998,7.0,-0.0666,0.9976,0.0,0.0
1738833258223037004,3.338,-0.0674,6.98,0.0526,1.111,0.0183,-0.03366,-0.03009,-0.05347,3.158,-0.02625,6.992,-0.02344,1.074,0.01172,-0.03333,-0.02983,0.03348,2.994,0.1998,7.0,-0.0666,0.9976,0.0,0.0
1738833258273061990,3.342,-0.009476,6.984,0.0396,1.115,0.01956,-0.0315,-0.03038,-0.0534,3.158,0.0533,6.992,-0.03906,1.078,0.01563,-0.03038,-0.03023,0.03354,2.984,0.2996,7.0,-0.09985,0.995,0.0,0.0
1738833258323043823,3.342,0.053,6.984,0.02553,1.117,0.02054,-0.02864,-0.03065,-0.0533,3.158,0.1328,6.992,-0.0547,1.078,0.01563,-0.02745,-0.03046,0.03366,2.984,0.2996,7.0,-0.09985,0.995,0.0,0.0
1738833258373013257,3.344,0.1514,6.984,0.003218,1.117,0.02182,-0.02536,-0.03192,-0.05325,3.158,0.1593,6.992,-0.0586,1.078,0.01563,-0.02599,-0.03056,0.03363,2.973,0.399,7.0,-0.1329,0.991,0.0,0.0
1738833258423028707,3.344,0.205,6.99,-0.00963,1.116,0.02188,-0.02429,-0.0334,-0.0532,3.158,0.2389,6.992,-0.0781,1.078,0.01563,-0.02368,-0.0319,0.0337,2.973,0.399,7.0,-0.1329,0.991,0.0,0.0
1738833258472998619,3.344,0.2673,6.99,-0.02525,1.114,0.02127,-0.02235,-0.03467,-0.05313,3.158,0.2654,6.996,-0.08594,1.078,0.01563,-0.02292,-0.03302,0.03378,2.959,0.4978,7.0,-0.1659,0.9863,0.0,0.0
1738833258523028373,3.342,0.3208,6.99,-0.039,1.112,0.02135,-0.02068,-0.03537,-0.05313,3.14,0.345,6.992,-0.10156,1.074,0.01563,-0.0208,-0.03452,0.03403,2.959,0.4978,7.0,-0.1659,0.9863,0.0,0.0
1738833258572981357,3.342,0.3252,6.99,-0.04016,1.112,0.02136,-0.02055,-0.03543,-0.05313,3.158,0.3716,6.996,-0.1094,1.074,0.01563,-0.01968,-0.03497,0.03412,2.94,0.596,7.0,-0.1986,0.98,0.0,0.0
1738833258623025178,3.338,0.3787,6.99,-0.05426,1.109,0.02159,-0.01936,-0.0369,-0.05313,3.14,0.4246,6.996,-0.125,1.066,0.01563,-0.01799,-0.03656,0.03427,2.94,0.596,7.0,-0.1986,0.98,0.0,0.0
1738833258673002481,3.336,0.4363,6.992,-0.0703,1.105,0.02182,-0.01843,-0.03864,-0.05316,3.14,0.4775,6.996,-0.1367,1.0625,0.01563,-0.01723,-0.03787,0.03442,2.918,0.694,7.0,-0.2312,0.973,0.0,0.0
1738833258723020315,3.332,0.498,6.992,-0.08856,1.101,0.02179,-0.01651,-0.04126,-0.0532,3.14,0.557,6.996,-0.1562,1.059,0.01563,-0.015205,-0.04068,0.03424,2.918,0.694,7.0,-0.2312,0.973,0.0,0.0
1738833258772961616,3.326,0.5464,6.992,-0.1038,1.097,0.02199,-0.015114,-0.04315,-0.05322,3.14,0.5835,6.996,-0.1641,1.055,0.01563,-0.014275,-0.042,0.03406,2.895,0.7905,7.0,-0.2634,0.965,0.0,0.0
1738833258822989463,3.314,0.651,6.996,-0.1399,1.086,0.02191,-0.01326,-0.04797,-0.05322,3.123,0.6367,6.996,-0.1836,1.047,0.01563,-0.012596,-0.0451,0.03397,2.895,0.7905,7.0,-0.2634,0.965,0.0,0.0
1738833258872969388,3.309,0.703,6.996,-0.159,1.081,0.02193,-0.01275,-0.04953,-0.0532,3.123,0.6895,6.996,-0.1953,1.043,0.01563,-0.012024,-0.04694,0.03397,2.865,0.8867,7.0,-0.2954,0.9556,0.0,0.0
1738833258922985553,3.309,0.703,6.996,-0.159,1.081,0.02193,-0.01275,-0.04953,-0.0532,3.105,0.7427,6.996,-0.2227,1.031,0.01563,-0.01129,-0.0493,0.03403,2.865,0.8867,7.0,-0.2954,0.9556,0.0,0.0
1738833258972996234,3.29,0.8105,7.0,-0.2007,1.068,0.02132,-0.01097,-0.05267,-0.0532,3.105,0.769,6.996,-0.2305,1.027,0.01172,-0.01105,-0.05008,0.03412,2.834,0.9814,7.0,-0.3271,0.945,0.0,0.0
1738833259022986412,3.283,0.8447,7.0,-0.2145,1.064,0.02107,-0.01001,-0.05396,-0.0532,3.088,0.8486,6.996,-0.2578,1.016,0.01172,-0.00954,-0.05234,0.03427,2.834,0.9814,7.0,-0.3271,0.945,0.0,0.0
1738833259072969436,3.268,0.917,7.0,-0.2449,1.055,0.0204,-0.00855,-0.0558,-0.05325,3.088,0.875,6.996,-0.2695,1.012,0.01172,-0.008354,-0.05374,0.03442,2.8,1.075,7.0,-0.3584,0.9336,0.0,0.0
1738833259122987031,3.254,0.971,7.0,-0.2686,1.047,0.01976,-0.00785,-0.05673,-0.05328,3.07,0.9546,6.996,-0.2969,1.0,0.01172,-0.007076,-0.0554,0.03415,2.8,1.075,7.0,-0.3584,0.9336,0.0,0.0
1738833259172970056,3.24,1.021,7.004,-0.2903,1.04,0.01901,-0.008415,-0.05728,-0.05328,3.07,0.9814,6.996,-0.3086,0.996,0.01172,-0.006653,-0.056,0.03397,2.764,1.168,7.0,-0.3894,0.921,0.0,0.0
1738833259222980022,3.225,1.075,7.004,-0.314,1.033,0.01817,-0.00945,-0.0577,-0.05322,3.055,1.008,6.996,-0.3203,0.9883,0.01172,-0.00657,-0.05646,0.03378,2.764,1.168,7.0,-0.3894,0.921,0.0,0.0
1738833259272970676,3.209,1.125,7.004,-0.3357,1.026,0.0173,-0.0102,-0.05795,-0.0532,3.037,1.087,6.996,-0.3477,0.9766,0.007812,-0.007866,-0.05704,0.03363,2.723,1.26,7.0,-0.42,0.9077,0.0,0.0
1738833259322995185,3.191,1.178,7.004,-0.3591,1.0205,0.01602,-0.010704,-0.0583,-0.0531,3.02,1.141,6.996,-0.375,0.965,0.007812,-0.0089,-0.05734,0.0335,2.723,1.26,7.0,-0.42,0.9077,0.0,0.0
1738833259372976303,3.174,1.227,7.008,-0.3806,1.015,0.015114,-0.00994,-0.05957,-0.05304,3.02,1.167,6.996,-0.3828,0.961,0.007812,-0.00916,-0.05743,0.03342,2.68,1.35,7.0,-0.45,0.893,0.0,0.0
1738833259422992706,3.154,1.279,7.008,-0.4048,1.008,0.014404,-0.00886,-0.06097,-0.05295,3.002,1.22,7.0,-0.4102,0.949,0.007812,-0.0085,-0.05884,0.03342,2.68,1.35,7.0,-0.45,0.893,0.0,0.0
1738833259472979307,3.133,1.328,7.008,-0.427,1.002,0.01397,-0.008095,-0.0608,-0.05286,2.984,1.272,7.0,-0.4258,0.9453,0.003906,-0.00774,-0.05997,0.0334,2.633,1.438,7.0,-0.4795,0.8774,0.0,0.0
1738833259522991657,3.111,1.38,7.008,-0.4507,0.9946,0.01329,-0.007557,-0.0603,-0.0528,2.95,1.326,7.0,-0.4531,0.9336,0.003906,-0.006615,-0.0599,0.03345,2.633,1.438,7.0,-0.4795,0.8774,0.0,0.0
1738833259572973966,3.088,1.427,7.008,-0.4722,0.9883,0.01273,-0.0083,-0.061,-0.0527,2.95,1.353,7.0,-0.461,0.9297,0.003906,-0.006264,-0.05957,0.03345,2.584,1.525,7.0,-0.5083,0.8613,0.0,0.0
1738833259622983455,3.062,1.479,7.008,-0.4958,0.982,0.01232,-0.00931,-0.0621,-0.0526,2.914,1.432,7.0,-0.4883,0.918,0.003906,-0.00697,-0.06024,0.03345,2.584,1.525,7.0,-0.5083,0.8613,0.0,0.0
1738833259672988176,3.04,1.525,7.01,-0.518,0.9766,0.011765,-0.008934,-0.06287,-0.05255,2.896,1.459,7.0,-0.508,0.91,0.003906,-0.00785,-0.0611,0.03348,2.531,1.61,7.0,-0.5366,0.8438,0.0,0.0
1738833259722990512,3.012,1.576,7.01,-0.5415,0.97,0.01128,-0.00817,-0.0635,-0.0525,2.879,1.512,7.0,-0.5312,0.9023,0.003906,-0.007435,-0.06204,0.03366,2.531,1.61,7.0,-0.5366,0.8438,0.0,0.0
1738833259772994995,2.984,1.622,7.01,-0.564,0.964,0.01137,-0.007595,-0.06384,-0.05243,2.861,1.538,7.0,-0.543,0.8984,0.003906,-0.007095,-0.0624,0.03363,2.477,1.694,7.0,-0.5645,0.825,0.0,0.0
1738833259823003530,2.955,1.673,7.01,-0.5874,0.957,0.01174,-0.00713,-0.06396,-0.0524,2.826,1.591,7.0,-0.574,0.8906,-0.0,-0.006245,-0.0629,0.03378,2.477,1.694,7.0,-0.5645,0.825,0.0,0.0
1738833259873039245,2.926,1.718,7.01,-0.6094,0.9507,0.01207,-0.00683,-0.063,-0.05237,2.809,1.645,7.0,-0.5938,0.883,-0.0,-0.005905,-0.0631,0.03387,2.418,1.775,7.0,-0.592,0.806,0.0,0.0
1738833259922999620,2.895,1.768,7.01,-0.632,0.944,0.0123,-0.006607,-0.0618,-0.0523,2.756,1.697,7.0,-0.625,0.871,0.003906,-0.005547,-0.06207,0.03394,2.418,1.775,7.0,-0.592,0.806,0.0,0.0
1738833259973049879,2.863,1.8125,7.016,-0.652,0.9375,0.01244,-0.006454,-0.06198,-0.0523,2.738,1.724,7.0,-0.6367,0.867,0.003906,-0.005447,-0.0613,0.03394,2.357,1.855,7.0,-0.618,0.7856,0.0,0.0
1738833260023006677,2.828,1.861,7.016,-0.674,0.9307,0.01284,-0.006256,-0.0627,-0.0523,2.686,1.776,7.0,-0.668,0.8594,0.003906,-0.005184,-0.06122,0.03394,2.357,1.855,7.0,-0.618,0.7856,0.0,0.0
1738833260072984218,2.795,1.905,7.016,-0.694,0.924,0.01278,-0.00507,-0.06213,-0.05228,2.67,1.803,7.0,-0.6836,0.8516,0.003906,-0.005108,-0.06183,0.03394,2.295,1.933,7.0,-0.644,0.7646,0.0,0.0
1738833260122991085,2.77,1.938,7.016,-0.7085,0.9185,0.01249,-0.00437,-0.0615,-0.05228,2.617,1.856,7.0,-0.711,0.8438,0.003906,-0.003723,-0.06134,0.03406,2.295,1.933,7.0,-0.644,0.7646,0.0,0.0
1738833260172971487,2.732,1.986,7.016,-0.7295,0.9126,0.01194,-0.003176,-0.05997,-0.05225,2.6,1.883,7.0,-0.7227,0.84,0.003906,-0.00285,-0.06082,0.03403,2.229,2.008,7.0,-0.6694,0.743,0.0,0.0
1738833260222986698,2.686,2.045,7.016,-0.753,0.9,0.012054,-0.001972,-0.05746,-0.05225,2.564,1.936,7.0,-0.7383,0.832,-0.0,-0.00214,-0.05997,0.0339,2.229,2.008,7.0,-0.6694,0.743,0.0,0.0
1738833260272991180,2.648,2.088,7.016,-0.7695,0.8916,0.01238,-0.001517,-0.05502,-0.05222,2.512,1.989,7.0,-0.7656,0.8203,-0.0,-0.000969,-0.0573,0.03378,2.16,2.082,7.0,-0.694,0.72,0.0,0.0
1738833260322996377,2.617,2.123,7.02,-0.782,0.885,0.01218,-0.00126,-0.0532,-0.0522,2.459,2.041,7.0,-0.789,0.8086,-0.0,-0.0003076,-0.05414,0.0337,2.16,2.082,7.0,-0.694,0.72,0.0,0.0
1738833260372972965,2.57,2.176,7.02,-0.8,0.8755,0.01207,-0.001036,-0.05157,-0.05215,2.441,2.068,7.0,-0.797,0.8047,-0.0,-0.000116,-0.05276,0.03384,2.09,2.152,7.0,-0.7173,0.697,0.0,0.0
1738833260422986030,2.531,2.217,7.02,-0.813,0.8657,0.011894,-0.000797,-0.05026,-0.05212,2.389,2.121,7.0,-0.8164,0.793,-0.0,8.535e-05,-0.0507,0.03412,2.09,2.152,7.0,-0.7173,0.697,0.0,0.0
1738833260472980976,2.488,2.262,7.02,-0.826,0.8564,0.01171,0.000471,-0.0473,-0.05212,2.354,2.148,7.0,-0.828,0.785,-0.0,0.000185,-0.0499,0.03412,2.018,2.22,7.0,-0.74,0.6724,0.0,0.0
1738833260523015975,2.453,2.299,7.02,-0.836,0.8477,0.011086,0.00161,-0.04477,-0.05215,2.3,2.201,7.0,-0.8438,0.7734,-0.0,0.00171,-0.0464,0.03424,2.018,2.22,7.0,-0.74,0.6724,0.0,0.0
1738833260573005199,2.406,2.348,7.02,-0.847,0.8364,0.01043,0.0029,-0.0421,-0.05215,2.285,2.227,7.0,-0.8477,0.7695,-0.0,0.002523,-0.04443,0.03415,1.942,2.287,7.0,-0.762,0.6475,0.0,0.0
1738833260623012065,2.365,2.387,7.023,-0.8555,0.826,0.010414,0.003674,-0.04065,-0.05215,2.232,2.281,7.0,-0.8633,0.758,-0.0,0.003956,-0.0415,0.03403,1.942,2.287,7.0,-0.762,0.6475,0.0,0.0
1738833260672996759,2.32,2.43,7.023,-0.864,0.8145,0.01072,0.005375,-0.03955,-0.05215,2.197,2.307,7.0,-0.867,0.75,-0.0,0.004498,-0.0403,0.03384,1.865,2.35,7.0,-0.783,0.6216,0.0,0.0
1738833260722997665,2.275,2.47,7.023,-0.8716,0.8022,0.01093,0.00686,-0.03897,-0.05212,2.127,2.36,7.0,-0.879,0.7383,-0.0,0.006516,-0.03888,0.03354,1.865,2.35,7.0,-0.783,0.6216,0.0,0.0
1738833260772984743,2.232,2.51,7.023,-0.879,0.7905,0.010895,0.00821,-0.03857,-0.05206,2.11,2.387,7.0,-0.883,0.7305,-0.0,0.007645,-0.03845,0.03354,1.785,2.41,7.0,-0.8037,0.595,0.0,0.0
1738833260823007822,2.201,2.537,7.023,-0.8823,0.7812,0.010895,0.00884,-0.03845,-0.052,2.04,2.44,7.0,-0.8945,0.7188,-0.0,0.00911,-0.03806,0.03394,1.785,2.41,7.0,-0.8037,0.595,0.0,0.0
1738833260873027086,2.166,2.568,7.023,-0.8896,0.771,0.01006,0.00987,-0.03787,-0.052,2.004,2.467,7.0,-0.8984,0.707,-0.0,0.0098,-0.0379,0.03418,1.704,2.469,7.0,-0.8228,0.568,0.0,0.0
1738833260923003196,2.102,2.623,7.023,-0.8984,0.751,0.008354,0.01247,-0.03583,-0.05206,1.987,2.492,7.0,-0.9023,0.703,-0.0,0.0105,-0.03757,0.03424,1.704,2.469,7.0,-0.8228,0.568,0.0,0.0
1738833260973024368,2.09,2.65,7.023,-0.9023,0.7407,0.00772,0.01397,-0.03513,-0.05206,1.935,2.545,7.0,-0.91,0.6836,-0.0,0.01295,-0.03552,0.0345,1.621,2.523,7.0,-0.8413,0.5405,0.0,0.0
1738833261023089647,2.014,2.695,7.023,-0.906,0.726,0.007137,0.01677,-0.03406,-0.05212,1.864,2.572,7.0,-0.918,0.668,-0.0,0.01581,-0.0343,0.0346,1.621,2.523,7.0,-0.8413,0.5405,0.0,0.0
1738833261073085784,1.963,2.734,7.027,-0.9136,0.7036,0.00715,0.01857,-0.0334,-0.05222,1.829,2.6,7.0,-0.918,0.66,-0.0,0.01729,-0.03372,0.03458,1.536,2.576,7.0,-0.859,0.5117,0.0,0.0
1738833261123083353,1.919,2.768,7.027,-0.918,0.689,0.00685,0.01959,-0.0331,-0.05228,1.76,2.652,7.0,-0.926,0.6367,-0.0,0.01955,-0.0329,0.03455,1.536,2.576,7.0,-0.859,0.5117,0.0,0.0
1738833261173078775,1.875,2.803,7.027,-0.9224,0.671,0.006004,0.02162,-0.03296,-0.05237,1.742,2.678,7.0,-0.926,0.633,-0.0,0.02007,-0.0327,0.03455,1.449,2.627,7.0,-0.8755,0.4832,0.0,0.0
1738833261223100185,1.838,2.826,7.027,-0.9253,0.6567,0.00533,0.02296,-0.03293,-0.05243,1.707,2.705,7.0,-0.9297,0.621,-0.0,0.0212,-0.03265,0.03455,1.449,2.627,7.0,-0.8755,0.4832,0.0,0.0
1738833261272991895,1.779,2.867,7.027,-0.9307,0.633,0.004406,0.02469,-0.0328,-0.05252,1.654,2.73,7.0,-0.9336,0.5977,-0.0,0.02362,-0.03253,0.03458,1.36,2.674,7.0,-0.891,0.4536,0.0,0.0
1738833261322998762,1.749,2.889,7.027,-0.933,0.6206,0.004204,0.0253,-0.0328,-0.05255,1.585,2.785,7.0,-0.9375,0.574,-0.003906,0.02544,-0.03247,0.03455,1.36,2.674,7.0,-0.891,0.4536,0.0,0.0
1738833261372992753,1.686,2.93,7.027,-0.939,0.5947,0.00424,0.02744,-0.03265,-0.05264,1.567,2.81,7.0,-0.9375,0.5664,-0.003906,0.02586,-0.03238,0.03455,1.2705,2.717,7.0,-0.906,0.4236,0.0,0.0
1738833261423015832,1.663,2.943,7.027,-0.941,0.585,0.004303,0.02834,-0.03262,-0.05267,1.497,2.838,7.0,-0.9414,0.543,-0.003906,0.0281,-0.03226,0.03452,1.2705,2.717,7.0,-0.906,0.4236,0.0,0.0
1738833261472986936,1.595,2.984,7.027,-0.946,0.5557,0.004513,0.03027,-0.0333,-0.0528,1.462,2.863,7.0,-0.9414,0.5273,-0.003906,0.02931,-0.0323,0.0345,1.18,2.758,7.0,-0.9194,0.3933,0.0,0.0
1738833261522994518,1.564,3.002,7.027,-0.95,0.5425,0.00476,0.03085,-0.03455,-0.05286,1.393,2.89,7.0,-0.949,0.5,-0.003906,0.03102,-0.0337,0.03445,1.18,2.758,7.0,-0.9194,0.3933,0.0,0.0
1738833261572969675,1.504,3.035,7.027,-0.9565,0.516,0.00461,0.03247,-0.0359,-0.05292,1.393,2.916,7.0,-0.949,0.4922,-0.0,0.03137,-0.0344,0.03442,1.087,2.797,7.0,-0.932,0.3623,0.0,0.0
1738833261622982978,1.45,3.064,7.027,-0.9614,0.497,0.004654,0.03452,-0.03674,-0.05304,1.322,2.943,7.0,-0.953,0.461,-0.0,0.03357,-0.0358,0.03455,1.087,2.797,7.0,-0.932,0.3623,0.0,0.0
1738833261672969818,1.407,3.086,7.027,-0.9683,0.4727,0.004314,0.03522,-0.03717,-0.0531,1.287,2.97,7.0,-0.957,0.4453,-0.0,0.0348,-0.03635,0.0346,0.993,2.83,7.0,-0.9434,0.331,0.0,0.0
1738833261722997665,1.368,3.104,7.027,-0.973,0.455,0.00414,0.03625,-0.03745,-0.0532,1.218,2.996,7.0,-0.961,0.414,-0.003906,0.03622,-0.037,0.03473,0.993,2.83,7.0,-0.9434,0.331,0.0,0.0
1738833261772978544,1.302,3.135,7.027,-0.982,0.4246,0.00372,0.03824,-0.03885,-0.05334,1.2,2.996,7.0,-0.965,0.3984,-0.003906,0.03683,-0.03726,0.03473,0.8984,2.863,7.0,-0.954,0.2996,0.0,0.0
1738833261822980642,1.255,3.154,7.03,-0.989,0.4026,0.003445,0.03976,-0.04025,-0.0535,1.13,3.023,7.0,-0.9688,0.371,-0.003906,0.0387,-0.03867,0.03476,0.8984,2.863,7.0,-0.954,0.2996,0.0,0.0
1738833261872969150,1.203,3.174,7.03,-0.9966,0.3784,0.002798,0.03976,-0.04132,-0.0536,1.095,3.049,7.0,-0.9727,0.3516,-0.003906,0.03998,-0.0398,0.03445,0.8027,2.89,7.0,-0.9634,0.2676,0.0,0.0
1738833261922978878,1.167,3.191,7.03,-1.005,0.357,0.002213,0.03928,-0.04202,-0.05362,1.025,3.049,7.0,-0.9805,0.3164,-0.003906,0.04016,-0.0412,0.03406,0.8027,2.89,7.0,-0.9634,0.2676,0.0,0.0
1738833261972971916,1.103,3.209,7.03,-1.013,0.334,0.001763,0.0388,-0.04245,-0.05365,1.008,3.076,7.0,-0.9844,0.3047,-0.003906,0.0399,-0.0416,0.03397,0.7056,2.916,7.0,-0.972,0.2352,0.0,0.0
1738833262022986888,1.058,3.225,7.03,-1.0205,0.315,0.001775,0.03848,-0.04263,-0.05368,0.9375,3.076,7.0,-0.992,0.2695,-0.003906,0.03928,-0.0422,0.03372,0.7056,2.916,7.0,-0.972,0.2352,0.0,0.0
1738833262072968721,1.001,3.24,7.03,-1.029,0.2913,0.001135,0.03812,-0.04282,-0.05365,0.903,3.076,7.0,-0.996,0.25,-0.003906,0.0391,-0.04236,0.03363,0.608,2.938,7.0,-0.979,0.2028,0.0,0.0
1738833262122976303,0.9507,3.254,7.03,-1.037,0.2712,0.000949,0.03793,-0.04294,-0.05362,0.8325,3.102,7.0,-1.004,0.2227,-0.003906,0.03876,-0.04254,0.03354,0.608,2.938,7.0,-0.979,0.2028,0.0,0.0
1738833262172976493,0.901,3.268,7.03,-1.045,0.2515,0.000625,0.03784,-0.04297,-0.0536,0.8154,3.102,7.0,-1.008,0.2109,-0.003906,0.03867,-0.0426,0.03345,0.51,2.957,7.0,-0.9854,0.1699,0.0,0.0
1738833262222995996,0.855,3.277,7.03,-1.052,0.2338,6.1e-05,0.03775,-0.04306,-0.05353,0.7803,3.102,7.0,-1.012,0.1953,-0.003906,0.03848,-0.0426,0.03348,0.51,2.957,7.0,-0.9854,0.1699,0.0,0.0
1738833262272980451,0.7954,3.291,7.03,-1.062,0.2119,-0.001147,0.03552,-0.04315,-0.0535,0.7104,3.129,7.0,-1.02,0.1641,-0.003906,0.03842,-0.0427,0.0334,0.4111,2.973,7.0,-0.9907,0.1371,0.0,0.0
1738833262323001623,0.74,3.3,7.03,-1.069,0.1932,-0.001833,0.0327,-0.04318,-0.0534,0.6406,3.129,7.0,-1.027,0.1328,-0.007812,0.03564,-0.04282,0.03326,0.4111,2.973,7.0,-0.9907,0.1371,0.0,0.0
1738833262372982263,0.6846,3.31,7.03,-1.077,0.176,-0.001814,0.03065,-0.04312,-0.05334,0.623,3.129,7.0,-1.031,0.125,-0.007812,0.034,-0.04288,0.0332,0.3118,2.984,7.0,-0.9946,0.10394,0.0,0.0
1738833262423004388,0.6846,3.31,7.03,-1.077,0.176,-0.001814,0.03065,-0.04312,-0.05334,0.588,3.129,7.0,-1.035,0.1094,-0.007812,0.0323,-0.04285,0.03317,0.3118,2.984,7.0,-0.9946,0.10394,0.0,0.0
1738833262473003864,0.611,3.322,7.03,-1.087,0.155,-0.001284,0.02893,-0.0427,-0.05325,0.518,3.156,7.0,-1.043,0.08594,-0.003906,0.03021,-0.04263,0.0332,0.2122,2.992,7.0,-0.9976,0.07074,0.0,0.0
1738833262523014307,0.563,3.328,7.03,-1.093,0.1422,-0.001458,0.02824,-0.0415,-0.05316,0.483,3.156,7.0,-1.047,0.0781,-0.003906,0.0296,-0.04236,0.03323,0.2122,2.992,7.0,-0.9976,0.07074,0.0,0.0
1738833262572996616,0.484,3.338,7.03,-1.102,0.1221,-0.00163,0.02643,-0.03992,-0.05304,0.413,3.156,7.0,-1.051,0.0586,-0.003906,0.0286,-0.04062,0.03317,0.11237,2.998,7.0,-0.9995,0.03745,0.0,0.0
1738833262623080253,0.4617,3.34,7.03,-1.1045,0.1221,-0.001629,0.02574,-0.03958,-0.05298,0.3782,3.156,7.0,-1.059,0.04688,-0.003906,0.0274,-0.03973,0.03305,0.11237,2.998,7.0,-0.9995,0.03745,0.0,0.0
1738833262673094987,0.3774,3.348,7.03,-1.111,0.09766,-0.00189,0.02493,-0.03873,-0.05276,0.308,3.156,7.0,-1.0625,0.02734,-0.003906,0.0256,-0.03876,0.03302,0.01239,3.0,7.0,-1.0,0.00413,0.0,0.0
1738833262723094701,0.3464,3.35,7.027,-1.114,0.0907,-0.00198,0.02525,-0.03854,-0.0527,0.2732,3.156,7.0,-1.0625,0.01953,-0.003906,0.02553,-0.03848,0.03284,0.01239,3.0,7.0,-1.0,0.00413,0.0,0.0
1738833262773042917,0.275,3.355,7.027,-1.12,0.0777,-0.002071,0.02588,-0.03824,-0.0526,0.2207,3.156,7.0,-1.07,0.007812,-0.003906,0.02621,-0.03818,0.03336,-0.0876,2.998,7.0,-0.9995,-0.0292,0.0,0.0
1738833262823016405,0.2434,3.357,7.027,-1.123,0.06757,-0.001817,0.02606,-0.03818,-0.05252,0.1857,3.156,7.0,-1.07,0.0,-0.003906,0.02657,-0.038,0.0336,-0.0876,2.998,7.0,-0.9995,-0.0292,0.0,0.0
1738833262873018741,0.1849,3.36,7.027,-1.126,0.0544,-0.001123,0.02646,-0.03766,-0.0525,0.09827,3.156,7.0,-1.074,-0.01563,-0.003906,0.02716,-0.0376,0.03403,-0.1875,2.994,7.0,-0.998,-0.0625,0.0,0.0
1738833262923017024,0.1036,3.365,7.027,-1.133,0.03717,0.000659,0.02675,-0.03552,-0.0525,0.0633,3.156,7.0,-1.078,-0.02344,-0.003906,0.02727,-0.0368,0.0342,-0.1875,2.994,7.0,-0.998,-0.0625,0.0,0.0
1738833262973053216,0.03552,3.365,7.027,-1.136,0.02095,0.00219,0.02689,-0.03433,-0.05255,0.01084,3.182,7.0,-1.078,-0.03906,-0.003906,0.02747,-0.0349,0.0344,-0.287,2.986,7.0,-0.9956,-0.0957,0.0,0.0
1738833263022999763,0.03552,3.365,7.027,-1.137,0.02095,0.00219,0.02689,-0.03415,-0.05258,-0.04163,3.156,7.0,-1.082,-0.04688,-0.0,0.02756,-0.03433,0.03442,-0.287,2.986,7.0,-0.9956,-0.0957,0.0,0.0
1738833263073014497,-0.06915,3.367,7.027,-1.139,-0.002314,0.003538,0.02797,-0.0325,-0.0526,-0.1116,3.156,7.0,-1.082,-0.0664,-0.0,0.02774,-0.0333,0.03452,-0.3865,2.975,7.0,-0.9917,-0.1288,0.0,0.0
1738833263122997283,-0.11017,3.367,7.03,-1.141,-0.00858,0.003836,0.02904,-0.03168,-0.0527,-0.1466,3.156,7.0,-1.082,-0.0742,-0.0,0.02846,-0.03244,0.03452,-0.3865,2.975,7.0,-0.9917,-0.1288,0.0,0.0
1738833263172982931,-0.1512,3.365,7.03,-1.141,-0.02155,0.003956,0.03015,-0.03033,-0.05273,-0.2166,3.156,7.0,-1.082,-0.08594,-0.0,0.0303,-0.03049,0.03442,-0.4854,2.96,7.0,-0.987,-0.1619,0.0,0.0
1738833263222990989,-0.2014,3.365,7.03,-1.141,-0.03644,0.00398,0.03305,-0.02916,-0.05283,-0.2515,3.156,7.0,-1.082,-0.09766,-0.0,0.0317,-0.02965,0.03433,-0.4854,2.96,7.0,-0.987,-0.1619,0.0,0.0
1738833263272997140,-0.288,3.361,7.03,-1.141,-0.0535,0.00414,0.03455,-0.0287,-0.0529,-0.3215,3.156,7.0,-1.082,-0.1172,-0.0,0.03458,-0.02856,0.0342,-0.584,2.943,7.0,-0.981,-0.1946,0.0,0.0
1738833263322983980,-0.3154,3.36,7.03,-1.141,-0.0649,0.00442,0.03546,-0.02689,-0.05292,-0.3564,3.156,7.0,-1.082,-0.125,-0.0,0.03546,-0.02754,0.03406,-0.584,2.943,7.0,-0.981,-0.1946,0.0,0.0
1738833263373030424,-0.4111,3.354,7.03,-1.138,-0.0924,0.004673,0.0378,-0.0245,-0.05292,-0.4263,3.156,7.0,-1.078,-0.1445,-0.0,0.03687,-0.02531,0.0339,-0.6816,2.922,7.0,-0.9736,-0.2272,0.0,0.0
1738833263423006296,-0.4795,3.348,7.03,-1.135,-0.11316,0.00407,0.03992,-0.0236,-0.05292,-0.4614,3.156,7.0,-1.074,-0.1562,-0.0,0.03827,-0.0243,0.03372,-0.6816,2.922,7.0,-0.9736,-0.2272,0.0,0.0
1738833263472998380,-0.5337,3.342,7.03,-1.132,-0.1304,0.003918,0.0411,-0.0231,-0.05286,-0.5312,3.129,7.0,-1.07,-0.1758,-0.0,0.04053,-0.02348,0.03345,-0.779,2.896,7.0,-0.966,-0.2595,0.0,0.0
1738833263522987842,-0.5835,3.336,7.03,-1.13,-0.1464,0.003902,0.04184,-0.02287,-0.0528,-0.5664,3.129,7.0,-1.066,-0.1875,-0.0,0.04123,-0.02313,0.0334,-0.779,2.896,7.0,-0.966,-0.2595,0.0,0.0
1738833263572980880,-0.647,3.326,7.03,-1.127,-0.1672,0.003782,0.04367,-0.02135,-0.05273,-0.636,3.129,7.0,-1.0625,-0.207,-0.0,0.04254,-0.02257,0.03354,-0.8745,2.87,7.0,-0.9565,-0.2915,0.0,0.0
1738833263623003959,-0.705,3.316,7.03,-1.123,-0.1873,0.003613,0.0454,-0.01984,-0.0527,-0.6714,3.129,7.0,-1.059,-0.2188,-0.0,0.04358,-0.02173,0.0338,-0.8745,2.87,7.0,-0.9565,-0.2915,0.0,0.0
1738833263673073291,-0.759,3.307,7.03,-1.118,-0.2063,0.003548,0.04654,-0.01883,-0.0527,-0.741,3.102,7.0,-1.055,-0.2422,-0.0,0.04596,-0.0196,0.034,-0.9697,2.84,7.0,-0.9463,-0.3232,0.0,0.0
1738833263723124504,-0.817,3.297,7.03,-1.113,-0.2272,0.00344,0.0474,-0.01808,-0.0527,-0.776,3.102,7.0,-1.051,-0.254,-0.0,0.04666,-0.01894,0.0341,-0.9697,2.84,7.0,-0.9463,-0.3232,0.0,0.0
1738833263773017644,-0.8706,3.285,7.03,-1.109,-0.2466,0.003181,0.04797,-0.01762,-0.05273,-0.846,3.102,7.0,-1.043,-0.2773,-0.0,0.0478,-0.018,0.03427,-1.063,2.805,7.0,-0.935,-0.3547,0.0,0.0
1738833263823122501,-0.8706,3.285,7.03,-1.109,-0.2466,0.003181,0.04797,-0.01762,-0.05273,-0.881,3.076,7.0,-1.039,-0.293,-0.0,0.04822,-0.01758,0.0343,-1.063,2.805,7.0,-0.935,-0.3547,0.0,0.0
1738833263872987747,-0.932,3.27,7.03,-1.104,-0.269,0.002728,0.04837,-0.01721,-0.05276,-0.951,3.076,7.0,-1.027,-0.3125,-0.0,0.04868,-0.01715,0.0343,-1.157,2.768,7.0,-0.923,-0.3855,0.0,0.0
1738833263922991514,-1.033,3.244,7.03,-1.094,-0.3062,0.001906,0.0488,-0.01461,-0.05286,-0.986,3.049,7.0,-1.023,-0.3242,-0.0,0.04877,-0.01639,0.0343,-1.157,2.768,7.0,-0.923,-0.3855,0.0,0.0
1738833263973069906,-1.068,3.234,7.03,-1.089,-0.3188,0.002012,0.04947,-0.013855,-0.0529,-1.056,3.049,7.0,-1.016,-0.3477,-0.0,0.04913,-0.01449,0.03418,-1.248,2.729,7.0,-0.909,-0.4163,0.0,0.0
1738833264023050546,-1.146,3.21,7.03,-1.08,-0.3486,0.001801,0.05164,-0.0127,-0.05298,-1.091,3.023,7.0,-1.008,-0.3594,-0.0,0.0501,-0.01355,0.0342,-1.248,2.729,7.0,-0.909,-0.4163,0.0,0.0
1738833264072994709,-1.193,3.193,7.03,-1.073,-0.367,0.001537,0.05255,-0.0123,-0.05298,-1.144,2.996,7.0,-1.0,-0.3828,-0.0,0.05185,-0.01271,0.03403,-1.339,2.686,7.0,-0.895,-0.4463,0.0,0.0
1738833264122986316,-1.254,3.174,7.03,-1.065,-0.3909,0.001239,0.05347,-0.01198,-0.05298,-1.179,2.996,7.0,-0.992,-0.3945,-0.0,0.05255,-0.01238,0.03397,-1.339,2.686,7.0,-0.895,-0.4463,0.0,0.0
1738833264172985553,-1.305,3.154,7.03,-1.06,-0.4116,0.000805,0.05505,-0.01181,-0.05298,-1.248,2.97,7.0,-0.9844,-0.418,-0.0,0.0536,-0.01205,0.03378,-1.428,2.639,7.0,-0.8794,-0.4758,0.0,0.0
1738833264222991704,-1.352,3.135,7.03,-1.055,-0.431,0.000374,0.05652,-0.01174,-0.05298,-1.283,2.97,7.0,-0.9766,-0.4336,-0.0,0.0549,-0.01181,0.03378,-1.428,2.639,7.0,-0.8794,-0.4758,0.0,0.0
1738833264273000001,-1.41,3.11,7.03,-1.046,-0.456,0.00023,0.05676,-0.0116,-0.05298,-1.354,2.943,7.0,-0.965,-0.461,-0.0,0.0569,-0.01176,0.0337,-1.515,2.59,7.0,-0.8633,-0.505,0.0,0.0
1738833264322991609,-1.435,3.1,7.03,-1.042,-0.4666,0.000267,0.05652,-0.01153,-0.05295,-1.389,2.916,7.0,-0.961,-0.4727,-0.0,0.05698,-0.011665,0.0336,-1.515,2.59,7.0,-0.8633,-0.505,0.0,0.0
1738833264372997283,-1.464,3.086,7.03,-1.038,-0.4788,0.000525,0.0563,-0.01138,-0.05292,-1.44,2.89,7.0,-0.949,-0.496,-0.0,0.05637,-0.0114,0.03354,-1.6,2.537,7.0,-0.8457,-0.533,0.0,0.0
1738833264422988891,-1.53,3.055,7.03,-1.029,-0.501,0.000822,0.05582,-0.009705,-0.0529,-1.476,2.89,7.0,-0.9453,-0.5117,-0.0,0.05603,-0.01052,0.03348,-1.6,2.537,7.0,-0.8457,-0.533,0.0,0.0
1738833264472993373,-1.579,3.023,7.03,-1.023,-0.5264,0.000673,0.05582,-0.00853,-0.0528,-1.546,2.838,7.0,-0.9336,-0.543,-0.0,0.05588,-0.00879,0.03336,-1.684,2.482,7.0,-0.8276,-0.561,0.0,0.0
1738833264523013114,-1.669,2.982,7.03,-1.007,-0.5635,0.001739,0.05774,-0.007065,-0.05267,-1.58,2.838,7.0,-0.9297,-0.5547,-0.0,0.05634,-0.008194,0.03326,-1.684,2.482,7.0,-0.8276,-0.561,0.0,0.0
1738833264573063850,-1.717,2.96,7.035,-1.001,-0.579,0.002213,0.05762,-0.00668,-0.0526,-1.633,2.785,7.0,-0.918,-0.586,-0.0,0.0579,-0.007183,0.0333,-1.766,2.426,7.0,-0.8086,-0.5884,0.0,0.0
1738833264623004198,-1.765,2.926,7.035,-0.9907,-0.604,0.002516,0.05676,-0.006344,-0.05255,-1.668,2.758,7.0,-0.91,-0.6016,-0.0,0.05774,-0.006844,0.03366,-1.766,2.426,7.0,-0.8086,-0.5884,0.0,0.0
1738833264673055171,-1.815,2.895,7.035,-0.9814,-0.625,0.00295,0.05615,-0.006172,-0.05255,-1.738,2.73,6.996,-0.8984,-0.629,-0.0,0.05698,-0.00641,0.03394,-1.846,2.365,7.0,-0.7886,-0.615,0.0,0.0
1738833264723077535,-1.862,2.863,7.035,-0.9736,-0.644,0.003132,0.05582,-0.006042,-0.05255,-1.756,2.705,6.996,-0.8945,-0.6445,-0.0,0.0566,-0.00641,0.0341,-1.846,2.365,7.0,-0.7886,-0.615,0.0,0.0
1738833264773077011,-1.866,2.85,7.035,-0.9697,-0.6514,0.003235,0.05524,-0.00604,-0.05258,-1.825,2.652,6.996,-0.883,-0.672,-0.0,0.05594,-0.006233,0.03445,-1.923,2.303,7.0,-0.7676,-0.641,0.0,0.0
1738833264823090076,-1.917,2.826,7.035,-0.9634,-0.665,0.003332,0.05405,-0.00596,-0.05264,-1.86,2.625,7.0,-0.875,-0.6875,-0.0,0.0549,-0.006218,0.03455,-1.923,2.303,7.0,-0.7676,-0.641,0.0,0.0
1738833264873082637,-2.008,2.762,7.035,-0.947,-0.6987,0.003344,0.05154,-0.004696,-0.0528,-1.913,2.572,6.996,-0.8633,-0.715,-0.0,0.05292,-0.0061,0.03473,-1.999,2.236,7.0,-0.7456,-0.6665,0.0,0.0
1738833264923110961,-2.035,2.736,7.035,-0.94,-0.7104,0.002825,0.05093,-0.003658,-0.05286,-1.948,2.545,7.0,-0.8555,-0.7266,-0.0,0.05222,-0.005398,0.03476,-1.999,2.236,7.0,-0.7456,-0.6665,0.0,0.0
1738833264973072290,-2.059,2.725,7.035,-0.937,-0.716,0.002579,0.05063,-0.003294,-0.0529,-2.0,2.52,7.0,-0.8438,-0.746,-0.0,0.05115,-0.003567,0.0348,-2.072,2.17,7.0,-0.723,-0.691,0.0,0.0
1738833265023111820,-2.146,2.654,7.035,-0.9175,-0.7446,0.001907,0.04733,-0.001578,-0.05313,-2.035,2.492,7.0,-0.836,-0.7617,-0.0,0.05002,-0.002943,0.03482,-2.072,2.17,7.0,-0.723,-0.691,0.0,0.0
1738833265073069572,-2.164,2.627,7.035,-0.91,-0.758,0.001904,0.04596,-0.000643,-0.0532,-2.088,2.412,7.0,-0.8203,-0.7812,-0.0,0.04755,-0.001777,0.03476,-2.143,2.1,7.0,-0.6997,-0.7144,0.0,0.0
1738833265123100996,-2.227,2.578,7.035,-0.8984,-0.7705,0.001614,0.0433,0.001773,-0.05334,-2.123,2.387,7.0,-0.8164,-0.789,-0.0,0.04617,-0.000715,0.0347,-2.143,2.1,7.0,-0.6997,-0.7144,0.0,0.0
1738833265173084497,-2.24,2.576,7.035,-0.8945,-0.7715,0.00159,0.04272,0.001883,-0.05338,-2.176,2.36,7.0,-0.801,-0.8047,-0.0,0.04337,0.001495,0.03458,-2.213,2.027,7.0,-0.6753,-0.7373,0.0,0.0
1738833265223086357,-2.291,2.531,7.035,-0.878,-0.784,0.001348,0.04083,0.003159,-0.05347,-2.21,2.307,7.0,-0.793,-0.8164,-0.0,0.04208,0.00247,0.03442,-2.213,2.027,7.0,-0.6753,-0.7373,0.0,0.0
1738833265273006677,-2.357,2.47,7.035,-0.861,-0.7974,0.00124,0.0391,0.00426,-0.0536,-2.262,2.254,7.0,-0.7773,-0.832,-0.0,0.04074,0.003534,0.03418,-2.28,1.951,7.0,-0.6504,-0.7593,0.0,0.0
1738833265322996854,-2.412,2.42,7.035,-0.845,-0.811,0.00156,0.03677,0.004868,-0.05365,-2.28,2.227,7.0,-0.7695,-0.836,-0.0,0.0396,0.003815,0.0341,-2.28,1.951,7.0,-0.6504,-0.7593,0.0,0.0
1738833265372975111,-2.455,2.377,7.035,-0.8315,-0.8193,0.001925,0.03546,0.006245,-0.05368,-2.332,2.201,7.0,-0.758,-0.8477,-0.0,0.0373,0.004463,0.03394,-2.342,1.875,7.0,-0.625,-0.781,0.0,0.0
1738833265422991991,-2.492,2.342,7.035,-0.8184,-0.826,0.002033,0.03467,0.007298,-0.05368,-2.367,2.148,7.0,-0.75,-0.8516,-0.0,0.03653,0.005257,0.03378,-2.342,1.875,7.0,-0.625,-0.781,0.0,0.0
1738833265472995758,-2.537,2.295,7.035,-0.803,-0.833,0.002392,0.03284,0.01001,-0.05365,-2.42,2.096,7.0,-0.7305,-0.8633,-0.0,0.0351,0.007442,0.03354,-2.404,1.796,7.0,-0.5986,-0.8013,0.0,0.0
1738833265523014545,-2.574,2.262,7.035,-0.788,-0.839,0.002731,0.03146,0.01164,-0.05365,-2.438,2.068,7.0,-0.7227,-0.867,-0.0,0.0341,0.00884,0.03357,-2.404,1.796,7.0,-0.5986,-0.8013,0.0,0.0
1738833265572979688,-2.615,2.21,7.035,-0.7715,-0.844,0.003044,0.0312,0.01366,-0.05362,-2.49,2.016,7.0,-0.703,-0.875,-0.0,0.03198,0.01155,0.03384,-2.463,1.714,7.0,-0.5713,-0.821,0.0,0.0
1738833265623003721,-2.615,2.21,7.035,-0.7715,-0.844,0.003044,0.0312,0.01366,-0.05362,-2.525,1.989,7.0,-0.6914,-0.879,-0.0,0.0319,0.01284,0.03397,-2.463,1.714,7.0,-0.5713,-0.821,0.0,0.0
1738833265672969102,-2.691,2.127,7.035,-0.738,-0.855,0.00287,0.03091,0.01645,-0.0537,-2.578,1.909,7.0,-0.672,-0.8867,-0.0,0.03244,0.01421,0.0341,-2.518,1.631,7.0,-0.544,-0.8394,0.0,0.0
1738833265722999095,-2.715,2.096,7.035,-0.7246,-0.8584,0.002674,0.03026,0.01768,-0.05374,-2.596,1.883,7.0,-0.664,-0.8867,-0.0,0.03204,0.01517,0.0341,-2.518,1.631,7.0,-0.544,-0.8394,0.0,0.0
1738833265772981643,-2.754,2.05,7.035,-0.7056,-0.864,0.002352,0.02936,0.01926,-0.05377,-2.629,1.856,7.0,-0.6445,-0.8906,-0.0,0.03069,0.01761,0.03403,-2.57,1.547,7.0,-0.5156,-0.857,0.0,0.0
1738833265823101282,-2.768,2.023,7.035,-0.694,-0.866,0.002386,0.0291,0.01993,-0.0538,-2.664,1.803,7.0,-0.633,-0.8945,-0.0,0.03018,0.01848,0.03397,-2.57,1.547,7.0,-0.5156,-0.857,0.0,0.0
1738833265873096227,-2.832,1.953,7.035,-0.6636,-0.8726,0.002834,0.02827,0.0223,-0.05383,-2.717,1.75,7.0,-0.6094,-0.9023,-0.0,0.02943,0.01979,0.03378,-2.621,1.46,7.0,-0.4866,-0.8735,0.0,0.0
1738833265923065900,-2.863,1.911,7.035,-0.6445,-0.8765,0.00254,0.02809,0.02397,-0.05383,-2.734,1.724,7.0,-0.5977,-0.9023,-0.0,0.02919,0.02092,0.03372,-2.621,1.46,7.0,-0.4866,-0.8735,0.0,0.0
1738833265973071575,-2.885,1.89,7.035,-0.63,-0.879,0.002478,0.02864,0.02489,-0.05383,-2.77,1.671,7.0,-0.578,-0.9062,-0.0,0.02896,0.02309,0.03348,-2.668,1.372,7.0,-0.4573,-0.889,0.0,0.0
1738833266023010015,-2.928,1.819,7.035,-0.6016,-0.885,0.002285,0.03033,0.026,-0.0538,-2.805,1.645,7.0,-0.5664,-0.9062,-0.0,0.02959,0.02403,0.0335,-2.668,1.372,7.0,-0.4573,-0.889,0.0,0.0
1738833266073050260,-2.93,1.802,7.035,-0.5933,-0.8867,0.002089,0.03041,0.02667,-0.0538,-2.84,1.564,7.0,-0.539,-0.91,-0.0,0.03134,0.02538,0.0339,-2.713,1.282,7.0,-0.4275,-0.9043,0.0,0.0
1738833266123047113,-2.955,1.777,7.035,-0.5815,-0.8896,0.001761,0.03117,0.02785,-0.0538,-2.857,1.538,7.0,-0.5273,-0.91,-0.0,0.0318,0.0263,0.034,-2.713,1.282,7.0,-0.4275,-0.9043,0.0,0.0
1738833266172973394,-2.988,1.727,7.035,-0.5576,-0.8955,0.001164,0.032,0.02975,-0.05383,-2.893,1.485,7.0,-0.5,-0.914,-0.0,0.03278,0.02863,0.03424,-2.754,1.191,7.0,-0.397,-0.918,0.0,0.0
1738833266222978830,-3.014,1.684,7.035,-0.536,-0.9014,0.000607,0.0336,0.03087,-0.05386,-2.91,1.459,7.0,-0.4805,-0.918,-0.0,0.034,0.02965,0.03418,-2.754,1.191,7.0,-0.397,-0.918,0.0,0.0
1738833266272974014,-3.041,1.637,7.035,-0.513,-0.908,0.000649,0.0352,0.0318,-0.05396,-2.945,1.405,7.0,-0.4492,-0.922,-0.0,0.0361,0.0308,0.03424,-2.791,1.099,7.0,-0.3662,-0.9307,0.0,0.0
1738833266322991847,-3.064,1.593,7.035,-0.4917,-0.915,0.000788,0.03622,0.03235,-0.054,-2.945,1.379,7.0,-0.4375,-0.926,-0.0,0.0367,0.03123,0.03415,-2.791,1.099,7.0,-0.3662,-0.9307,0.0,0.0
1738833266372986316,-3.09,1.545,7.035,-0.4685,-0.9233,0.000456,0.03702,0.03265,-0.05405,-2.98,1.326,7.0,-0.4062,-0.9336,-0.0,0.03784,0.03165,0.03418,-2.826,1.005,7.0,-0.335,-0.9424,0.0,0.0
1738833266422993898,-3.111,1.501,7.035,-0.4473,-0.9307,0.000408,0.03748,0.03284,-0.0541,-2.996,1.3,7.0,-0.3867,-0.9375,-0.0,0.03818,0.03183,0.03403,-2.826,1.005,7.0,-0.335,-0.9424,0.0,0.0
1738833266472973585,-3.133,1.456,7.035,-0.4263,-0.9385,0.000762,0.03787,0.033,-0.05414,-3.014,1.22,7.0,-0.3555,-0.9453,-0.0,0.0388,0.03207,0.03403,-2.86,0.91,7.0,-0.3035,-0.9526,0.0,0.0
1738833266522993326,-3.154,1.407,7.04,-0.4036,-0.947,0.00109,0.0393,0.0331,-0.0542,-3.014,1.193,7.0,-0.3398,-0.949,-0.0,0.03958,0.03214,0.03406,-2.86,0.91,7.0,-0.3035,-0.9526,0.0,0.0
1738833266573100566,-3.174,1.361,7.04,-0.383,-0.9556,0.001127,0.04062,0.03308,-0.05423,-3.049,1.141,7.0,-0.3125,-0.953,-0.0,0.04138,0.0322,0.034,-2.887,0.8145,7.0,-0.2715,-0.9624,0.0,0.0
1738833266623039484,-3.193,1.312,7.04,-0.3608,-0.965,0.001195,0.0417,0.03308,-0.05426,-3.049,1.114,7.0,-0.289,-0.961,-0.0,0.04242,0.03217,0.03403,-2.887,0.8145,7.0,-0.2715,-0.9624,0.0,0.0
1738833266673010587,-3.225,1.222,7.04,-0.3228,-0.983,0.000603,0.0428,0.03195,-0.05435,-3.066,1.034,7.0,-0.2617,-0.9688,-0.0,0.0432,0.03207,0.03403,-2.912,0.718,7.0,-0.2393,-0.971,0.0,0.0
1738833266723013877,-3.24,1.174,7.04,-0.3025,-0.993,0.000387,0.04306,0.0306,-0.05435,-3.066,1.008,7.0,-0.2461,-0.9766,-0.0,0.04355,0.03137,0.03403,-2.912,0.718,7.0,-0.2393,-0.971,0.0,0.0
1738833266772976398,-3.254,1.126,7.04,-0.286,-1.002,-5.6e-05,0.04324,0.02962,-0.0544,-3.084,0.9546,7.0,-0.2227,-0.9844,-0.0,0.04395,0.02957,0.034,-2.936,0.62,7.0,-0.2068,-0.9785,0.0,0.0
1738833266822988271,-3.256,1.118,7.04,-0.283,-1.003,-5.1e-05,0.04327,0.02948,-0.0544,-3.102,0.928,7.0,-0.2031,-0.9883,-0.0,0.044,0.02878,0.03406,-2.936,0.62,7.0,-0.2068,-0.9785,0.0,0.0
1738833266873008012,-3.271,1.058,7.04,-0.2612,-1.015,0.000138,0.04343,0.0286,-0.0544,-3.102,0.8486,7.0,-0.1758,-1.0,-0.0,0.04416,0.02792,0.03412,-2.955,0.522,7.0,-0.1741,-0.985,0.0,0.0
1738833266922999382,-3.281,1.018,7.04,-0.2472,-1.022,0.00014,0.0435,0.02725,-0.05447,-3.12,0.8223,7.0,-0.1641,-1.004,-0.0,0.04425,0.02696,0.03427,-2.955,0.522,7.0,-0.1741,-0.985,0.0,0.0
1738833266973066806,-3.305,0.914,7.04,-0.2153,-1.041,-0.000747,0.04355,0.02435,-0.05463,-3.12,0.769,7.0,-0.1445,-1.016,-0.0,0.04428,0.0248,0.0344,-2.97,0.4233,7.0,-0.1411,-0.99,0.0,0.0
1738833267023039579,-3.314,0.864,7.04,-0.2009,-1.05,-0.001483,0.0436,0.02351,-0.05472,-3.137,0.7427,7.0,-0.1289,-1.02,-0.0,0.04437,0.02385,0.0343,-2.97,0.4233,7.0,-0.1411,-0.99,0.0,0.0
1738833267073072195,-3.326,0.809,7.04,-0.1862,-1.059,-0.001631,0.04364,0.0219,-0.05475,-3.137,0.663,7.0,-0.10547,-1.031,-0.003906,0.04443,0.02257,0.0339,-2.982,0.3242,7.0,-0.10803,-0.994,0.0,0.0
1738833267123039722,-3.334,0.758,7.04,-0.1736,-1.067,-0.001779,0.04367,0.02034,-0.05478,-3.137,0.6367,7.0,-0.09766,-1.035,-0.003906,0.0444,0.0217,0.0338,-2.982,0.3242,7.0,-0.10803,-0.994,0.0,0.0
1738833267173042058,-3.342,0.702,7.035,-0.1606,-1.076,-0.001917,0.04367,0.01913,-0.0548,-3.154,0.5835,7.0,-0.0781,-1.043,-0.003906,0.04446,0.01955,0.0337,-2.992,0.2246,7.0,-0.0748,-0.997,0.0,0.0
1738833267223027229,-3.342,0.702,7.035,-0.1606,-1.076,-0.001917,0.04367,0.01913,-0.0548,-3.154,0.531,7.0,-0.0664,-1.051,-0.003906,0.04443,0.01851,0.03357,-2.992,0.2246,7.0,-0.0748,-0.997,0.0,0.0
1738833267272996664,-3.355,0.615,7.035,-0.142,-1.09,-0.002096,0.04306,0.01804,-0.05478,-3.154,0.4775,7.0,-0.05078,-1.059,-0.0,0.04434,0.01756,0.03354,-2.998,0.12476,7.0,-0.0416,-0.999,0.0,0.0
1738833267322991609,-3.363,0.5454,7.035,-0.1277,-1.1,-0.00221,0.04132,0.01755,-0.05472,-3.154,0.4246,7.0,-0.04297,-1.0625,-0.003906,0.04364,0.01723,0.03354,-2.998,0.12476,7.0,-0.0416,-0.999,0.0,0.0
1738833267373075723,-3.37,0.501,7.035,-0.1189,-1.105,-0.002028,0.04056,0.01741,-0.05472,-3.172,0.3716,7.0,-0.03125,-1.07,-0.003906,0.042,0.01683,0.0336,-3.0,0.02478,7.0,-0.00826,-1.0,0.0,0.0
1738833267423022508,-3.375,0.4436,7.035,-0.10767,-1.112,-0.001768,0.0398,0.01733,-0.0547,-3.172,0.3184,7.0,-0.02344,-1.078,-0.0,0.0412,0.01675,0.0336,-3.0,0.02478,7.0,-0.00826,-1.0,0.0,0.0
1738833267472997903,-3.375,0.4436,7.035,-0.10767,-1.112,-0.001768,0.0398,0.01733,-0.0547,-3.172,0.2654,7.0,-0.007812,-1.086,-0.0,0.04034,0.01659,0.03357,-3.0,-0.0752,7.0,0.02507,-0.9995,0.0,0.0
1738833267522995233,-3.385,0.318,7.035,-0.084,-1.125,-0.002098,0.03885,0.01723,-0.05466,-3.172,0.2389,7.0,0.0,-1.086,-0.0,0.04007,0.01651,0.03366,-3.0,-0.0752,7.0,0.02507,-0.9995,0.0,0.0
1738833267573015689,-3.389,0.2686,7.035,-0.07465,-1.13,-0.002481,0.03766,0.01805,-0.0547,-3.172,0.1593,7.0,0.007812,-1.094,-0.0,0.03955,0.01651,0.03375,-2.994,-0.1752,7.0,0.05838,-0.9985,0.0,0.0
1738833267623068094,-3.393,0.2052,7.035,-0.06207,-1.134,-0.002798,0.036,0.01941,-0.05466,-3.172,0.1328,7.0,0.01563,-1.098,-0.0,0.03845,0.01749,0.03375,-2.994,-0.1752,7.0,0.05838,-0.9985,0.0,0.0
1738833267673058509,-3.395,0.1552,7.035,-0.05057,-1.139,-0.00285,0.03412,0.02162,-0.05466,-3.172,0.05328,7.0,0.03125,-1.102,-0.003906,0.0365,0.01933,0.0336,-2.988,-0.275,7.0,0.0916,-0.9956,0.0,0.0
1738833267723039388,-3.396,0.0913,7.035,-0.03702,-1.142,-0.003464,0.03183,0.02388,-0.0546,-3.172,0.02678,7.0,0.03906,-1.105,-0.0,0.03522,0.02065,0.0335,-2.988,-0.275,7.0,0.0916,-0.9956,0.0,0.0
1738833267773026227,-3.396,0.0913,7.035,-0.03702,-1.142,-0.003464,0.03183,0.02388,-0.0546,-3.172,-0.05276,7.0,0.05078,-1.105,-0.003906,0.0326,0.02321,0.03336,-2.977,-0.3743,7.0,0.12476,-0.992,0.0,0.0
1738833267823044538,-3.398,-0.01842,7.035,-0.01022,-1.145,-0.004337,0.02954,0.02618,-0.0545,-3.172,-0.0793,7.0,0.0625,-1.105,-0.003906,0.0316,0.02426,0.0332,-2.977,-0.3743,7.0,0.12476,-0.992,0.0,0.0
1738833267873079299,-3.4,-0.05963,7.035,0.000245,-1.145,-0.004646,0.02835,0.02733,-0.0545,-3.172,-0.1588,7.0,0.08203,-1.105,-0.003906,0.03014,0.02574,0.03363,-2.963,-0.4731,7.0,0.1577,-0.9873,0.0,0.0
1738833267923050165,-3.398,-0.1375,7.035,0.0212,-1.145,-0.005463,0.02596,0.02985,-0.05447,-3.172,-0.2118,7.0,0.08984,-1.105,-0.003906,0.02895,0.0268,0.03372,-2.963,-0.4731,7.0,0.1577,-0.9873,0.0,0.0
1738833267973100662,-3.396,-0.1924,7.035,0.03687,-1.144,-0.006508,0.02481,0.03204,-0.0545,-3.172,-0.265,7.0,0.10547,-1.105,-0.003906,0.02675,0.02908,0.03397,-2.945,-0.572,7.0,0.1906,-0.9814,0.0,0.0
1738833268023048877,-3.396,-0.1924,7.035,0.03687,-1.144,-0.006508,0.02481,0.03204,-0.0545,-3.172,-0.2915,7.0,0.1172,-1.102,-0.003906,0.026,0.03073,0.034,-2.945,-0.572,7.0,0.1906,-0.9814,0.0,0.0
1738833268073024272,-3.393,-0.3066,7.035,0.07227,-1.141,-0.00821,0.02347,0.03574,-0.05453,-3.154,-0.3708,7.0,0.1406,-1.098,-0.003906,0.02484,0.0337,0.034,-2.924,-0.6694,7.0,0.2231,-0.9746,0.0,0.0
1738833268123009204,-3.39,-0.3203,7.035,0.07666,-1.141,-0.00838,0.02338,0.03574,-0.05453,-3.154,-0.424,7.0,0.1484,-1.098,-0.003906,0.0245,0.03455,0.03384,-2.924,-0.6694,7.0,0.2231,-0.9746,0.0,0.0
1738833268172995090,-3.383,-0.4114,7.03,0.1066,-1.138,-0.00977,0.022,0.03827,-0.05457,-3.154,-0.477,7.0,0.168,-1.094,-0.007812,0.02393,0.03604,0.03384,-2.9,-0.7666,7.0,0.2556,-0.967,0.0,0.0
1738833268223013639,-3.377,-0.475,7.03,0.1285,-1.135,-0.01237,0.02048,0.03973,-0.05453,-3.154,-0.5034,7.0,0.1836,-1.09,-0.007812,0.02307,0.03726,0.03366,-2.9,-0.7666,7.0,0.2556,-0.967,0.0,0.0
1738833268273068189,-3.37,-0.534,7.03,0.1495,-1.131,-0.01441,0.01932,0.04138,-0.0545,-3.137,-0.583,7.0,0.207,-1.086,-0.007812,0.02121,0.03937,0.03342,-2.873,-0.863,7.0,0.2876,-0.9575,0.0,0.0
1738833268323032617,-3.365,-0.579,7.03,0.1659,-1.13,-0.01599,0.01894,0.04184,-0.0545,-3.137,-0.636,7.0,0.2188,-1.082,-0.01172,0.02045,0.04016,0.03348,-2.873,-0.863,7.0,0.2876,-0.9575,0.0,0.0
1738833268373004198,-3.361,-0.593,7.03,0.1708,-1.127,-0.01645,0.0185,0.0423,-0.05447,-3.137,-0.689,7.004,0.2422,-1.074,-0.01172,0.01952,0.0413,0.03372,-2.844,-0.958,7.0,0.3193,-0.9478,0.0,0.0
1738833268423027753,-3.35,-0.66,7.03,0.1956,-1.122,-0.01852,0.0165,0.04297,-0.05447,-3.12,-0.716,7.004,0.254,-1.07,-0.01172,0.01833,0.04166,0.03387,-2.844,-0.958,7.0,0.3193,-0.9478,0.0,0.0
1738833268473096132,-3.332,-0.754,7.027,0.2303,-1.114,-0.02045,0.014305,0.04358,-0.05444,-3.102,-0.795,7.004,0.2812,-1.0625,-0.01563,0.0161,0.0422,0.03418,-2.809,-1.053,7.0,0.3508,-0.9365,0.0,0.0
1738833268523060798,-3.32,-0.8076,7.027,0.2502,-1.108,-0.02153,0.01351,0.0438,-0.0545,-3.102,-0.848,7.004,0.289,-1.059,-0.01563,0.015495,0.04248,0.03418,-2.809,-1.053,7.0,0.3508,-0.9365,0.0,0.0
1738833268573062896,-3.307,-0.869,7.027,0.2734,-1.102,-0.02226,0.01292,0.04495,-0.0546,-3.102,-0.9014,7.004,0.3125,-1.051,-0.01563,0.014465,0.04266,0.03433,-2.773,-1.1455,7.0,0.3818,-0.9243,0.0,0.0
1738833268623115539,-3.297,-0.9087,7.023,0.2886,-1.098,-0.0226,0.01268,0.0461,-0.05463,-3.084,-0.954,7.004,0.3281,-1.043,-0.01563,0.014046,0.0436,0.03433,-2.773,-1.1455,7.0,0.3818,-0.9243,0.0,0.0
1738833268673124551,-3.283,-0.957,7.023,0.3076,-1.093,-0.023,0.01247,0.0469,-0.0547,-3.066,-1.007,7.004,0.3516,-1.035,-0.01563,0.01365,0.04544,0.03452,-2.732,-1.237,7.0,0.4124,-0.911,0.0,0.0
1738833268723122596,-3.271,-1.001,7.023,0.3164,-1.085,-0.02345,0.0123,0.04785,-0.0548,-3.049,-1.034,7.004,0.3633,-1.027,-0.01563,0.01349,0.04614,0.03442,-2.732,-1.237,7.0,0.4124,-0.911,0.0,0.0
1738833268773094892,-3.242,-1.087,7.02,0.36,-1.077,-0.02472,0.010956,0.0499,-0.0549,-3.049,-1.113,7.004,0.3867,-1.02,-0.01563,0.013245,0.0471,0.03442,-2.69,-1.327,7.0,0.4426,-0.897,0.0,0.0
1738833268823111772,-3.225,-1.139,7.02,0.382,-1.071,-0.0251,0.00965,0.0516,-0.055,-3.031,-1.14,7.004,0.4023,-1.012,-0.01563,0.012146,0.0484,0.0344,-2.69,-1.327,7.0,0.4426,-0.897,0.0,0.0
1738833268873085260,-3.205,-1.194,7.02,0.4065,-1.063,-0.02505,0.00863,0.05292,-0.05505,-3.014,-1.22,7.004,0.4258,-1.004,-0.01563,0.01062,0.0505,0.0342,-2.645,-1.416,7.0,0.4722,-0.8813,0.0,0.0
1738833268923012971,-3.186,-1.245,7.02,0.4292,-1.057,-0.025,0.00789,0.05374,-0.05508,-2.996,-1.246,7.004,0.4375,-1.0,-0.01563,0.00994,0.0514,0.03412,-2.645,-1.416,7.0,0.4722,-0.8813,0.0,0.0
1738833268973066091,-3.162,-1.3,7.016,0.4539,-1.048,-0.02435,0.006237,0.05435,-0.0551,-2.98,-1.299,7.0,0.4648,-0.9883,-0.01563,0.00892,0.05243,0.0339,-2.596,-1.504,7.0,0.5015,-0.865,0.0,0.0
1738833269023087024,-3.15,-1.325,7.016,0.4558,-1.044,-0.02419,0.005398,0.05457,-0.05515,-2.963,-1.325,7.0,0.4766,-0.9805,-0.01563,0.007713,0.0528,0.03372,-2.596,-1.504,7.0,0.5015,-0.865,0.0,0.0
1738833269073025226,-3.113,-1.403,7.016,0.5015,-1.03,-0.02365,0.003485,0.05493,-0.0551,-2.928,-1.405,7.0,0.508,-0.9688,-0.01563,0.005554,0.05325,0.03348,-2.545,-1.59,7.0,0.53,-0.848,0.0,0.0
1738833269122993230,-3.09,-1.453,7.01,0.524,-1.021,-0.0229,0.002686,0.0551,-0.05508,-2.91,-1.432,7.0,0.5234,-0.961,-0.01563,0.004868,0.05344,0.03348,-2.545,-1.59,7.0,0.53,-0.848,0.0,0.0
1738833269172975540,-3.06,-1.506,7.01,0.5483,-1.011,-0.02235,0.002108,0.0552,-0.05502,-2.893,-1.511,7.0,0.547,-0.949,-0.01172,0.003828,0.05365,0.03326,-2.49,-1.674,7.0,0.5576,-0.83,0.0,0.0
1738833269222996950,-3.041,-1.542,7.01,0.565,-1.004,-0.02208,0.001818,0.05524,-0.05496,-2.875,-1.537,7.0,0.5664,-0.9414,-0.01172,0.003399,0.05374,0.03326,-2.49,-1.674,7.0,0.5576,-0.83,0.0,0.0
1738833269273075103,-3.014,-1.59,7.01,0.587,-0.9946,-0.02165,0.001581,0.0553,-0.0549,-2.822,-1.591,7.0,0.6016,-0.926,-0.01172,0.002962,0.05383,0.03308,-2.434,-1.756,7.0,0.585,-0.811,0.0,0.0
1738833269323090076,-2.992,-1.634,7.008,0.607,-0.9883,-0.02142,0.001455,0.05533,-0.05484,-2.805,-1.617,7.0,0.6133,-0.922,-0.01172,0.002878,0.05392,0.03305,-2.434,-1.756,7.0,0.585,-0.811,0.0,0.0
1738833269373057126,-2.96,-1.677,7.008,0.6265,-0.9775,-0.02155,0.001274,0.0553,-0.05475,-2.77,-1.696,7.0,0.6445,-0.9062,-0.01172,0.0027,0.05392,0.0329,-2.373,-1.836,7.0,0.612,-0.791,0.0,0.0
1738833269422997474,-2.908,-1.754,7.008,0.662,-0.962,-0.02126,0.001081,0.0551,-0.05453,-2.734,-1.723,7.0,0.664,-0.8984,-0.01172,0.0027,0.05392,0.0329,-2.373,-1.836,7.0,0.612,-0.791,0.0,0.0
1738833269472987651,-2.877,-1.801,7.004,0.6826,-0.9526,-0.02068,0.001016,0.0529,-0.05438,-2.682,-1.776,7.0,0.6914,-0.8867,-0.01172,0.00252,0.05374,0.0327,-2.31,-1.914,7.0,0.6377,-0.77,0.0,0.0
1738833269522994756,-2.84,-1.85,7.004,0.703,-0.9443,-0.0195,0.000948,0.05035,-0.05423,-2.664,-1.803,7.0,0.707,-0.879,-0.01172,0.002497,0.0522,0.0328,-2.31,-1.914,7.0,0.6377,-0.77,0.0,0.0
1738833269573019742,-2.807,-1.895,7.004,0.7207,-0.9336,-0.01857,0.000877,0.04834,-0.0541,-2.629,-1.882,7.0,0.7344,-0.867,-0.007812,0.002441,0.04874,0.03287,-2.246,-1.989,7.0,0.663,-0.7485,0.0,0.0
1738833269623000383,-2.78,-1.928,7.004,0.7295,-0.927,-0.01793,0.000824,0.04727,-0.054,-2.596,-1.909,7.0,0.75,-0.8594,-0.007812,0.002337,0.04727,0.03305,-2.246,-1.989,7.0,0.663,-0.7485,0.0,0.0
1738833269673041582,-2.732,-1.987,7.0,0.755,-0.9146,-0.01675,0.000749,0.04483,-0.05386,-2.543,-1.962,6.996,0.7734,-0.8477,-0.007812,0.002308,0.04538,0.0332,-2.178,-2.062,7.0,0.688,-0.726,0.0,0.0
1738833269722994327,-2.695,-2.031,7.0,0.769,-0.9053,-0.01604,0.000609,0.04294,-0.05377,-2.508,-1.988,6.996,0.7812,-0.8438,-0.007812,0.002377,0.04407,0.0334,-2.178,-2.062,7.0,0.688,-0.726,0.0,0.0
1738833269773013353,-2.693,-2.035,7.0,0.769,-0.904,-0.01595,0.000567,0.0428,-0.05377,-2.473,-2.041,6.996,0.801,-0.832,-0.003906,0.002167,0.0415,0.03363,-2.107,-2.135,7.0,0.7114,-0.7026,0.0,0.0
1738833269823064088,-2.617,-2.121,7.0,0.796,-0.8853,-0.01379,-0.001921,0.03824,-0.0537,-2.438,-2.068,6.996,0.8125,-0.824,-0.003906,0.001187,0.03952,0.03387,-2.107,-2.135,7.0,0.7114,-0.7026,0.0,0.0
1738833269873043775,-2.576,-2.166,7.0,0.8076,-0.874,-0.01296,-0.002974,0.0355,-0.05365,-2.367,-2.146,6.996,0.832,-0.8125,-0.003906,-0.0005045,0.03653,0.03384,-2.035,-2.203,7.0,0.7344,-0.6787,0.0,0.0
1738833269922999143,-2.537,-2.207,6.996,0.8174,-0.8633,-0.01209,-0.003757,0.03314,-0.05365,-2.35,-2.146,6.996,0.84,-0.8047,-0.003906,-0.00105,0.03497,0.03375,-2.035,-2.203,7.0,0.7344,-0.6787,0.0,0.0
1738833269973069667,-2.494,-2.252,6.996,0.8267,-0.851,-0.01124,-0.005474,0.03146,-0.05362,-2.297,-2.227,6.996,0.8516,-0.793,-0.0,-0.002226,0.0318,0.03372,-1.961,-2.27,7.0,0.757,-0.654,0.0,0.0
1738833270022997856,-2.455,-2.293,6.996,0.8345,-0.8394,-0.01032,-0.007126,0.0304,-0.05356,-2.262,-2.254,6.996,0.8594,-0.785,-0.0,-0.003542,0.03053,0.03378,-1.961,-2.27,7.0,0.757,-0.654,0.0,0.0
1738833270072985649,-2.432,-2.307,6.996,0.839,-0.832,-0.010155,-0.008316,0.02953,-0.05356,-2.21,-2.307,6.996,0.867,-0.7734,-0.0,-0.00581,0.02902,0.03394,-1.884,-2.334,7.0,0.7783,-0.628,0.0,0.0
1738833270122993946,-2.37,-2.375,6.996,0.8486,-0.8115,-0.00941,-0.01165,0.02678,-0.05356,-2.176,-2.332,6.996,0.875,-0.7656,-0.0,-0.00721,0.02802,0.034,-1.884,-2.334,7.0,0.7783,-0.628,0.0,0.0
1738833270173019886,-2.33,-2.414,6.996,0.854,-0.7974,-0.00884,-0.01316,0.02563,-0.05356,-2.123,-2.387,6.996,0.879,-0.75,-0.0,-0.01001,0.02563,0.03424,-1.806,-2.396,7.0,0.799,-0.6016,0.0,0.0
1738833270223028898,-2.33,-2.414,6.996,0.854,-0.7974,-0.00884,-0.01316,0.02563,-0.05356,-2.088,-2.412,6.996,0.8867,-0.7383,-0.0,-0.01123,0.02463,0.0344,-1.806,-2.396,7.0,0.799,-0.6016,0.0,0.0
1738833270273068428,-2.246,-2.488,6.996,0.864,-0.767,-0.007866,-0.01595,0.02429,-0.05368,-2.035,-2.465,6.996,0.8945,-0.7227,-0.0,-0.01271,0.0237,0.03455,-1.725,-2.455,7.0,0.8184,-0.5747,0.0,0.0
1738833270323007822,-2.215,-2.516,6.996,0.867,-0.755,-0.007694,-0.01735,0.024,-0.0537,-2.0,-2.492,6.996,0.8945,-0.711,-0.0,-0.01393,0.02338,0.03455,-1.725,-2.455,7.0,0.8184,-0.5747,0.0,0.0
1738833270372995138,-2.178,-2.549,6.992,0.87,-0.74,-0.007305,-0.01907,0.02382,-0.05374,-1.948,-2.518,6.996,0.8984,-0.6953,-0.0,-0.01627,0.02298,0.03418,-1.642,-2.512,7.0,0.837,-0.5474,0.0,0.0
1738833270423025131,-2.111,-2.605,6.992,0.878,-0.717,-0.0062,-0.02261,0.02362,-0.05377,-1.913,-2.572,6.996,0.9023,-0.6797,-0.0,-0.01817,0.02284,0.03397,-1.642,-2.512,7.0,0.837,-0.5474,0.0,0.0
1738833270473014593,-2.068,-2.639,6.992,0.8823,-0.694,-0.005802,-0.02411,0.02353,-0.05377,-1.86,-2.598,6.996,0.9062,-0.66,-0.0,-0.02095,0.02272,0.0337,-1.557,-2.564,7.0,0.855,-0.519,0.0,0.0
1738833270523013114,-2.023,-2.674,6.992,0.8867,-0.6733,-0.005543,-0.02525,0.02345,-0.0537,-1.825,-2.625,6.996,0.91,-0.6484,-0.0,-0.0219,0.02264,0.0336,-1.557,-2.564,7.0,0.855,-0.519,0.0,0.0
1738833270572985649,-1.977,-2.709,6.992,0.891,-0.653,-0.004814,-0.02599,0.02342,-0.05368,-1.772,-2.678,6.996,0.914,-0.625,-0.0,-0.0231,0.02266,0.03342,-1.471,-2.615,7.0,0.8716,-0.4902,0.0,0.0
1738833270623030185,-1.977,-2.709,6.992,0.891,-0.653,-0.004814,-0.02599,0.02342,-0.05368,-1.738,-2.705,6.996,0.914,-0.6133,-0.0,-0.02362,0.02267,0.03333,-1.471,-2.615,7.0,0.8716,-0.4902,0.0,0.0
1738833270673058986,-1.901,-2.762,6.992,0.8984,-0.6196,-0.003796,-0.02748,0.02411,-0.05353,-1.686,-2.73,6.996,0.922,-0.59,-0.0,-0.02449,0.02286,0.03314,-1.383,-2.662,7.0,0.887,-0.461,0.0,0.0
1738833270723083257,-1.844,-2.8,6.992,0.905,-0.5933,-0.0031,-0.02951,0.02588,-0.05338,-1.65,-2.758,6.996,0.922,-0.578,0.003906,-0.02534,0.02356,0.0331,-1.383,-2.662,7.0,0.887,-0.461,0.0,0.0
1738833270773049831,-1.796,-2.83,6.992,0.9106,-0.5713,-0.002586,-0.0307,0.02686,-0.0533,-1.598,-2.783,6.996,0.926,-0.5547,0.003906,-0.02737,0.02533,0.0335,-1.293,-2.707,7.0,0.9023,-0.4312,0.0,0.0
1738833270823024749,-1.756,-2.854,6.992,0.916,-0.5527,-0.002481,-0.03137,0.02739,-0.05328,-1.563,-2.81,6.996,0.9297,-0.539,0.003906,-0.02823,0.02603,0.0338,-1.293,-2.707,7.0,0.9023,-0.4312,0.0,0.0
1738833270873043537,-1.716,-2.879,6.992,0.92,-0.536,-0.0029,-0.03192,0.02777,-0.05328,-1.511,-2.863,6.996,0.9336,-0.5117,0.003906,-0.02925,0.02692,0.03406,-1.202,-2.748,7.0,0.916,-0.401,0.0,0.0
1738833270923000335,-1.664,-2.908,6.992,0.928,-0.5107,-0.002962,-0.03238,0.02808,-0.05325,-1.476,-2.863,6.996,0.9375,-0.496,0.003906,-0.02959,0.0271,0.03415,-1.202,-2.748,7.0,0.916,-0.401,0.0,0.0
1738833270973083496,-1.611,-2.938,6.992,0.9355,-0.487,-0.003082,-0.03262,0.02948,-0.0533,-1.423,-2.89,6.996,0.9414,-0.4688,0.003906,-0.03009,0.02745,0.0344,-1.11,-2.787,7.0,0.929,-0.37,0.0,0.0
1738833271023008584,-1.566,-2.959,6.992,0.9424,-0.4673,-0.00342,-0.03278,0.03087,-0.05338,-1.388,-2.916,6.996,0.9453,-0.4492,0.003906,-0.03033,0.02858,0.03436,-1.11,-2.787,7.0,0.929,-0.37,0.0,0.0
1738833271073071956,-1.521,-2.98,6.992,0.9497,-0.4473,-0.003635,-0.03387,0.03186,-0.05344,-1.336,-2.943,6.996,0.953,-0.4219,0.003906,-0.03047,0.03032,0.03442,-1.017,-2.822,7.0,0.941,-0.3389,0.0,0.0
1738833271123012781,-1.472,-3.004,6.992,0.958,-0.4253,-0.004333,-0.03522,0.03256,-0.05347,-1.301,-2.943,6.996,0.957,-0.4062,0.003906,-0.0315,0.03102,0.0344,-1.017,-2.822,7.0,0.941,-0.3389,0.0,0.0
1738833271173000335,-1.422,-3.025,6.992,0.967,-0.4033,-0.004944,-0.03506,0.03302,-0.05353,-1.248,-2.969,6.996,0.965,-0.379,-0.0,-0.03305,0.03192,0.03436,-0.922,-2.855,7.0,0.9517,-0.3074,0.0,0.0
1738833271223041534,-1.375,-3.045,6.992,0.9746,-0.3835,-0.00512,-0.03445,0.03336,-0.0536,-1.213,-2.996,6.996,0.9688,-0.3594,-0.0,-0.03287,0.03226,0.03436,-0.922,-2.855,7.0,0.9517,-0.3074,0.0,0.0
1738833271273036479,-1.352,-3.053,6.99,0.9805,-0.369,-0.00497,-0.03406,0.03354,-0.05362,-1.144,-2.996,6.996,0.9766,-0.3281,-0.0,-0.03207,0.03268,0.03418,-0.826,-2.885,7.0,0.9614,-0.2754,0.0,0.0
1738833271323035478,-1.305,-3.076,6.99,0.988,-0.3545,-0.004414,-0.0337,0.03372,-0.05365,-1.108,-3.021,6.996,0.9805,-0.3125,-0.0,-0.03174,0.03284,0.03418,-0.826,-2.885,7.0,0.9614,-0.2754,0.0,0.0
1738833271373036384,-1.229,-3.098,6.99,0.9966,-0.3254,-0.003626,-0.03265,0.0348,-0.0537,-1.056,-3.021,6.996,0.9883,-0.2852,-0.0,-0.0312,0.03317,0.03418,-0.73,-2.91,7.0,0.9697,-0.2433,0.0,0.0
1738833271422996282,-1.177,-3.113,6.99,1.009,-0.3066,-0.003452,-0.03049,0.0363,-0.05374,-1.0205,-3.021,6.996,0.996,-0.2695,0.003906,-0.03008,0.0341,0.03403,-0.73,-2.91,7.0,0.9697,-0.2433,0.0,0.0
1738833271473062992,-1.128,-3.127,6.99,1.018,-0.29,-0.003513,-0.02943,0.03613,-0.05377,-0.951,-3.049,6.996,1.004,-0.2461,0.003906,-0.02832,0.0356,0.03387,-0.6323,-2.932,7.0,0.9775,-0.2108,0.0,0.0
1738833271523001670,-1.075,-3.143,6.99,1.026,-0.273,-0.003078,-0.02856,0.0354,-0.05374,-0.916,-3.049,6.996,1.012,-0.2305,0.003906,-0.02756,0.03534,0.03387,-0.6323,-2.932,7.0,0.9775,-0.2108,0.0,0.0
1738833271573071956,-1.021,-3.156,6.99,1.035,-0.2566,-0.002588,-0.02687,0.03488,-0.05374,-0.864,-3.076,6.996,1.02,-0.207,0.003906,-0.02644,0.03455,0.03372,-0.534,-2.951,7.0,0.984,-0.1781,0.0,0.0
1738833271623073101,-0.971,-3.168,6.99,1.043,-0.2426,-0.002506,-0.0253,0.0345,-0.0537,-0.8286,-3.076,6.996,1.027,-0.1953,0.003906,-0.02507,0.03418,0.0337,-0.534,-2.951,7.0,0.984,-0.1781,0.0,0.0
1738833271673008441,-0.9214,-3.18,6.99,1.051,-0.2292,-0.002748,-0.02415,0.03412,-0.05368,-0.759,-3.076,6.996,1.035,-0.1719,0.003906,-0.02301,0.03363,0.03363,-0.4355,-2.969,7.0,0.9893,-0.1453,0.0,0.0
1738833271723099231,-0.866,-3.191,6.99,1.058,-0.2155,-0.003002,-0.02328,0.0339,-0.05365,-0.7236,-3.076,6.996,1.039,-0.1641,0.003906,-0.02232,0.03345,0.03363,-0.4355,-2.969,7.0,0.9893,-0.1453,0.0,0.0
1738833271773035764,-0.8623,-3.193,6.99,1.06,-0.2084,-0.003002,-0.02315,0.03384,-0.05362,-0.6714,-3.102,6.996,1.047,-0.1445,0.003906,-0.02129,0.03308,0.03366,-0.3364,-2.98,7.0,0.9937,-0.1122,0.0,0.0
1738833271823007583,-0.76,-3.21,6.99,1.072,-0.1904,-0.002708,-0.02242,0.03375,-0.0536,-0.6187,-3.102,6.996,1.051,-0.1328,0.003906,-0.02086,0.033,0.03366,-0.3364,-2.98,7.0,0.9937,-0.1122,0.0,0.0
1738833271873036146,-0.704,-3.22,6.99,1.079,-0.1777,-0.00239,-0.02219,0.0326,-0.05353,-0.5664,-3.102,6.996,1.059,-0.1172,0.003906,-0.02043,0.0329,0.0337,-0.2369,-2.99,7.0,0.997,-0.079,0.0,0.0
1738833271923064470,-0.652,-3.229,6.99,1.085,-0.1663,-0.00212,-0.02208,0.03128,-0.05353,-0.5312,-3.102,6.996,1.0625,-0.1094,0.003906,-0.02036,0.0321,0.0337,-0.2369,-2.99,7.0,0.997,-0.079,0.0,0.0
1738833271973101139,-0.5996,-3.236,6.99,1.09,-0.155,-0.00224,-0.02202,0.0303,-0.05347,-0.4614,-3.129,6.996,1.066,-0.09375,0.003906,-0.0202,0.0304,0.03387,-0.1371,-2.996,7.0,0.999,-0.04572,0.0,0.0
1738833272023060798,-0.543,-3.244,6.99,1.095,-0.1428,-0.00227,-0.02196,0.02959,-0.05347,-0.4263,-3.129,6.996,1.07,-0.08203,0.003906,-0.02014,0.02962,0.0339,-0.1371,-2.996,7.0,0.999,-0.04572,0.0,0.0
1738833272073028802,-0.4902,-3.25,6.99,1.1,-0.1318,-0.001909,-0.02194,0.02919,-0.05347,-0.3564,-3.129,6.996,1.074,-0.0664,0.003906,-0.02007,0.02866,0.0341,-0.03717,-3.0,7.0,1.0,-0.01239,0.0,0.0
1738833272123019695,-0.4329,-3.258,6.99,1.104,-0.11993,-0.001364,-0.02199,0.02899,-0.0535,-0.3215,-3.129,6.996,1.078,-0.0586,0.003906,-0.02007,0.02849,0.03415,-0.03717,-3.0,7.0,1.0,-0.01239,0.0,0.0
1738833272172990322,-0.3977,-3.262,6.99,1.106,-0.1126,-0.001099,-0.02254,0.02887,-0.05353,-0.2515,-3.129,6.996,1.082,-0.04297,0.003906,-0.02016,0.02823,0.03424,0.0628,-3.0,7.0,1.0,0.02095,0.0,0.0
1738833272222987413,-0.3667,-3.266,6.99,1.109,-0.1032,-0.000872,-0.02335,0.02873,-0.05356,-0.2166,-3.129,6.996,1.086,-0.03516,0.003906,-0.0211,0.02817,0.03433,0.0628,-3.0,7.0,1.0,0.02095,0.0,0.0
1738833272272970914,-0.291,-3.271,6.99,1.114,-0.0895,-0.000972,-0.02493,0.0281,-0.05362,-0.1466,-3.129,6.996,1.086,-0.01953,0.003906,-0.02275,0.02776,0.0345,0.1627,-2.996,7.0,0.9985,0.05426,0.0,0.0
1738833272322978019,-0.224,-3.275,6.99,1.118,-0.07434,-0.000292,-0.02588,0.02637,-0.0537,-0.1116,-3.129,6.996,1.09,-0.01172,0.003906,-0.02336,0.027,0.03458,0.1627,-2.996,7.0,0.9985,0.05426,0.0,0.0
1738833272372996807,-0.206,-3.277,6.99,1.119,-0.0712,-0.000184,-0.02615,0.0261,-0.05377,-0.0591,-3.154,6.996,1.09,0.0,0.003906,-0.02417,0.02519,0.03467,0.2625,-2.988,7.0,0.996,0.0875,0.0,0.0
1738833272423041105,-0.1523,-3.28,6.99,1.122,-0.05783,-0.000195,-0.02652,0.02509,-0.05383,-0.006645,-3.154,6.996,1.094,0.007812,0.003906,-0.02452,0.02452,0.03476,0.2625,-2.988,7.0,0.996,0.0875,0.0,0.0
1738833272472992658,-0.04446,-3.285,6.99,1.125,-0.0327,-0.000881,-0.02806,0.02388,-0.05405,0.0633,-3.154,6.996,1.094,0.02344,0.003906,-0.02498,0.02357,0.03458,0.362,-2.979,7.0,0.9927,0.12067,0.0,0.0
1738833272523010253,-0.00392,-3.285,6.99,1.126,-0.02289,-0.000715,-0.02914,0.02374,-0.05408,0.09827,-3.154,6.996,1.094,0.03516,0.003906,-0.02594,0.02333,0.03433,0.362,-2.979,7.0,0.9927,0.12067,0.0,0.0
1738833272573004245,0.06824,-3.287,6.99,1.128,-0.00456,-0.001485,-0.03165,0.02351,-0.05414,0.1508,-3.154,6.996,1.094,0.05078,0.003906,-0.02785,0.02301,0.03397,0.461,-2.965,7.0,0.9883,0.1537,0.0,0.0
1738833272623063087,0.127,-3.285,6.99,1.13,0.01137,-0.002922,-0.03387,0.0233,-0.05414,0.2032,-3.154,6.996,1.094,0.0586,0.003906,-0.02957,0.02286,0.0337,0.461,-2.965,7.0,0.9883,0.1537,0.0,0.0
1738833272673000812,0.1857,-3.285,6.99,1.131,0.0283,-0.00508,-0.0365,0.02202,-0.0541,0.2732,-3.129,6.996,1.094,0.0781,-0.0,-0.03217,0.02255,0.03348,0.5596,-2.947,7.0,0.9824,0.1865,0.0,0.0
1738833272723041057,0.24,-3.283,6.99,1.132,0.04495,-0.007343,-0.03873,0.02065,-0.05402,0.308,-3.129,7.0,1.094,0.08984,-0.0,-0.034,0.02164,0.0334,0.5596,-2.947,7.0,0.9824,0.1865,0.0,0.0
1738833272773000955,0.2988,-3.281,6.984,1.132,0.0638,-0.00926,-0.04037,0.01971,-0.054,0.3606,-3.129,7.0,1.09,0.1094,-0.0,-0.03696,0.01979,0.0334,0.657,-2.928,7.0,0.9756,0.2191,0.0,0.0
1738833272822989940,0.3486,-3.277,6.984,1.131,0.0816,-0.010376,-0.04135,0.0193,-0.05392,0.413,-3.129,7.0,1.09,0.1211,-0.0,-0.03818,0.01912,0.0334,0.657,-2.928,7.0,0.9756,0.2191,0.0,0.0
1738833272873036146,0.4119,-3.271,6.984,1.131,0.1012,-0.01197,-0.0421,0.01765,-0.05383,0.483,-3.129,7.0,1.086,0.1445,-0.0,-0.0395,0.01836,0.03333,0.755,-2.904,7.0,0.968,0.2515,0.0,0.0
1738833272923037528,0.4663,-3.268,6.984,1.129,0.11945,-0.012726,-0.0426,0.01619,-0.05377,0.518,-3.129,7.0,1.086,0.1562,-0.003906,-0.03995,0.01743,0.03333,0.755,-2.904,7.0,0.968,0.2515,0.0,0.0
1738833272973041772,0.525,-3.26,6.984,1.127,0.1394,-0.01352,-0.04404,0.015076,-0.0537,0.5703,-3.129,7.0,1.082,0.1797,-0.003906,-0.04068,0.01536,0.03345,0.851,-2.877,7.0,0.959,0.2837,0.0,0.0
1738833273023054838,0.579,-3.254,6.984,1.124,0.1584,-0.01384,-0.04547,0.01435,-0.05365,0.623,-3.102,7.0,1.078,0.1914,-0.003906,-0.04172,0.01451,0.03345,0.851,-2.877,7.0,0.959,0.2837,0.0,0.0
1738833273073038816,0.637,-3.244,6.984,1.121,0.1794,-0.01418,-0.0466,0.0127,-0.05362,0.693,-3.102,7.0,1.074,0.2148,-0.003906,-0.04346,0.01351,0.03372,0.9463,-2.848,7.0,0.9487,0.3154,0.0,0.0
1738833273122989892,0.691,-3.234,6.98,1.118,0.1991,-0.013695,-0.0474,0.01114,-0.05356,0.728,-3.102,7.0,1.07,0.2266,-0.003906,-0.04425,0.012405,0.03375,0.9463,-2.848,7.0,0.9487,0.3154,0.0,0.0
1738833273172994852,0.749,-3.225,6.98,1.113,0.2207,-0.01352,-0.04895,0.00996,-0.0536,0.7803,-3.076,7.0,1.0625,0.25,-0.003906,-0.04532,0.01035,0.03397,1.041,-2.814,7.0,0.938,0.347,0.0,0.0
1738833273223024368,0.8022,-3.213,6.98,1.11,0.2413,-0.01328,-0.0507,0.00918,-0.0536,0.833,-3.076,7.0,1.059,0.2656,-0.003906,-0.04663,0.00943,0.03415,1.041,-2.814,7.0,0.938,0.347,0.0,0.0
1738833273273056268,0.8555,-3.201,6.98,1.1045,0.2625,-0.01282,-0.05185,0.00868,-0.05362,0.903,-3.049,7.0,1.051,0.289,-0.003906,-0.04874,0.00844,0.03442,1.134,-2.777,7.0,0.926,0.378,0.0,0.0
1738833273323031902,0.9126,-3.188,6.98,1.1,0.2854,-0.0128,-0.05273,0.00833,-0.0537,0.9375,-3.049,7.0,1.047,0.3008,-0.003906,-0.0494,0.00811,0.0346,1.134,-2.777,7.0,0.926,0.378,0.0,0.0
1738833273373054981,0.961,-3.174,6.98,1.095,0.305,-0.01283,-0.05322,0.008064,-0.05374,0.99,-3.049,7.0,1.039,0.3281,-0.003906,-0.05057,0.007687,0.03418,1.226,-2.738,7.0,0.9126,0.4087,0.0,0.0
1738833273422989845,1.009,-3.16,6.977,1.091,0.3247,-0.012375,-0.0536,0.00797,-0.0538,1.043,-3.021,7.0,1.031,0.3438,-0.003906,-0.0509,0.007515,0.034,1.226,-2.738,7.0,0.9126,0.4087,0.0,0.0
1738833273473037481,1.062,-3.143,6.977,1.084,0.346,-0.01212,-0.05386,0.00685,-0.05377,1.095,-3.021,7.0,1.023,0.3672,-0.0,-0.05133,0.007256,0.03366,1.316,-2.695,7.0,0.8984,0.4387,0.0,0.0
