time,x_sphinx,y_sphinx,z_sphinx,vx_sphinx,vy_sphinx,vz_sphinx,roll_sphinx,pitch_sphinx,yaw_sphinx,x_anafi,y_anafi,z_anafi,vx_anafi,vy_anafi,vz_anafi,roll_anafi,pitch_anafi,yaw_anafi,wp_x,wp_y,wp_z,wp_vx,wp_vy,wp_vz,wp_yaw
1738776258867706537,1.844,-2.463,6.98,1.6875,1.37,-0.008095,-0.139,-0.05124,-0.0969,1.864,-2.334,7.0,1.59,1.422,-0.0,-0.1389,-0.04846,-0.00979,3.0,-0.04956,7.0,0.03305,2.0,0.0,0.0
1738776258917701721,1.924,-2.396,6.98,1.651,1.421,-0.007275,-0.1384,-0.05453,-0.0969,1.917,-2.307,7.0,1.57,1.449,-0.0,-0.1385,-0.05054,-0.009995,3.0,0.0,7.0,-0.0,2.0,0.0,0.0
1738776258967790603,2.008,-2.32,6.98,1.611,1.474,-0.006138,-0.1345,-0.0604,-0.09686,2.021,-2.201,7.0,1.52,1.52,-0.0,-0.1372,-0.05563,-0.01011,3.0,0.0,7.0,-0.0,2.0,0.0,0.0
1738776259017726182,2.084,-2.248,6.98,1.571,1.5205,-0.004795,-0.1305,-0.066,-0.09686,2.074,-2.148,7.0,1.492,1.555,-0.0,-0.1344,-0.05984,-0.009995,2.994,0.1998,7.0,-0.1332,1.995,0.0,0.0
1738776259067702293,2.166,-2.168,6.98,1.525,1.568,-0.004128,-0.125,-0.0759,-0.09686,2.18,-2.041,7.0,1.434,1.621,-0.0,-0.1282,-0.0687,-0.010124,2.994,0.1998,7.0,-0.1332,1.995,0.0,0.0
1738776259117701768,2.238,-2.092,6.98,1.478,1.61,-0.00276,-0.1203,-0.085,-0.09674,2.215,-1.988,7.0,1.41,1.641,-0.0,-0.1254,-0.0741,-0.01015,2.973,0.399,7.0,-0.2659,1.982,0.0,0.0
1738776259167698621,2.312,-2.008,6.98,1.422,1.652,-0.001722,-0.1132,-0.094,-0.09674,2.318,-1.883,7.0,1.344,1.695,0.003906,-0.1181,-0.08704,-0.010086,2.973,0.399,7.0,-0.2659,1.982,0.0,0.0
1738776259217734336,2.379,-1.927,6.98,1.367,1.6875,-0.00052,-0.1071,-0.10077,-0.0967,2.371,-1.829,7.0,1.309,1.723,0.003906,-0.11316,-0.09314,-0.01004,2.94,0.596,7.0,-0.3972,1.96,0.0,0.0
1738776259267714262,2.459,-1.824,6.98,1.297,1.727,0.000235,-0.09644,-0.1048,-0.09656,2.459,-1.696,7.0,1.227,1.77,0.003906,-0.1036,-0.10187,-0.01012,2.94,0.596,7.0,-0.3972,1.96,0.0,0.0
1738776259317721366,2.506,-1.762,6.98,1.253,1.747,0.000586,-0.09064,-0.10614,-0.09656,2.494,-1.644,7.0,1.1875,1.785,0.003906,-0.09796,-0.10364,-0.01015,2.895,0.7905,7.0,-0.527,1.93,0.0,0.0
1738776259367711305,2.568,-1.67,6.98,1.19,1.772,0.001315,-0.08246,-0.1084,-0.0965,2.564,-1.538,7.0,1.113,1.816,0.003906,-0.0875,-0.1061,-0.01006,2.895,0.7905,7.0,-0.527,1.93,0.0,0.0
1738776259417709112,2.629,-1.577,6.98,1.127,1.793,0.001476,-0.0758,-0.11053,-0.0965,2.617,-1.484,7.0,1.07,1.832,0.003906,-0.082,-0.1076,-0.00995,2.834,0.9814,7.0,-0.6543,1.89,0.0,0.0
1738776259467710018,2.686,-1.483,6.98,1.0625,1.812,0.001405,-0.07135,-0.1143,-0.09644,2.686,-1.353,7.0,0.9805,1.852,0.003906,-0.0737,-0.1109,-0.009834,2.834,0.9814,7.0,-0.6543,1.89,0.0,0.0
1738776259517719984,2.736,-1.396,6.98,1.001,1.827,0.001485,-0.0686,-0.11774,-0.0964,2.703,-1.299,7.0,0.949,1.859,0.003906,-0.0717,-0.11285,-0.00987,2.764,1.168,7.0,-0.779,1.842,0.0,0.0
1738776259567712545,2.785,-1.301,6.98,0.9346,1.842,0.00103,-0.0656,-0.12024,-0.0963,2.773,-1.193,7.0,0.8633,1.871,0.007812,-0.0676,-0.1176,-0.01012,2.764,1.168,7.0,-0.779,1.842,0.0,0.0
1738776259617721319,2.83,-1.212,6.98,0.8726,1.854,0.000761,-0.06335,-0.122,-0.0963,2.809,-1.113,7.0,0.8203,1.879,0.003906,-0.0657,-0.11926,-0.01009,2.68,1.35,7.0,-0.9,1.786,0.0,0.0
1738776259667734384,2.873,-1.115,6.98,0.805,1.866,0.000443,-0.06174,-0.1244,-0.09625,2.861,-0.981,7.0,0.7305,1.891,0.003906,-0.0626,-0.1219,-0.01011,2.68,1.35,7.0,-0.9,1.786,0.0,0.0
1738776259717858552,2.91,-1.025,6.98,0.742,1.877,5e-06,-0.0606,-0.1263,-0.0962,2.879,-0.9277,7.0,0.6914,1.895,0.003906,-0.06174,-0.1233,-0.01003,2.584,1.525,7.0,-1.017,1.723,0.0,0.0
1738776259767859935,2.943,-0.9355,6.98,0.679,1.887,-0.000461,-0.05878,-0.1289,-0.0962,2.932,-0.822,7.0,0.6133,1.902,0.003906,-0.06012,-0.126,-0.009796,2.584,1.525,7.0,-1.017,1.723,0.0,0.0
1738776259817847967,2.977,-0.837,6.98,0.6104,1.896,-0.000769,-0.0569,-0.1313,-0.0961,2.95,-0.742,7.0,0.5625,1.906,0.003906,-0.05853,-0.1282,-0.01,2.477,1.694,7.0,-1.129,1.65,0.0,0.0
1738776259867748022,3.008,-0.7383,6.98,0.5405,1.905,-0.001064,-0.05435,-0.1343,-0.09607,2.984,-0.61,7.0,0.4727,1.914,0.003906,-0.0561,-0.1313,-0.010155,2.477,1.694,7.0,-1.129,1.65,0.0,0.0
1738776259917790174,3.031,-0.6465,6.98,0.4756,1.913,-0.00133,-0.0524,-0.1366,-0.096,3.002,-0.5566,7.0,0.4336,1.918,0.003906,-0.0545,-0.133,-0.0103,2.357,1.855,7.0,-1.236,1.571,0.0,0.0
1738776259967843055,3.053,-0.5547,6.98,0.4097,1.919,-0.001399,-0.051,-0.1405,-0.09595,3.02,-0.424,7.0,0.3477,1.918,0.003906,-0.052,-0.1366,-0.01021,2.357,1.855,7.0,-1.236,1.571,0.0,0.0
1738776260017816305,3.072,-0.4546,6.98,0.337,1.926,-0.001295,-0.04996,-0.1442,-0.0958,3.035,-0.3445,7.0,0.289,1.922,0.003906,-0.05096,-0.14,-0.0101,2.229,2.008,7.0,-1.339,1.486,0.0,0.0
1738776260067816495,3.088,-0.3542,6.98,0.2637,1.932,-0.001387,-0.0493,-0.1454,-0.09576,3.035,-0.318,7.0,0.254,1.922,0.003906,-0.05045,-0.1418,-0.01,2.229,2.008,7.0,-1.339,1.486,0.0,0.0
1738776260117798805,3.1,-0.2615,6.98,0.1964,1.937,-0.001167,-0.04877,-0.1458,-0.09576,3.053,-0.1589,7.0,0.1562,1.922,0.003906,-0.04947,-0.1443,-0.0101,2.09,2.152,7.0,-1.435,1.394,0.0,0.0
1738776260167780160,3.107,-0.1606,6.98,0.124,1.941,8.1e-05,-0.0472,-0.1458,-0.09564,3.053,-0.0529,7.0,0.0664,1.922,0.003906,-0.04858,-0.1445,-0.01033,2.09,2.152,7.0,-1.435,1.394,0.0,0.0
1738776260217791557,3.111,-0.0673,6.98,0.05768,1.946,0.001841,-0.04556,-0.1459,-0.0956,3.053,0.0001372,6.996,0.01563,1.926,0.003906,-0.04745,-0.1447,-0.010414,1.942,2.287,7.0,-1.524,1.295,0.0,0.0
1738776260267790555,3.113,0.03394,6.98,-0.013916,1.948,0.004013,-0.0397,-0.1471,-0.09546,3.053,0.1592,6.996,-0.0781,1.922,0.007812,-0.04407,-0.145,-0.01056,1.942,2.287,7.0,-1.524,1.295,0.0,0.0
1738776260317787647,3.11,0.1274,6.98,-0.0803,1.948,0.005978,-0.03397,-0.1484,-0.09534,3.053,0.2123,6.996,-0.1172,1.922,0.007812,-0.04016,-0.1459,-0.01057,1.785,2.41,7.0,-1.607,1.19,0.0,0.0
1738776260367769241,3.105,0.221,6.98,-0.1466,1.945,0.00789,-0.02873,-0.1483,-0.0952,3.053,0.3184,6.996,-0.2031,1.914,0.01172,-0.03253,-0.1473,-0.01067,1.785,2.41,7.0,-1.607,1.19,0.0,0.0
1738776260417809486,3.096,0.322,6.98,-0.2174,1.939,0.00878,-0.02444,-0.148,-0.09503,3.053,0.3713,6.996,-0.25,1.906,0.01172,-0.02881,-0.1471,-0.01069,1.621,2.523,7.0,-1.683,1.081,0.0,0.0
1738776260467820882,3.08,0.438,6.98,-0.2983,1.931,0.00979,-0.02272,-0.1478,-0.09485,3.035,0.451,6.996,-0.289,1.898,0.01172,-0.02605,-0.1469,-0.010635,1.621,2.523,7.0,-1.683,1.081,0.0,0.0
1738776260517786264,3.066,0.515,6.98,-0.3516,1.925,0.010284,-0.02217,-0.1478,-0.0947,3.02,0.5835,6.996,-0.379,1.883,0.01172,-0.02318,-0.1466,-0.010765,1.449,2.627,7.0,-1.751,0.9663,0.0,0.0
1738776260567776441,3.049,0.6074,6.98,-0.4148,1.918,0.01041,-0.02075,-0.1489,-0.09454,3.002,0.6895,6.996,-0.457,1.867,0.01563,-0.02206,-0.1466,-0.01076,1.449,2.627,7.0,-1.751,0.9663,0.0,0.0
1738776260617749214,3.025,0.707,6.984,-0.4836,1.909,0.01094,-0.01912,-0.1503,-0.09436,2.984,0.7427,6.996,-0.504,1.859,0.01563,-0.02101,-0.1477,-0.010826,1.2705,2.717,7.0,-1.812,0.847,0.0,0.0
1738776260667778968,3.0,0.7983,6.984,-0.547,1.9,0.01119,-0.01585,-0.1511,-0.0942,2.95,0.875,6.996,-0.5938,1.844,0.01563,-0.01834,-0.1493,-0.01066,1.2705,2.717,7.0,-1.812,0.847,0.0,0.0
1738776260717768192,2.97,0.897,6.984,-0.6157,1.89,0.01149,-0.01243,-0.1517,-0.09406,2.932,0.928,6.996,-0.6367,1.836,0.01563,-0.01608,-0.1498,-0.01065,1.087,2.797,7.0,-1.864,0.7246,0.0,0.0
1738776260767764329,2.936,0.9946,6.984,-0.683,1.877,0.01163,-0.0088,-0.151,-0.0939,2.896,1.034,6.996,-0.7188,1.816,0.01563,-0.011765,-0.1503,-0.01045,1.087,2.797,7.0,-1.864,0.7246,0.0,0.0
1738776260817714214,2.902,1.085,6.984,-0.7446,1.863,0.0119,-0.005974,-0.15,-0.09375,2.861,1.113,6.996,-0.7695,1.805,0.01563,-0.00909,-0.1495,-0.0104,0.8984,2.863,7.0,-1.908,0.599,0.0,0.0
1738776260867763757,2.865,1.174,6.984,-0.805,1.849,0.01206,-0.002924,-0.1494,-0.0936,2.791,1.246,6.996,-0.8516,1.781,0.01563,-0.00521,-0.1484,-0.01026,0.8984,2.863,7.0,-1.908,0.599,0.0,0.0
1738776260917786598,2.82,1.27,6.99,-0.8696,1.832,0.012184,-3.7e-05,-0.1488,-0.0935,2.773,1.3,6.996,-0.8906,1.77,0.01563,-0.003216,-0.1481,-0.01032,0.7056,2.916,7.0,-1.944,0.4705,0.0,0.0
1738776260967775344,2.777,1.356,6.99,-0.928,1.815,0.0125,0.003998,-0.1475,-0.0934,2.72,1.405,6.996,-0.965,1.742,0.01563,0.000502,-0.1471,-0.01034,0.7056,2.916,7.0,-1.944,0.4705,0.0,0.0
1738776261017734050,2.729,1.451,6.99,-0.99,1.795,0.01262,0.00822,-0.1459,-0.09326,2.686,1.458,6.996,-1.008,1.727,0.01563,0.003704,-0.146,-0.0104,0.51,2.957,7.0,-1.971,0.3398,0.0,0.0
1738776261067744731,2.68,1.536,6.99,-1.046,1.773,0.012886,0.014244,-0.145,-0.0931,2.6,1.591,6.996,-1.09,1.695,0.01563,0.01002,-0.1442,-0.010506,0.51,2.957,7.0,-1.971,0.3398,0.0,0.0
1738776261117721557,2.623,1.628,6.99,-1.106,1.748,0.013435,0.02025,-0.1442,-0.09296,2.564,1.644,6.996,-1.125,1.68,0.01563,0.01399,-0.1436,-0.01044,0.3118,2.984,7.0,-1.989,0.2079,0.0,0.0
1738776261167730569,2.568,1.711,6.99,-1.16,1.722,0.01352,0.02632,-0.1426,-0.0928,2.512,1.724,6.996,-1.195,1.645,0.01563,0.02148,-0.1425,-0.009926,0.3118,2.984,7.0,-1.989,0.2079,0.0,0.0
1738776261217736959,2.506,1.8,6.992,-1.218,1.691,0.01328,0.03195,-0.1409,-0.0927,2.459,1.803,6.996,-1.234,1.625,0.01563,0.02596,-0.1412,-0.009796,0.11237,2.998,7.0,-1.999,0.0749,0.0,0.0
1738776261267747163,2.447,1.88,6.992,-1.27,1.66,0.013374,0.03772,-0.1376,-0.09265,2.371,1.909,6.996,-1.3125,1.578,0.01563,0.03363,-0.1385,-0.009514,0.11237,2.998,7.0,-1.999,0.0749,0.0,0.0
1738776261317756414,2.379,1.966,6.992,-1.322,1.624,0.012924,0.04355,-0.1342,-0.0926,2.336,1.962,6.996,-1.336,1.559,0.01563,0.03665,-0.1365,-0.009514,-0.0876,2.998,7.0,-1.999,-0.0584,0.0,0.0
1738776261367793083,2.314,2.043,6.992,-1.37,1.587,0.01255,0.05386,-0.132,-0.0925,2.25,2.068,6.996,-1.398,1.512,0.01563,0.04553,-0.1321,-0.0095,-0.0876,2.998,7.0,-1.999,-0.0584,0.0,0.0
1738776261417772769,2.242,2.125,6.992,-1.421,1.542,0.01277,0.0642,-0.1301,-0.0926,2.197,2.121,6.996,-1.434,1.484,0.01172,0.05365,-0.1306,-0.00957,-0.287,2.986,7.0,-1.991,-0.1914,0.0,0.0
1738776261467742919,2.174,2.197,6.992,-1.466,1.497,0.01319,0.0721,-0.1267,-0.09247,2.092,2.227,6.996,-1.5,1.422,0.01172,0.06683,-0.1277,-0.00981,-0.287,2.986,7.0,-1.991,-0.1914,0.0,0.0
1738776261517763376,2.096,2.273,6.996,-1.513,1.445,0.013275,0.0784,-0.1233,-0.0924,2.04,2.254,6.996,-1.523,1.395,0.01172,0.0708,-0.1257,-0.009735,-0.4854,2.96,7.0,-1.974,-0.3237,0.0,0.0
1738776261567759513,2.021,2.342,6.996,-1.554,1.3955,0.013626,0.08234,-0.12,-0.09235,1.952,2.36,6.996,-1.578,1.328,0.01172,0.0788,-0.12115,-0.009544,-0.4854,2.96,7.0,-1.974,-0.3237,0.0,0.0
1738776261617760181,1.94,2.412,6.996,-1.597,1.34,0.013504,0.0852,-0.117,-0.09235,1.882,2.412,6.996,-1.609,1.293,0.01172,0.08136,-0.1187,-0.009514,-0.6816,2.922,7.0,-1.947,-0.4543,0.0,0.0
1738776261667745590,1.862,2.477,6.996,-1.634,1.288,0.013565,0.088,-0.11414,-0.0923,1.777,2.492,6.996,-1.66,1.215,0.01172,0.0852,-0.1148,-0.009575,-0.6816,2.922,7.0,-1.947,-0.4543,0.0,0.0
1738776261717760324,1.776,2.541,6.996,-1.673,1.231,0.01382,0.0908,-0.11127,-0.0923,1.725,2.52,6.996,-1.684,1.18,0.01172,0.08704,-0.113,-0.00968,-0.8745,2.87,7.0,-1.913,-0.583,0.0,0.0
1738776261767761468,1.695,2.6,6.996,-1.706,1.178,0.013985,0.0958,-0.1073,-0.0922,1.619,2.598,6.996,-1.723,1.109,0.01172,0.09106,-0.10913,-0.00939,-0.8745,2.87,7.0,-1.913,-0.583,0.0,0.0
1738776261817756891,1.612,2.654,7.0,-1.738,1.122,0.01354,0.1007,-0.1037,-0.0922,1.55,2.625,6.996,-1.746,1.066,0.01172,0.0949,-0.1061,-0.009285,-1.063,2.805,7.0,-1.87,-0.7095,0.0,0.0
1738776261867750644,1.521,2.71,7.0,-1.77,1.06,0.01286,0.1056,-0.09985,-0.0922,1.427,2.705,6.996,-1.785,0.9883,0.01172,0.1014,-0.1013,-0.00947,-1.063,2.805,7.0,-1.87,-0.7095,0.0,0.0
1738776261917750597,1.429,2.764,7.0,-1.8,0.996,0.01215,0.10956,-0.0966,-0.0922,1.375,2.73,6.996,-1.801,0.953,0.01172,0.10406,-0.0991,-0.00949,-1.248,2.729,7.0,-1.818,-0.8325,0.0,0.0
1738776261967758893,1.334,2.814,7.0,-1.828,0.931,0.01191,0.11334,-0.0932,-0.0921,1.27,2.783,6.996,-1.832,0.867,0.01172,0.1094,-0.0948,-0.00944,-1.248,2.729,7.0,-1.818,-0.8325,0.0,0.0
1738776262017754554,1.238,2.861,7.0,-1.8545,0.865,0.01155,0.1165,-0.0902,-0.0921,1.2,2.838,6.996,-1.848,0.8203,0.01172,0.1119,-0.09247,-0.00934,-1.428,2.639,7.0,-1.759,-0.9517,0.0,0.0
1738776262067747354,1.156,2.898,7.0,-1.875,0.809,0.01124,0.1193,-0.0865,-0.0921,1.077,2.863,7.0,-1.875,0.7383,0.01172,0.11584,-0.08844,-0.009285,-1.428,2.639,7.0,-1.759,-0.9517,0.0,0.0
1738776262117763280,1.065,2.936,7.0,-1.8955,0.7466,0.01046,0.1221,-0.08276,-0.0921,1.008,2.89,7.0,-1.891,0.6914,0.01172,0.11804,-0.0853,-0.00938,-1.6,2.537,7.0,-1.691,-1.066,0.0,0.0
1738776262167754411,0.967,2.973,7.004,-1.916,0.6772,0.00975,0.1276,-0.0789,-0.0921,0.9023,2.943,7.0,-1.906,0.6133,0.007812,0.1224,-0.0805,-0.009346,-1.6,2.537,7.0,-1.691,-1.066,0.0,0.0
1738776262217739105,0.8745,3.004,7.004,-1.933,0.612,0.00917,0.1326,-0.0758,-0.09216,0.8325,2.969,7.0,-1.918,0.5664,0.007812,0.1263,-0.0778,-0.009254,-1.766,2.426,7.0,-1.617,-1.177,0.0,0.0
1738776262267745018,0.7734,3.033,7.004,-1.949,0.539,0.0088,0.1362,-0.07117,-0.09216,0.693,2.996,7.0,-1.934,0.4688,0.007812,0.1329,-0.07294,-0.00927,-1.766,2.426,7.0,-1.617,-1.177,0.0,0.0
1738776262317755937,0.672,3.059,7.004,-1.963,0.4656,0.00858,0.139,-0.06696,-0.0921,0.64,3.023,7.0,-1.941,0.4219,0.007812,0.135,-0.0702,-0.00925,-1.923,2.303,7.0,-1.535,-1.282,0.0,0.0
1738776262367753505,0.577,3.08,7.004,-1.975,0.397,0.008415,0.1417,-0.06323,-0.0921,0.518,3.049,7.0,-1.949,0.332,0.007812,0.1383,-0.06494,-0.009346,-1.923,2.303,7.0,-1.535,-1.282,0.0,0.0
1738776262417760610,0.4822,3.098,7.004,-1.983,0.328,0.00793,0.1439,-0.06015,-0.0921,0.448,3.049,7.0,-1.953,0.2812,0.007812,0.1403,-0.0622,-0.00922,-2.072,2.17,7.0,-1.446,-1.382,0.0,0.0
1738776262467739343,0.3787,3.111,7.004,-1.992,0.2527,0.007484,0.1456,-0.05682,-0.09216,0.308,3.076,7.0,-1.961,0.1797,0.007812,0.1432,-0.05786,-0.00917,-2.072,2.17,7.0,-1.446,-1.382,0.0,0.0
1738776262517718315,0.275,3.123,7.004,-1.999,0.1775,0.00688,0.1467,-0.05402,-0.0922,0.2556,3.076,7.0,-1.961,0.1367,0.007812,0.1442,-0.05585,-0.00923,-2.213,2.027,7.0,-1.351,-1.475,0.0,0.0
1738776262567728757,0.1788,3.13,7.004,-2.004,0.10815,0.00657,0.1486,-0.05112,-0.0922,0.133,3.076,7.0,-1.961,0.04688,0.007812,0.1458,-0.05237,-0.00936,-2.213,2.027,7.0,-1.351,-1.475,0.0,0.0
1738776262617736339,0.0825,3.133,7.008,-2.008,0.03876,0.005302,0.1503,-0.0486,-0.0922,0.0632,3.076,7.0,-1.961,0.0,0.003906,0.1472,-0.0502,-0.00951,-2.342,1.875,7.0,-1.25,-1.562,0.0,0.0
1738776262667741537,-0.02197,3.133,7.008,-2.012,-0.03635,0.003145,0.1515,-0.04462,-0.0923,-0.05927,3.076,7.0,-1.961,-0.09375,0.003906,0.1492,-0.04657,-0.00919,-2.342,1.875,7.0,-1.25,-1.562,0.0,0.0
1738776262717722415,-0.1185,3.13,7.008,-2.012,-0.1056,0.001438,0.1523,-0.0409,-0.0923,-0.1292,3.076,7.0,-1.957,-0.1367,0.003906,0.1498,-0.04407,-0.00919,-2.463,1.714,7.0,-1.143,-1.642,0.0,0.0
1738776262767751693,-0.2151,3.123,7.008,-2.01,-0.1748,0.000227,0.154,-0.03613,-0.09235,-0.2517,3.076,7.0,-1.949,-0.2344,-0.0,0.1514,-0.03842,-0.00924,-2.463,1.714,7.0,-1.143,-1.642,0.0,0.0
1738776262817751407,-0.3196,3.113,7.008,-2.006,-0.2502,-0.001094,0.1559,-0.03137,-0.0923,-0.3215,3.076,7.0,-1.945,-0.2812,-0.0,0.1527,-0.0347,-0.00941,-2.57,1.547,7.0,-1.031,-1.714,0.0,0.0
1738776262867770195,-0.4238,3.098,7.008,-2.0,-0.3257,-0.001825,0.1572,-0.02701,-0.09235,-0.4614,3.049,7.0,-1.93,-0.3828,-0.0,0.1549,-0.02864,-0.00915,-2.57,1.547,7.0,-1.031,-1.714,0.0,0.0
1738776262917768955,-0.5195,3.08,7.008,-1.994,-0.395,-0.00261,0.158,-0.02371,-0.0924,-0.514,3.023,7.0,-1.922,-0.4219,-0.0,0.1555,-0.02612,-0.00913,-2.668,1.372,7.0,-0.9146,-1.778,0.0,0.0
1738776262967775583,-0.623,3.057,7.008,-1.984,-0.4695,-0.003572,0.1573,-0.02028,-0.09247,-0.636,3.023,7.0,-1.906,-0.508,-0.0,0.1561,-0.02179,-0.00924,-2.668,1.372,7.0,-0.9146,-1.778,0.0,0.0
1738776263017770767,-0.7183,3.033,7.004,-1.975,-0.537,-0.004562,0.1566,-0.0176,-0.09247,-0.689,2.996,7.0,-1.895,-0.5547,-0.0,0.1555,-0.01944,-0.00948,-2.754,1.191,7.0,-0.794,-1.836,0.0,0.0
1738776263067784547,-0.8203,3.004,7.004,-1.963,-0.61,-0.00462,0.1572,-0.014435,-0.09247,-0.8286,2.943,7.0,-1.875,-0.6484,-0.0,0.1549,-0.0159,-0.009285,-2.754,1.191,7.0,-0.794,-1.836,0.0,0.0
1738776263117754697,-0.9146,2.973,7.004,-1.951,-0.6763,-0.004536,0.158,-0.01175,-0.09247,-0.8813,2.943,7.0,-1.863,-0.6914,-0.0,0.1554,-0.01391,-0.00931,-2.826,1.005,7.0,-0.67,-1.885,0.0,0.0
1738776263167732000,-1.008,2.94,7.004,-1.9375,-0.7427,-0.004246,0.1586,-0.00789,-0.0925,-1.004,2.89,7.0,-1.844,-0.785,-0.0,0.1565,-0.009834,-0.009254,-2.826,1.005,7.0,-0.67,-1.885,0.0,0.0
1738776263217737436,-1.108,2.898,7.004,-1.921,-0.814,-0.004025,0.159,-0.003798,-0.0925,-1.073,2.863,7.0,-1.832,-0.832,-0.0,0.1569,-0.006805,-0.00928,-2.887,0.8145,7.0,-0.543,-1.925,0.0,0.0
1738776263267729520,-1.207,2.854,7.004,-1.903,-0.885,-0.003508,0.1582,0.000141,-0.0925,-1.196,2.783,7.0,-1.805,-0.922,-0.0,0.1571,-0.001857,-0.009415,-2.887,0.8145,7.0,-0.543,-1.925,0.0,0.0
1738776263317711830,-1.306,2.807,7.004,-1.884,-0.9536,-0.003407,0.1572,0.003506,-0.0926,-1.248,2.758,7.0,-1.789,-0.961,-0.0,0.1565,0.0004706,-0.009315,-2.936,0.62,7.0,-0.4136,-1.957,0.0,0.0
1738776263367720365,-1.3955,2.758,7.004,-1.863,-1.017,-0.003447,0.1564,0.00774,-0.09265,-1.371,2.705,7.0,-1.758,-1.051,-0.0,0.1552,0.00522,-0.00921,-2.936,0.62,7.0,-0.4136,-1.957,0.0,0.0
1738776263417725324,-1.484,2.709,7.004,-1.842,-1.078,-0.003653,0.1559,0.01177,-0.09265,-1.423,2.678,7.0,-1.742,-1.094,-0.0,0.1547,0.00843,-0.0093,-2.97,0.4233,7.0,-0.2822,-1.98,0.0,0.0
1738776263467722654,-1.58,2.65,7.004,-1.816,-1.144,-0.003468,0.1543,0.01828,-0.0927,-1.563,2.572,7.0,-1.703,-1.184,-0.0,0.1536,0.01492,-0.009415,-2.97,0.4233,7.0,-0.2822,-1.98,0.0,0.0
1738776263517724752,-1.674,2.59,7.004,-1.788,-1.208,-0.00334,0.1526,0.02463,-0.0927,-1.615,2.545,7.0,-1.691,-1.223,-0.0,0.1525,0.01889,-0.00938,-2.992,0.2246,7.0,-0.1497,-1.994,0.0,0.0
1738776263567739725,-1.759,2.53,7.004,-1.759,-1.267,-0.002823,0.1504,0.03198,-0.0928,-1.721,2.467,7.0,-1.652,-1.297,-0.0,0.1503,0.02711,-0.009476,-2.992,0.2246,7.0,-0.1497,-1.994,0.0,0.0
1738776263617738008,-1.843,2.469,7.004,-1.727,-1.322,-0.00244,0.1483,0.03854,-0.0927,-1.773,2.412,7.0,-1.629,-1.34,-0.0,0.1487,0.03256,-0.009346,-3.0,0.02478,7.0,-0.01653,-2.0,0.0,0.0
1738776263667721271,-1.932,2.396,7.004,-1.689,-1.382,-0.001632,0.1444,0.04453,-0.0928,-1.8955,2.334,7.0,-1.582,-1.418,-0.0,0.1455,0.04102,-0.00939,-3.0,0.02478,7.0,-0.01653,-2.0,0.0,0.0
1738776263717714548,-2.012,2.33,7.004,-1.652,-1.435,-0.000999,0.1409,0.04898,-0.0928,-1.948,2.281,7.0,-1.555,-1.457,-0.0,0.1426,0.0449,-0.00943,-2.994,-0.1752,7.0,0.11676,-1.997,0.0,0.0
1738776263767769813,-2.096,2.254,7.004,-1.609,-1.488,-0.000631,0.137,0.05566,-0.09283,-2.053,2.174,7.0,-1.504,-1.52,-0.0,0.138,0.05127,-0.00935,-2.994,-0.1752,7.0,0.11676,-1.997,0.0,0.0
1738776263817718267,-2.172,2.182,7.004,-1.567,-1.536,-0.00071,0.1339,0.06143,-0.09283,-2.105,2.121,7.0,-1.473,-1.5625,-0.0,0.135,0.0566,-0.009415,-2.977,-0.3743,7.0,0.2495,-1.984,0.0,0.0
1738776263867817878,-2.252,2.1,7.004,-1.52,-1.586,2e-05,0.1294,0.0681,-0.0929,-2.158,2.068,7.0,-1.449,-1.586,-0.0,0.1335,0.05963,-0.009514,-2.977,-0.3743,7.0,0.2495,-1.984,0.0,0.0
1738776263917808055,-2.324,2.023,7.004,-1.473,-1.629,0.000362,0.1255,0.07367,-0.0929,-2.264,1.962,7.0,-1.387,-1.652,-0.0,0.1277,0.06836,-0.00939,-2.945,-0.572,7.0,0.381,-1.963,0.0,0.0
1738776263967830419,-2.4,1.937,7.004,-1.42,-1.674,0.000976,0.12134,0.0811,-0.09296,-2.35,1.856,7.0,-1.328,-1.707,-0.0,0.1226,0.0759,-0.009445,-2.945,-0.572,7.0,0.381,-1.963,0.0,0.0
1738776264017835378,-2.467,1.855,7.004,-1.367,-1.713,0.000933,0.11816,0.0874,-0.0929,-2.42,1.776,7.0,-1.285,-1.738,-0.0,0.11945,0.08185,-0.009384,-2.9,-0.7666,7.0,0.511,-1.934,0.0,0.0
1738776264067845821,-2.537,1.766,7.004,-1.309,-1.753,0.001209,0.1135,0.092,-0.09296,-2.455,1.724,7.0,-1.254,-1.762,-0.0,0.1175,0.0858,-0.009315,-2.9,-0.7666,7.0,0.511,-1.934,0.0,0.0
1738776264117842197,-2.598,1.681,7.004,-1.253,-1.787,0.001896,0.1097,0.09515,-0.09296,-2.543,1.617,7.0,-1.18,-1.809,-0.0,0.11206,0.0918,-0.00939,-2.844,-0.958,7.0,0.6387,-1.8955,0.0,0.0
1738776264167818784,-2.662,1.587,7.004,-1.191,-1.823,0.002483,0.10675,0.1009,-0.093,-2.613,1.512,7.0,-1.102,-1.848,-0.0,0.1072,0.09656,-0.00918,-2.844,-0.958,7.0,0.6387,-1.8955,0.0,0.0
1738776264217826604,-2.717,1.498,7.004,-1.133,-1.8545,0.002632,0.10474,0.106,-0.0931,-2.646,1.432,7.0,-1.059,-1.871,-0.0,0.10535,0.10077,-0.00922,-2.773,-1.1455,7.0,0.7637,-1.849,0.0,0.0
1738776264267727375,-2.773,1.401,7.004,-1.066,-1.887,0.003325,0.1011,0.1122,-0.09314,-2.682,1.379,7.0,-1.02,-1.887,-0.0,0.1041,0.10406,-0.009285,-2.773,-1.1455,7.0,0.7637,-1.849,0.0,0.0
1738776264317758560,-2.824,1.31,7.004,-1.003,-1.915,0.003609,0.0978,0.1173,-0.09314,-2.752,1.246,7.0,-0.9297,-1.926,0.003906,0.09973,0.11194,-0.00921,-2.69,-1.327,7.0,0.8853,-1.794,0.0,0.0
1738776264367837905,-2.873,1.209,7.004,-0.9326,-1.943,0.003742,0.0941,0.1233,-0.0932,-2.805,1.113,7.0,-0.8438,-1.953,0.003906,0.0954,0.11884,-0.0093,-2.69,-1.327,7.0,0.8853,-1.794,0.0,0.0
1738776264417766094,-2.918,1.115,7.004,-0.8657,-1.968,0.003164,0.0912,0.1279,-0.0932,-2.84,1.061,7.0,-0.789,-1.973,0.003906,0.0925,0.12354,-0.00934,-2.596,-1.504,7.0,1.003,-1.73,0.0,0.0
1738776264468048810,-2.957,1.0205,7.004,-0.7974,-1.99,0.002584,0.0871,0.1301,-0.0933,-2.857,1.008,7.0,-0.754,-1.98,0.003906,0.09094,0.1261,-0.00923,-2.596,-1.504,7.0,1.003,-1.73,0.0,0.0
1738776264518010377,-2.996,0.9165,7.004,-0.7236,-2.014,0.002329,0.0828,0.1312,-0.0934,-2.91,0.8486,7.0,-0.6523,-2.008,-0.0,0.08545,0.1295,-0.00909,-2.49,-1.674,7.0,1.115,-1.66,0.0,0.0
1738776264568117618,-3.03,0.8193,7.004,-0.655,-2.031,0.002045,0.07697,0.134,-0.09344,-2.963,0.7427,7.0,-0.5664,-2.023,0.003906,0.0796,0.1313,-0.00922,-2.49,-1.674,7.0,1.115,-1.66,0.0,0.0
1738776264617783784,-3.062,0.7134,7.004,-0.5796,-2.047,0.001237,0.0709,0.1371,-0.09344,-2.98,0.663,7.0,-0.5156,-2.031,-0.0,0.07495,0.1338,-0.00926,-2.373,-1.836,7.0,1.224,-1.582,0.0,0.0
1738776264668109416,-3.088,0.6147,7.004,-0.5093,-2.059,0.001237,0.06604,0.1392,-0.0935,-3.016,0.5303,7.0,-0.4102,-2.043,-0.0,0.06726,0.1375,-0.009476,-2.373,-1.836,7.0,1.224,-1.582,0.0,0.0
1738776264717764854,-3.111,0.5073,7.004,-0.433,-2.07,0.001363,0.06174,0.1409,-0.0935,-3.016,0.4773,7.0,-0.3672,-2.047,-0.0,0.06433,0.1387,-0.00947,-2.246,-1.989,7.0,1.326,-1.497,0.0,0.0
1738776264767757892,-3.13,0.4077,7.004,-0.3618,-2.078,0.001771,0.05695,0.144,-0.09357,-3.049,0.3447,7.0,-0.2734,-2.05,-0.0,0.0588,0.1412,-0.00917,-2.246,-1.989,7.0,1.326,-1.497,0.0,0.0
1738776264817739963,-3.148,0.2996,7.004,-0.2837,-2.084,0.001173,0.05243,0.1475,-0.0936,-3.049,0.2654,7.0,-0.2188,-2.055,-0.0,0.05518,0.1438,-0.009094,-2.107,-2.135,7.0,1.423,-1.405,0.0,0.0
1738776264867791175,-3.16,0.1993,7.004,-0.2109,-2.088,0.000574,0.04858,0.1484,-0.0937,-3.066,0.2123,7.0,-0.1758,-2.05,-0.0,0.05258,0.1459,-0.009056,-2.107,-2.135,7.0,1.423,-1.405,0.0,0.0
1738776264917768955,-3.168,0.09064,7.004,-0.1324,-2.092,0.000604,0.04504,0.1488,-0.09375,-3.066,0.07965,7.0,-0.0664,-2.05,-0.0,0.04703,0.1477,-0.00916,-1.961,-2.27,7.0,1.514,-1.308,0.0,0.0
1738776264967762708,-3.174,-0.01814,7.004,-0.0543,-2.092,0.000336,0.04037,0.1501,-0.0939,-3.066,-0.0529,7.0,0.02344,-2.043,-0.0,0.04233,0.1484,-0.00932,-1.961,-2.27,7.0,1.514,-1.308,0.0,0.0
1738776265017765998,-3.174,-0.1185,7.004,0.01782,-2.09,-0.00105,0.0366,0.1512,-0.0939,-3.066,-0.1324,7.0,0.08203,-2.04,-0.0,0.0386,0.1495,-0.0094,-1.806,-2.396,7.0,1.598,-1.203,0.0,0.0
1738776265067816257,-3.172,-0.2188,7.004,0.0894,-2.088,-0.003408,0.03394,0.1509,-0.09393,-3.066,-0.1854,7.0,0.1172,-2.035,-0.0,0.03653,0.1501,-0.00938,-1.806,-2.396,7.0,1.598,-1.203,0.0,0.0
1738776265117772579,-3.166,-0.3271,7.004,0.1656,-2.082,-0.006687,0.03186,0.1501,-0.09393,-3.066,-0.318,7.0,0.2227,-2.02,-0.0,0.03253,0.15,-0.00959,-1.642,-2.512,7.0,1.674,-1.095,0.0,0.0
1738776265167763233,-3.154,-0.4353,7.004,0.2411,-2.076,-0.00991,0.02818,0.1508,-0.09393,-3.049,-0.4507,7.004,0.3086,-2.008,-0.0,0.02966,0.1492,-0.00973,-1.642,-2.512,7.0,1.674,-1.095,0.0,0.0
1738776265217761754,-3.14,-0.5347,7.004,0.3105,-2.07,-0.013306,0.02492,0.1516,-0.0939,-3.049,-0.5034,7.004,0.3594,-2.0,-0.003906,0.02689,0.1499,-0.00976,-1.471,-2.615,7.0,1.743,-0.9805,0.0,0.0
1738776265267800331,-3.123,-0.642,7.004,0.385,-2.06,-0.01659,0.02016,0.15,-0.09393,-3.031,-0.583,7.004,0.3984,-1.992,-0.003906,0.02489,0.1505,-0.00973,-1.471,-2.615,7.0,1.743,-0.9805,0.0,0.0
1738776265317762136,-3.104,-0.7407,7.004,0.4524,-2.049,-0.01799,0.01616,0.1483,-0.0939,-3.016,-0.716,7.004,0.496,-1.973,-0.007812,0.01892,0.1488,-0.00984,-1.293,-2.707,7.0,1.805,-0.8623,0.0,0.0
1738776265367751359,-3.08,-0.839,7.0,0.519,-2.037,-0.01869,0.01226,0.1493,-0.0939,-2.98,-0.848,7.004,0.582,-1.949,-0.01172,0.013565,0.1473,-0.009735,-1.293,-2.707,7.0,1.805,-0.8623,0.0,0.0
1738776265417757987,-3.05,-0.9443,7.0,0.592,-2.023,-0.01929,0.00887,0.1509,-0.0938,-2.963,-0.9014,7.004,0.633,-1.9375,-0.01172,0.01079,0.1486,-0.00976,-1.11,-2.787,7.0,1.858,-0.74,0.0,0.0
1738776265467756509,-3.021,-1.041,7.0,0.658,-2.008,-0.019,0.006767,0.1499,-0.0938,-2.91,-1.034,7.004,0.7227,-1.914,-0.01172,0.00705,0.1499,-0.00986,-1.11,-2.787,7.0,1.858,-0.74,0.0,0.0
1738776265517757654,-2.984,-1.1455,7.0,0.729,-1.991,-0.01822,0.00498,0.1481,-0.0938,-2.875,-1.113,7.004,0.7734,-1.902,-0.01172,0.00558,0.1487,-0.00989,-0.922,-2.855,7.0,1.903,-0.6147,0.0,0.0
1738776265567761659,-2.947,-1.24,6.996,0.7925,-1.975,-0.0182,0.000765,0.1467,-0.0938,-2.84,-1.22,7.004,0.8555,-1.875,-0.01172,0.002747,0.1466,-0.00975,-0.922,-2.855,7.0,1.903,-0.6147,0.0,0.0
1738776265617758035,-2.904,-1.343,6.996,0.86,-1.954,-0.01845,-0.00405,0.1455,-0.09375,-2.805,-1.299,7.004,0.9023,-1.863,-0.01172,-0.000711,0.1456,-0.00974,-0.73,-2.91,7.0,1.939,-0.4866,0.0,0.0
1738776265667766571,-2.861,-1.436,6.996,0.9214,-1.933,-0.01823,-0.00934,0.1438,-0.09375,-2.734,-1.405,7.004,0.9844,-1.828,-0.01172,-0.006836,0.144,-0.00958,-0.73,-2.91,7.0,1.939,-0.4866,0.0,0.0
1738776265717764377,-2.809,-1.543,6.996,0.9907,-1.906,-0.01768,-0.01507,0.1418,-0.09375,-2.7,-1.458,7.004,1.023,-1.8125,-0.01172,-0.01029,0.1428,-0.00956,-0.534,-2.951,7.0,1.968,-0.3562,0.0,0.0
1738776265767758607,-2.764,-1.627,6.992,1.045,-1.883,-0.01726,-0.02113,0.1409,-0.09375,-2.646,-1.591,7.0,1.105,-1.777,-0.007812,-0.0177,0.1405,-0.00929,-0.534,-2.951,7.0,1.968,-0.3562,0.0,0.0
1738776265817776203,-2.707,-1.724,6.992,1.107,-1.852,-0.01672,-0.02759,0.1399,-0.0938,-2.596,-1.644,7.0,1.148,-1.758,-0.007812,-0.0227,0.1398,-0.00912,-0.3364,-2.98,7.0,1.987,-0.2244,0.0,0.0
1738776265867803812,-2.654,-1.812,6.992,1.163,-1.821,-0.01608,-0.0328,0.1372,-0.0939,-2.56,-1.724,7.0,1.184,-1.738,-0.007812,-0.0265,0.1394,-0.00903,-0.3364,-2.98,7.0,1.987,-0.2244,0.0,0.0
1738776265917764425,-2.592,-1.905,6.992,1.223,-1.785,-0.014656,-0.03745,0.1342,-0.09393,-2.473,-1.829,7.0,1.266,-1.691,-0.007812,-0.03403,0.136,-0.00906,-0.1371,-2.996,7.0,1.998,-0.09143,0.0,0.0
1738776265967771530,-2.531,-1.99,6.992,1.275,-1.751,-0.01349,-0.04352,0.1311,-0.09406,-2.402,-1.936,7.0,1.332,-1.645,-0.007812,-0.04016,0.1321,-0.00923,-0.1371,-2.996,7.0,1.998,-0.09143,0.0,0.0
1738776266017771005,-2.463,-2.08,6.99,1.33,-1.71,-0.01251,-0.0497,0.128,-0.09406,-2.35,-2.016,7.0,1.371,-1.617,-0.003906,-0.0448,0.1299,-0.00923,0.0628,-3.0,7.0,2.0,0.0419,0.0,0.0
1738776266067799806,-2.398,-2.162,6.99,1.379,-1.67,-0.01164,-0.05585,0.12396,-0.0941,-2.314,-2.068,7.0,1.402,-1.594,-0.003906,-0.04843,0.128,-0.00925,0.0628,-3.0,7.0,2.0,0.0419,0.0,0.0
1738776266117767333,-2.326,-2.248,6.99,1.429,-1.624,-0.01038,-0.06174,0.11993,-0.0942,-2.21,-2.174,7.0,1.469,-1.539,-0.003906,-0.05634,0.1232,-0.00902,0.2625,-2.988,7.0,1.992,0.175,0.0,0.0
1738776266167761802,-2.256,-2.324,6.99,1.473,-1.579,-0.0092,-0.06866,0.1174,-0.09424,-2.123,-2.28,7.0,1.527,-1.48,-0.003906,-0.0646,0.1181,-0.00927,0.2625,-2.988,7.0,1.992,0.175,0.0,0.0
1738776266217761516,-2.178,-2.404,6.99,1.52,-1.527,-0.007904,-0.0755,0.11536,-0.0943,-2.053,-2.334,7.0,1.559,-1.449,-0.0,-0.06976,0.1165,-0.00943,0.461,-2.965,7.0,1.977,0.3074,0.0,0.0
1738776266267802953,-2.104,-2.477,6.99,1.561,-1.478,-0.007263,-0.0821,0.11096,-0.09436,-2.018,-2.387,7.0,1.586,-1.418,-0.0,-0.0737,0.1153,-0.00936,0.461,-2.965,7.0,1.977,0.3074,0.0,0.0
1738776266317769289,-2.021,-2.553,6.99,1.603,-1.42,-0.006058,-0.0886,0.106,-0.09436,-1.8955,-2.492,7.0,1.641,-1.348,-0.0,-0.08295,0.1097,-0.009315,0.657,-2.928,7.0,1.951,0.4382,0.0,0.0
1738776266367763280,-1.9375,-2.625,6.99,1.643,-1.358,-0.005676,-0.10126,0.10266,-0.0945,-1.791,-2.572,7.0,1.6875,-1.281,-0.0,-0.0924,0.10406,-0.00941,0.657,-2.928,7.0,1.951,0.4382,0.0,0.0
1738776266417766094,-1.857,-2.688,6.99,1.678,-1.297,-0.00541,-0.1125,0.1005,-0.0944,-1.738,-2.625,7.0,1.711,-1.242,-0.0,-0.10175,0.102,-0.00952,0.851,-2.877,7.0,1.918,0.5674,0.0,0.0
1738776266467789649,-1.77,-2.754,6.99,1.715,-1.225,-0.004932,-0.12354,0.0979,-0.0945,-1.686,-2.678,7.0,1.73,-1.203,-0.0,-0.1088,0.10077,-0.009476,0.851,-2.877,7.0,1.918,0.5674,0.0,0.0
1738776266517765998,-1.687,-2.81,6.99,1.747,-1.155,-0.004623,-0.1313,0.0958,-0.0945,-1.563,-2.73,7.0,1.773,-1.109,-0.0,-0.12274,0.0977,-0.009476,1.041,-2.814,7.0,1.876,0.694,0.0,0.0
1738776266567774772,-1.616,-2.855,6.984,1.774,-1.095,-0.00448,-0.1342,0.09375,-0.0945,-1.476,-2.783,7.0,1.805,-1.035,-0.0,-0.131,0.0955,-0.009384,1.041,-2.814,7.0,1.876,0.694,0.0,0.0
1738776266617747545,-1.522,-2.91,6.984,1.807,-1.017,-0.00425,-0.1355,0.0909,-0.09454,-1.371,-2.863,7.0,1.836,-0.9453,-0.0,-0.1345,0.09235,-0.00917,1.226,-2.738,7.0,1.825,0.8174,0.0,0.0
1738776266667755365,-1.428,-2.96,6.984,1.837,-0.9395,-0.004234,-0.1348,0.0853,-0.0946,-1.336,-2.89,7.0,1.848,-0.9062,-0.0,-0.1349,0.09106,-0.009186,1.226,-2.738,7.0,1.825,0.8174,0.0,0.0
1738776266717753410,-1.339,-3.004,6.984,1.862,-0.869,-0.003952,-0.1343,0.0804,-0.0946,-1.196,-2.943,7.0,1.883,-0.8047,-0.0,-0.134,0.08386,-0.00935,1.405,-2.65,7.0,1.767,0.937,0.0,0.0
1738776266767778635,-1.241,-3.049,6.984,1.887,-0.7925,-0.004185,-0.1396,0.0755,-0.0947,-1.126,-2.969,7.0,1.898,-0.754,-0.0,-0.1337,0.0804,-0.00945,1.405,-2.65,7.0,1.767,0.937,0.0,0.0
1738776266817748546,-1.15,-3.084,6.984,1.907,-0.7197,-0.00436,-0.1451,0.0719,-0.09467,-1.021,-3.021,7.0,1.918,-0.66,-0.0,-0.1406,0.0743,-0.0093,1.579,-2.55,7.0,1.7,1.053,0.0,0.0
1738776266867788076,-1.051,-3.12,6.984,1.927,-0.6396,-0.00468,-0.1483,0.06824,-0.0947,-0.9688,-3.049,7.0,1.926,-0.6133,-0.0,-0.1438,0.0722,-0.00936,1.579,-2.55,7.0,1.7,1.053,0.0,0.0
1738776266917751073,-0.958,-3.148,6.984,1.944,-0.5654,-0.0047,-0.1501,0.0654,-0.0948,-0.8286,-3.076,7.0,1.945,-0.504,-0.0,-0.1482,0.06726,-0.0095,1.745,-2.44,7.0,1.627,1.164,0.0,0.0
1738776266967772245,-0.8564,-3.176,6.984,1.961,-0.4844,-0.004635,-0.1525,0.06226,-0.09485,-0.759,-3.102,7.0,1.953,-0.4492,-0.0,-0.1494,0.06537,-0.00948,1.745,-2.44,7.0,1.627,1.164,0.0,0.0
1738776267017760515,-0.7617,-3.197,6.984,1.975,-0.4094,-0.004364,-0.1543,0.05975,-0.09485,-0.636,-3.129,7.0,1.965,-0.3477,-0.0,-0.1523,0.06137,-0.00928,1.904,-2.318,7.0,1.546,1.27,0.0,0.0
1738776267067747831,-0.6587,-3.217,6.984,1.988,-0.3284,-0.004154,-0.1556,0.05676,-0.0949,-0.584,-3.129,7.0,1.973,-0.3008,-0.0,-0.1534,0.0599,-0.00937,1.904,-2.318,7.0,1.546,1.27,0.0,0.0
1738776267117752552,-0.563,-3.23,6.984,2.0,-0.2537,-0.004055,-0.1566,0.05423,-0.0949,-0.444,-3.154,7.0,1.98,-0.1992,-0.0,-0.1552,0.0562,-0.00966,2.055,-2.186,7.0,1.458,1.369,0.0,0.0
1738776267167730093,-0.451,-3.242,6.984,2.012,-0.1665,-0.004154,-0.1587,0.04962,-0.0949,-0.374,-3.154,7.0,1.988,-0.1367,-0.0,-0.1559,0.05423,-0.0097,2.055,-2.186,7.0,1.458,1.369,0.0,0.0
1738776267217751264,-0.362,-3.248,6.984,2.018,-0.0979,-0.004086,-0.1602,0.04623,-0.0949,-0.2517,-3.154,6.996,1.992,-0.03125,-0.0,-0.1584,0.04852,-0.00957,2.195,-2.045,7.0,1.363,1.464,0.0,0.0
1738776267267794132,-0.257,-3.25,6.984,2.023,-0.01706,-0.005238,-0.1614,0.04108,-0.095,-0.1991,-3.182,7.0,1.992,0.003906,-0.0,-0.1593,0.0467,-0.009445,2.195,-2.045,7.0,1.363,1.464,0.0,0.0
1738776267317803382,-0.1598,-3.25,6.984,2.027,0.0573,-0.00659,-0.162,0.03674,-0.0949,-0.05927,-3.154,7.0,1.988,0.1133,-0.0,-0.1609,0.03986,-0.00962,2.326,-1.894,7.0,1.263,1.551,0.0,0.0
1738776267367790699,-0.05438,-3.244,6.984,2.03,0.1371,-0.00842,-0.1614,0.03244,-0.095,0.010704,-3.154,7.0,1.988,0.168,-0.0,-0.1614,0.03674,-0.00955,2.326,-1.894,7.0,1.263,1.551,0.0,0.0
1738776267417794704,0.04297,-3.236,6.98,2.027,0.2096,-0.01006,-0.1605,0.02925,-0.095,0.133,-3.154,7.0,1.98,0.2617,-0.0,-0.1604,0.03146,-0.00946,2.447,-1.734,7.0,1.156,1.632,0.0,0.0
1738776267467782497,0.1483,-3.223,6.98,2.025,0.2869,-0.01211,-0.1598,0.02582,-0.09503,0.1855,-3.154,7.0,1.973,0.3047,-0.0,-0.1598,0.02956,-0.009384,2.447,-1.734,7.0,1.156,1.632,0.0,0.0
1738776267517811775,0.2455,-3.207,6.98,2.021,0.3574,-0.013725,-0.1594,0.0231,-0.0951,0.308,-3.129,7.0,1.965,0.3984,-0.0,-0.1589,0.0253,-0.009636,2.559,-1.567,7.0,1.045,1.705,0.0,0.0
1738776267567802667,0.3506,-3.188,6.98,2.016,0.4329,-0.014885,-0.1592,0.01883,-0.0951,0.3955,-3.102,7.0,1.957,0.457,-0.003906,-0.1586,0.02313,-0.00972,2.559,-1.567,7.0,1.045,1.705,0.0,0.0
1738776267617799282,0.4473,-3.164,6.98,2.01,0.502,-0.01494,-0.1589,0.01515,-0.0951,0.518,-3.076,7.0,1.941,0.551,-0.003906,-0.1582,0.01741,-0.0097,2.656,-1.394,7.0,0.929,1.771,0.0,0.0
1738776267667778015,0.5513,-3.137,6.98,2.0,0.5757,-0.01447,-0.1577,0.01013,-0.09515,0.5703,-3.076,7.0,1.934,0.59,-0.003906,-0.1581,0.01561,-0.00955,2.656,-1.394,7.0,0.929,1.771,0.0,0.0
1738776267717810153,0.647,-3.107,6.977,1.989,0.6426,-0.01347,-0.1565,0.005917,-0.09515,0.693,-3.021,7.0,1.918,0.6797,-0.003906,-0.1567,0.00954,-0.00975,2.744,-1.214,7.0,0.809,1.829,0.0,0.0
1738776267767797231,0.7505,-3.072,6.977,1.976,0.7134,-0.0124,-0.1555,0.001609,-0.0952,0.7803,-2.996,7.0,1.906,0.7383,-0.003906,-0.1558,0.005993,-0.009735,2.744,-1.214,7.0,0.809,1.829,0.0,0.0
1738776267817802190,0.8447,-3.037,6.977,1.962,0.7783,-0.01114,-0.1549,-0.001657,-0.09515,0.8853,-2.943,7.0,1.883,0.824,-0.0,-0.1545,0.000803,-0.00976,2.818,-1.028,7.0,0.6855,1.879,0.0,0.0
1738776267867798805,0.9463,-2.994,6.977,1.944,0.847,-0.00982,-0.1544,-0.00523,-0.0952,0.9375,-2.916,7.0,1.871,0.8633,-0.0,-0.1542,-0.001168,-0.00952,2.818,-1.028,7.0,0.6855,1.879,0.0,0.0
1738776267917815208,1.039,-2.951,6.977,1.928,0.91,-0.00895,-0.1542,-0.00801,-0.0952,1.06,-2.863,6.996,1.844,0.949,-0.0,-0.1537,-0.00551,-0.009705,2.88,-0.8384,7.0,0.5586,1.92,0.0,0.0
1738776267967793226,1.139,-2.902,6.977,1.908,0.977,-0.00849,-0.1528,-0.01132,-0.09515,1.147,-2.836,6.996,1.828,1.0,-0.0,-0.1534,-0.00786,-0.00987,2.88,-0.8384,7.0,0.5586,1.92,0.0,0.0
1738776268017843961,1.223,-2.857,6.977,1.891,1.032,-0.00807,-0.1516,-0.01371,-0.09515,1.252,-2.758,6.996,1.801,1.078,-0.0,-0.1516,-0.011826,-0.009834,2.93,-0.6445,7.0,0.4297,1.953,0.0,0.0
1738776268067815542,1.328,-2.799,6.973,1.866,1.101,-0.007866,-0.1493,-0.01701,-0.09515,1.305,-2.73,6.996,1.785,1.117,-0.0,-0.1509,-0.01346,-0.00972,2.93,-0.6445,7.0,0.4297,1.953,0.0,0.0
1738776268117823600,1.417,-2.744,6.973,1.845,1.158,-0.00764,-0.1473,-0.01968,-0.09515,1.427,-2.65,6.996,1.754,1.195,-0.0,-0.1483,-0.01706,-0.00947,2.967,-0.4478,7.0,0.2986,1.978,0.0,0.0
1738776268167791843,1.512,-2.682,6.973,1.819,1.218,-0.00707,-0.1447,-0.02518,-0.0952,1.497,-2.598,6.996,1.734,1.242,-0.0,-0.1467,-0.01932,-0.00966,2.967,-0.4478,7.0,0.2986,1.978,0.0,0.0
1738776268217803239,1.599,-2.623,6.973,1.794,1.271,-0.006016,-0.1426,-0.03014,-0.09515,1.603,-2.545,6.996,1.703,1.3125,-0.0,-0.1434,-0.02606,-0.00981,2.99,-0.2493,7.0,0.1661,1.993,0.0,0.0
1738776268267784595,1.685,-2.56,6.973,1.767,1.324,-0.00565,-0.1399,-0.03583,-0.0952,1.672,-2.492,6.996,1.6875,1.344,-0.0,-0.1421,-0.02908,-0.009705,2.99,-0.2493,7.0,0.1661,1.993,0.0,0.0
