time,x_sphinx,y_sphinx,z_sphinx,vx_sphinx,vy_sphinx,vz_sphinx,roll_sphinx,pitch_sphinx,yaw_sphinx,x_anafi,y_anafi,z_anafi,vx_anafi,vy_anafi,vz_anafi,roll_anafi,pitch_anafi,yaw_anafi,wp_x,wp_y,wp_z,wp_vx,wp_vy,wp_vz,wp_yaw
1738776337010300636,2.734,-1.328,6.992,0.421,0.8887,0.004658,-0.02725,-0.03952,-0.0933,2.72,-1.272,6.996,0.4219,0.8984,0.003906,-0.02725,-0.03986,-0.01008,3.0,-0.04956,7.0,0.01653,1.0,0.0,0.0
1738776337060263633,2.748,-1.289,6.992,0.4033,0.891,0.004303,-0.02791,-0.03778,-0.0933,2.738,-1.22,6.996,0.3906,0.9023,0.003906,-0.02734,-0.03854,-0.01001,3.0,0.0,7.0,-0.0,1.0,0.0,0.0
1738776337110341310,2.775,-1.238,6.992,0.3823,0.8975,0.003347,-0.02968,-0.0356,-0.0932,2.756,-1.166,7.0,0.371,0.9062,0.003906,-0.02821,-0.03717,-0.01009,3.0,0.0,7.0,-0.0,1.0,0.0,0.0
1738776337160333871,2.793,-1.195,6.992,0.3655,0.9023,0.003168,-0.03055,-0.03433,-0.09314,2.773,-1.113,6.996,0.3398,0.91,0.003906,-0.03004,-0.03452,-0.010185,2.998,0.1,7.0,-0.03333,0.9995,0.0,0.0
1738776337210377216,2.812,-1.148,6.992,0.348,0.908,0.003237,-0.03122,-0.03314,-0.093,2.773,-1.087,6.996,0.332,0.91,0.003906,-0.0304,-0.0338,-0.01028,2.998,0.1,7.0,-0.03333,0.9995,0.0,0.0
1738776337260305881,2.83,-1.101,6.992,0.3313,0.9136,0.003109,-0.03162,-0.03125,-0.09296,2.791,-1.034,6.996,0.3047,0.918,0.003906,-0.03134,-0.03235,-0.00994,2.994,0.1998,7.0,-0.0666,0.9976,0.0,0.0
1738776337310299873,2.846,-1.057,6.992,0.317,0.919,0.00261,-0.0317,-0.02968,-0.09296,2.809,-0.981,7.0,0.289,0.922,0.003906,-0.03152,-0.03114,-0.0097,2.994,0.1998,7.0,-0.0666,0.9976,0.0,0.0
1738776337360290527,2.861,-1.009,6.992,0.3022,0.9243,0.002558,-0.0306,-0.02847,-0.0929,2.809,-0.9546,7.0,0.2695,0.926,0.003906,-0.0318,-0.02899,-0.00947,2.984,0.2996,7.0,-0.09985,0.995,0.0,0.0
1738776337410346031,2.875,-0.9644,6.992,0.2893,0.9287,0.002691,-0.02943,-0.02756,-0.09296,2.826,-0.9014,7.0,0.2578,0.9297,0.003906,-0.0312,-0.0282,-0.0094,2.984,0.2996,7.0,-0.09985,0.995,0.0,0.0
1738776337460288286,2.89,-0.916,6.992,0.2761,0.9326,0.00293,-0.02849,-0.02571,-0.09296,2.844,-0.848,7.0,0.2383,0.9336,0.003906,-0.02948,-0.02681,-0.00936,2.973,0.399,7.0,-0.1329,0.991,0.0,0.0
1738776337510330915,2.902,-0.871,6.992,0.265,0.9355,0.002913,-0.02785,-0.02414,-0.09296,2.844,-0.822,7.0,0.2266,0.9375,0.003906,-0.02888,-0.0257,-0.009384,2.973,0.399,7.0,-0.1329,0.991,0.0,0.0
1738776337560309410,2.916,-0.826,6.992,0.2542,0.9385,0.003075,-0.02742,-0.02304,-0.09296,2.861,-0.7686,6.996,0.207,0.9414,0.003906,-0.02795,-0.02353,-0.00943,2.959,0.4978,7.0,-0.1659,0.9863,0.0,0.0
1738776337610330343,2.928,-0.7773,6.996,0.2434,0.9414,0.003504,-0.02713,-0.02219,-0.09296,2.861,-0.716,6.996,0.2031,0.9453,0.003906,-0.0277,-0.02275,-0.00944,2.959,0.4978,7.0,-0.1659,0.9863,0.0,0.0
1738776337660262584,2.941,-0.7285,6.996,0.2329,0.944,0.004517,-0.02693,-0.0216,-0.09296,2.861,-0.6626,6.996,0.1875,0.949,0.003906,-0.02734,-0.02171,-0.00963,2.94,0.596,7.0,-0.1986,0.98,0.0,0.0
1738776337710318326,2.951,-0.683,6.996,0.2236,0.9463,0.00558,-0.02682,-0.02122,-0.09296,2.879,-0.636,6.996,0.1758,0.949,0.003906,-0.02718,-0.0212,-0.00973,2.94,0.596,7.0,-0.1986,0.98,0.0,0.0
1738776337760267019,2.963,-0.634,6.996,0.2137,0.9487,0.005875,-0.02676,-0.02109,-0.0929,2.879,-0.583,6.996,0.1641,0.953,0.003906,-0.02701,-0.02068,-0.00991,2.918,0.694,7.0,-0.2312,0.973,0.0,0.0
1738776337810281515,2.973,-0.588,6.996,0.2048,0.9507,0.00646,-0.02672,-0.02101,-0.09283,2.896,-0.5303,6.996,0.1562,0.953,0.003906,-0.02692,-0.0206,-0.00991,2.918,0.694,7.0,-0.2312,0.973,0.0,0.0
1738776337860261201,2.98,-0.5386,6.996,0.1975,0.953,0.006992,-0.0267,-0.02094,-0.0928,2.896,-0.477,6.996,0.1445,0.957,0.003906,-0.02692,-0.0206,-0.010086,2.895,0.7905,7.0,-0.2634,0.965,0.0,0.0
1738776337910266637,2.992,-0.493,6.996,0.1866,0.955,0.007805,-0.02664,-0.02086,-0.0927,2.896,-0.4507,6.996,0.1367,0.957,0.003906,-0.02692,-0.02042,-0.010086,2.895,0.7905,7.0,-0.2634,0.965,0.0,0.0
1738776337960320234,3.002,-0.447,6.996,0.178,0.9575,0.00905,-0.02663,-0.02074,-0.0926,2.914,-0.3975,6.996,0.1211,0.961,0.003906,-0.02682,-0.02034,-0.01026,2.865,0.8867,7.0,-0.2954,0.9556,0.0,0.0
1738776338010284662,3.01,-0.401,6.996,0.1696,0.9595,0.01044,-0.0266,-0.02068,-0.09247,2.914,-0.3445,6.996,0.1172,0.961,0.007812,-0.02682,-0.02034,-0.01026,2.865,0.8867,7.0,-0.2954,0.9556,0.0,0.0
1738776338060239791,3.018,-0.351,6.996,0.1605,0.9614,0.01178,-0.02658,-0.02065,-0.09235,2.914,-0.2915,6.996,0.10547,0.965,0.007812,-0.02675,-0.02025,-0.01026,2.834,0.9814,7.0,-0.3271,0.945,0.0,0.0
1738776338110231876,3.025,-0.301,6.996,0.1516,0.9634,0.01262,-0.02655,-0.0208,-0.0922,2.914,-0.265,6.996,0.09766,0.965,0.007812,-0.02675,-0.02025,-0.010345,2.834,0.9814,7.0,-0.3271,0.945,0.0,0.0
1738776338160289525,3.033,-0.2546,7.0,0.1431,0.9653,0.01292,-0.02652,-0.02202,-0.0921,2.932,-0.1854,6.996,0.08594,0.965,0.007812,-0.02675,-0.02043,-0.01043,2.8,1.075,7.0,-0.3584,0.9336,0.0,0.0
1738776338210295200,3.041,-0.2043,7.0,0.1333,0.968,0.01357,-0.02652,-0.0235,-0.092,2.932,-0.1589,6.996,0.08203,0.9688,0.007812,-0.02673,-0.02112,-0.01042,2.8,1.075,7.0,-0.3584,0.9336,0.0,0.0
1738776338260217905,3.047,-0.1578,7.0,0.12354,0.9697,0.01426,-0.02649,-0.02547,-0.09186,2.932,-0.1059,6.996,0.0703,0.9688,0.01172,-0.02673,-0.0232,-0.0104,2.764,1.168,7.0,-0.3894,0.921,0.0,0.0
1738776338310210466,3.053,-0.10736,7.0,0.112,0.9717,0.01602,-0.02649,-0.0274,-0.09174,2.932,-0.0529,6.996,0.0625,0.9688,0.01172,-0.02672,-0.02457,-0.01029,2.764,1.168,7.0,-0.3894,0.921,0.0,0.0
1738776338360200405,3.059,-0.0607,7.0,0.1007,0.974,0.01793,-0.02649,-0.02858,-0.0916,2.95,0.0001371,6.996,0.04688,0.9727,0.01172,-0.0268,-0.02707,-0.010086,2.723,1.26,7.0,-0.42,0.9077,0.0,0.0
1738776338410197019,3.062,-0.00999,7.004,0.0881,0.976,0.01979,-0.02646,-0.02953,-0.09155,2.95,0.02666,6.996,0.04297,0.9727,0.01172,-0.0268,-0.02776,-0.00999,2.723,1.26,7.0,-0.42,0.9077,0.0,0.0
1738776338460204839,3.066,0.03693,7.004,0.07623,0.9785,0.02057,-0.02646,-0.03018,-0.0915,2.95,0.07965,6.992,0.02344,0.9727,0.01563,-0.0267,-0.02905,-0.00971,2.68,1.35,7.0,-0.45,0.893,0.0,0.0
1738776338510212421,3.07,0.0878,7.004,0.0632,0.9805,0.02017,-0.02649,-0.03087,-0.09143,2.95,0.1327,6.996,0.01563,0.9766,0.01563,-0.0268,-0.02948,-0.00962,2.68,1.35,7.0,-0.45,0.893,0.0,0.0
1738776338560208797,3.072,0.135,7.004,0.0508,0.9824,0.01994,-0.02647,-0.03235,-0.09143,2.95,0.1858,6.996,0.0,0.9766,0.01563,-0.0268,-0.03052,-0.009346,2.633,1.438,7.0,-0.4795,0.8774,0.0,0.0
1738776338610211610,3.076,0.1862,7.008,0.0367,0.985,0.01997,-0.02647,-0.03394,-0.09143,2.95,0.2123,6.996,0.0,0.9766,0.01563,-0.0268,-0.0312,-0.009254,2.633,1.438,7.0,-0.4795,0.8774,0.0,0.0
1738776338660212755,3.076,0.2335,7.008,0.02301,0.9873,0.01997,-0.02649,-0.036,-0.09143,2.95,0.2654,6.996,-0.01953,0.9766,0.01563,-0.02678,-0.03345,-0.00905,2.584,1.525,7.0,-0.5083,0.8613,0.0,0.0
1738776338710255146,3.078,0.281,7.008,0.00843,0.9893,0.01962,-0.02644,-0.038,-0.0915,2.95,0.3184,6.996,-0.02734,0.9805,0.01563,-0.02678,-0.035,-0.00894,2.584,1.525,7.0,-0.5083,0.8613,0.0,0.0
1738776338760294198,3.078,0.3325,7.008,-0.008095,0.9917,0.0192,-0.02525,-0.03946,-0.0915,2.95,0.3713,6.996,-0.04688,0.9805,0.01172,-0.0266,-0.03775,-0.009254,2.531,1.61,7.0,-0.5366,0.8438,0.0,0.0
1738776338810247421,3.076,0.384,7.01,-0.02512,0.993,0.01884,-0.0239,-0.04053,-0.0915,2.95,0.398,6.996,-0.0547,0.9805,0.01172,-0.02606,-0.03845,-0.009254,2.531,1.61,7.0,-0.5366,0.8438,0.0,0.0
1738776338860216140,3.074,0.4316,7.01,-0.0413,0.994,0.01889,-0.02296,-0.04218,-0.0915,2.95,0.4773,6.996,-0.0781,0.9805,0.01172,-0.02415,-0.04,-0.009445,2.477,1.694,7.0,-0.5645,0.825,0.0,0.0
1738776338910200119,3.072,0.4834,7.01,-0.05963,0.995,0.01915,-0.02226,-0.0439,-0.09155,2.95,0.504,6.996,-0.08984,0.9805,0.01172,-0.02338,-0.0411,-0.009445,2.477,1.694,7.0,-0.5645,0.825,0.0,0.0
1738776338960296630,3.068,0.5312,7.01,-0.0771,0.9956,0.01949,-0.02185,-0.045,-0.0915,2.95,0.557,6.996,-0.1094,0.9805,0.01172,-0.0226,-0.04327,-0.00935,2.418,1.775,7.0,-0.592,0.806,0.0,0.0
1738776339010214567,3.064,0.579,7.016,-0.0948,0.9956,0.01912,-0.02159,-0.04593,-0.0915,2.95,0.5835,6.996,-0.1211,0.9805,0.01172,-0.02225,-0.04398,-0.00935,2.418,1.775,7.0,-0.592,0.806,0.0,0.0
1738776339060222625,3.059,0.631,7.016,-0.1144,0.996,0.01855,-0.02141,-0.04776,-0.09155,2.932,0.636,6.996,-0.1406,0.9805,0.01172,-0.0219,-0.04517,-0.00918,2.357,1.855,7.0,-0.618,0.7856,0.0,0.0
1738776339110208988,3.053,0.6826,7.016,-0.1348,0.996,0.01764,-0.02115,-0.04953,-0.09155,2.932,0.6895,6.996,-0.1562,0.9805,0.01172,-0.0218,-0.04663,-0.00908,2.357,1.855,7.0,-0.618,0.7856,0.0,0.0
1738776339160224199,3.047,0.7305,7.016,-0.154,0.996,0.0167,-0.01985,-0.05072,-0.0916,2.932,0.7427,6.996,-0.1758,0.9766,0.01172,-0.02145,-0.0489,-0.00889,2.295,1.933,7.0,-0.644,0.7646,0.0,0.0
1738776339210203886,3.04,0.7783,7.02,-0.1737,0.9956,0.01616,-0.0186,-0.05157,-0.09174,2.932,0.769,6.996,-0.1875,0.9766,0.01172,-0.0206,-0.04956,-0.00873,2.295,1.933,7.0,-0.644,0.7646,0.0,0.0
1738776339260257244,3.04,0.7783,7.02,-0.1737,0.9956,0.01616,-0.0186,-0.05157,-0.09174,2.914,0.8486,6.996,-0.2148,0.9727,0.007812,-0.01894,-0.05084,-0.0091,2.229,2.008,7.0,-0.6694,0.743,0.0,0.0
1738776339310209035,3.02,0.8774,7.02,-0.2162,0.993,0.01507,-0.01698,-0.05493,-0.0918,2.896,0.875,6.996,-0.2305,0.9727,0.007812,-0.01816,-0.05215,-0.009285,2.229,2.008,7.0,-0.6694,0.743,0.0,0.0
1738776339360222578,3.01,0.9175,7.02,-0.2339,0.992,0.01472,-0.01662,-0.05585,-0.09186,2.896,0.928,6.996,-0.254,0.9688,0.007812,-0.01727,-0.05423,-0.00946,2.16,2.082,7.0,-0.694,0.72,0.0,0.0
1738776339410213470,2.994,0.977,7.02,-0.2605,0.99,0.01444,-0.01627,-0.05685,-0.0918,2.896,0.9546,6.996,-0.2656,0.965,0.007812,-0.01692,-0.0549,-0.00955,2.16,2.082,7.0,-0.694,0.72,0.0,0.0
1738776339460320949,2.994,0.977,7.02,-0.2605,0.99,0.01444,-0.01627,-0.05685,-0.0918,2.879,1.034,6.996,-0.293,0.961,0.007812,-0.01657,-0.05594,-0.00964,2.09,2.152,7.0,-0.7173,0.697,0.0,0.0
1738776339510303974,2.977,1.04,7.023,-0.2893,0.988,0.01436,-0.01605,-0.05753,-0.0918,2.861,1.061,6.996,-0.3047,0.957,0.007812,-0.01648,-0.05637,-0.009636,2.09,2.152,7.0,-0.7173,0.697,0.0,0.0
1738776339560335397,2.951,1.123,7.023,-0.327,0.985,0.01426,-0.014824,-0.05807,-0.09174,2.861,1.113,6.996,-0.332,0.953,0.007812,-0.01622,-0.0568,-0.00964,2.018,2.22,7.0,-0.74,0.6724,0.0,0.0
1738776339610301256,2.934,1.174,7.023,-0.3499,0.982,0.01395,-0.01343,-0.05832,-0.0918,2.844,1.141,6.996,-0.3438,0.953,0.007812,-0.01553,-0.05698,-0.009575,2.018,2.22,7.0,-0.74,0.6724,0.0,0.0
1738776339660318136,2.934,1.174,7.023,-0.3499,0.982,0.01395,-0.01343,-0.05832,-0.0918,2.826,1.22,7.0,-0.371,0.9453,0.007812,-0.01363,-0.0573,-0.009544,1.942,2.287,7.0,-0.762,0.6475,0.0,0.0
1738776339710291862,2.896,1.272,7.023,-0.394,0.9756,0.01287,-0.01174,-0.0587,-0.09174,2.809,1.246,7.0,-0.3828,0.9414,0.003906,-0.01294,-0.0573,-0.00956,1.942,2.287,7.0,-0.762,0.6475,0.0,0.0
1738776339760305643,2.875,1.322,7.027,-0.417,0.9717,0.01224,-0.01127,-0.05884,-0.09174,2.791,1.3,7.0,-0.4062,0.9375,0.003906,-0.011986,-0.05756,-0.00958,1.865,2.35,7.0,-0.783,0.6216,0.0,0.0
1738776339810297489,2.854,1.373,7.027,-0.4395,0.968,0.01218,-0.01078,-0.0589,-0.09174,2.791,1.326,7.0,-0.418,0.9336,0.003906,-0.01173,-0.05765,-0.00951,1.865,2.35,7.0,-0.783,0.6216,0.0,0.0
1738776339860350370,2.832,1.419,7.027,-0.4602,0.9634,0.01174,-0.00936,-0.05896,-0.09174,2.756,1.405,7.0,-0.4453,0.926,0.003906,-0.011215,-0.05765,-0.00944,1.785,2.41,7.0,-0.8037,0.595,0.0,0.0
1738776339910298585,2.807,1.47,7.027,-0.4824,0.9585,0.011284,-0.007782,-0.05927,-0.0918,2.738,1.432,7.0,-0.461,0.922,0.003906,-0.010086,-0.0577,-0.00947,1.785,2.41,7.0,-0.8037,0.595,0.0,0.0
1738776339960361003,2.783,1.516,7.027,-0.5034,0.9526,0.011185,-0.00559,-0.06052,-0.09174,2.703,1.485,7.0,-0.4883,0.918,0.003906,-0.0081,-0.05814,-0.00935,1.704,2.469,7.0,-0.8228,0.568,0.0,0.0
1738776340010311126,2.758,1.561,7.027,-0.5244,0.9463,0.01127,-0.003725,-0.0618,-0.0918,2.703,1.512,7.0,-0.5,0.91,0.003906,-0.006718,-0.05884,-0.00939,1.704,2.469,7.0,-0.8228,0.568,0.0,0.0
1738776340060318946,2.732,1.606,7.027,-0.546,0.9395,0.01145,-0.002386,-0.0627,-0.0918,2.668,1.591,7.0,-0.5273,0.9023,0.003906,-0.003952,-0.0607,-0.00921,1.621,2.523,7.0,-0.8413,0.5405,0.0,0.0
1738776340110287904,2.703,1.654,7.03,-0.57,0.9316,0.01112,-0.001427,-0.0635,-0.09186,2.635,1.617,7.0,-0.547,0.8945,0.003906,-0.002914,-0.0614,-0.00915,1.621,2.523,7.0,-0.8413,0.5405,0.0,0.0
1738776340160311698,2.674,1.703,7.03,-0.5933,0.9233,0.01048,-0.000833,-0.06396,-0.0919,2.617,1.671,7.0,-0.5703,0.883,0.003906,-0.001795,-0.06235,-0.00893,1.536,2.576,7.0,-0.859,0.5117,0.0,0.0
1738776340210321664,2.643,1.751,7.03,-0.617,0.915,0.00979,-0.000456,-0.06415,-0.09204,2.6,1.697,7.0,-0.586,0.879,0.003906,-0.001447,-0.0627,-0.008934,1.536,2.576,7.0,-0.859,0.5117,0.0,0.0
1738776340260318756,2.611,1.795,7.03,-0.638,0.907,0.00938,-0.000227,-0.0631,-0.0921,2.547,1.75,7.0,-0.617,0.867,-0.0,-0.000932,-0.06305,-0.00878,1.449,2.627,7.0,-0.8755,0.4832,0.0,0.0
1738776340310284376,2.578,1.842,7.03,-0.6606,0.899,0.00883,0.000107,-0.06168,-0.0922,2.512,1.803,7.0,-0.6367,0.8594,-0.0,-0.0007625,-0.06235,-0.00878,1.449,2.627,7.0,-0.8755,0.4832,0.0,0.0
1738776340360272169,2.547,1.885,7.03,-0.68,0.8906,0.00865,0.00145,-0.05963,-0.0923,2.477,1.856,7.0,-0.668,0.8477,-0.0,-0.0003407,-0.06052,-0.00871,1.36,2.674,7.0,-0.891,0.4536,0.0,0.0
1738776340410274267,2.514,1.927,7.03,-0.698,0.882,0.00845,0.002731,-0.0578,-0.09247,2.459,1.883,7.0,-0.6797,0.8438,-0.0,0.0004315,-0.05923,-0.008736,1.36,2.674,7.0,-0.891,0.4536,0.0,0.0
1738776340460291624,2.477,1.973,7.03,-0.7173,0.8716,0.008675,0.003752,-0.05643,-0.0925,2.406,1.936,7.0,-0.707,0.832,-0.0,0.002323,-0.0566,-0.00887,1.2705,2.717,7.0,-0.906,0.4236,0.0,0.0
1738776340510286808,2.441,2.014,7.035,-0.7344,0.862,0.00917,0.004528,-0.05542,-0.0926,2.371,1.962,7.0,-0.7227,0.824,-0.0,0.003012,-0.05576,-0.008896,1.2705,2.717,7.0,-0.906,0.4236,0.0,0.0
1738776340560300588,2.402,2.059,7.035,-0.7515,0.851,0.0093,0.00631,-0.05356,-0.0927,2.336,2.016,7.0,-0.746,0.8125,-0.0,0.004135,-0.0543,-0.00918,1.18,2.758,7.0,-0.9194,0.3933,0.0,0.0
1738776340610294342,2.367,2.1,7.035,-0.7666,0.8403,0.00924,0.00784,-0.05194,-0.0928,2.3,2.041,7.0,-0.754,0.8047,-0.0,0.00517,-0.05325,-0.0092,1.18,2.758,7.0,-0.9194,0.3933,0.0,0.0
1738776340660314559,2.326,2.143,7.035,-0.7817,0.8276,0.00909,0.00902,-0.0495,-0.0928,2.25,2.096,7.0,-0.7773,0.789,-0.0,0.007412,-0.0508,-0.0096,1.087,2.797,7.0,-0.932,0.3623,0.0,0.0
1738776340710292816,2.29,2.182,7.035,-0.7944,0.816,0.008865,0.00978,-0.04745,-0.0928,2.215,2.121,7.0,-0.789,0.7812,-0.0,0.00818,-0.04916,-0.0097,1.087,2.797,7.0,-0.932,0.3623,0.0,0.0
1738776340760309696,2.246,2.225,7.035,-0.807,0.8027,0.008934,0.01033,-0.0447,-0.09283,2.162,2.174,7.0,-0.8047,0.7656,-0.0,0.0092,-0.04623,-0.00945,0.993,2.83,7.0,-0.9434,0.331,0.0,0.0
1738776340810292243,2.207,2.262,7.035,-0.8174,0.7905,0.00937,0.0108,-0.0424,-0.0929,2.145,2.201,7.0,-0.8125,0.758,-0.0,0.00954,-0.04468,-0.00936,0.993,2.83,7.0,-0.9434,0.331,0.0,0.0
1738776340860311031,2.168,2.3,7.035,-0.826,0.778,0.00979,0.01219,-0.03973,-0.0929,2.074,2.254,7.0,-0.828,0.742,-0.0,0.01021,-0.04123,-0.00936,0.8984,2.863,7.0,-0.954,0.2996,0.0,0.0
1738776340910277843,2.125,2.34,7.04,-0.8345,0.763,0.01003,0.01367,-0.0373,-0.09296,2.057,2.281,7.0,-0.836,0.7344,-0.0,0.01124,-0.0393,-0.00938,0.8984,2.863,7.0,-0.954,0.2996,0.0,0.0
1738776340960323095,2.084,2.377,7.04,-0.8413,0.7495,0.00997,0.014694,-0.03583,-0.09296,2.004,2.334,7.0,-0.8438,0.7188,-0.0,0.01304,-0.0363,-0.00964,0.8027,2.89,7.0,-0.9634,0.2676,0.0,0.0
1738776341010296583,2.041,2.414,7.04,-0.848,0.7344,0.009705,0.0156,-0.03467,-0.09296,1.97,2.36,7.0,-0.8477,0.711,-0.0,0.01364,-0.03534,-0.00965,0.8027,2.89,7.0,-0.9634,0.2676,0.0,0.0
1738776341060329675,2.041,2.414,7.04,-0.848,0.7344,0.009705,0.0156,-0.03467,-0.09296,1.917,2.412,7.0,-0.8555,0.6914,-0.0,0.01485,-0.03375,-0.01001,0.7056,2.916,7.0,-0.972,0.2352,0.0,0.0
1738776341110295772,1.952,2.49,7.04,-0.859,0.7017,0.0093,0.01921,-0.0309,-0.0929,1.882,2.44,7.0,-0.8633,0.6836,-0.0,0.01613,-0.03247,-0.00984,0.7056,2.916,7.0,-0.972,0.2352,0.0,0.0
1738776341160321950,1.925,2.52,7.04,-0.863,0.6855,0.00922,0.02074,-0.03008,-0.0929,1.812,2.467,7.0,-0.867,0.664,-0.0,0.01854,-0.03004,-0.009514,0.608,2.938,7.0,-0.979,0.2028,0.0,0.0
1738776341210283517,1.869,2.555,7.04,-0.866,0.668,0.00904,0.02354,-0.02896,-0.09296,1.795,2.492,7.0,-0.867,0.6562,-0.0,0.01982,-0.02943,-0.009445,0.608,2.938,7.0,-0.979,0.2028,0.0,0.0
1738776341260333538,1.824,2.59,7.04,-0.8696,0.649,0.00843,0.02507,-0.02843,-0.093,1.742,2.545,7.0,-0.871,0.633,-0.0,0.02275,-0.02821,-0.009384,0.51,2.957,7.0,-0.9854,0.1699,0.0,0.0
1738776341310285568,1.782,2.621,7.04,-0.8726,0.631,0.007748,0.02605,-0.02812,-0.093,1.707,2.572,7.0,-0.875,0.621,-0.0,0.02379,-0.02786,-0.00931,0.51,2.957,7.0,-0.9854,0.1699,0.0,0.0
1738776341360302925,1.736,2.652,7.043,-0.8755,0.611,0.00715,0.02675,-0.0279,-0.0931,1.654,2.598,7.0,-0.879,0.6016,-0.0,0.02507,-0.02742,-0.00924,0.4111,2.973,7.0,-0.9907,0.1371,0.0,0.0
1738776341410291433,1.694,2.682,7.043,-0.8784,0.593,0.006973,0.02728,-0.02766,-0.09314,1.619,2.625,7.0,-0.879,0.59,-0.0,0.02551,-0.02733,-0.00924,0.4111,2.973,7.0,-0.9907,0.1371,0.0,0.0
1738776341460303783,1.648,2.71,7.043,-0.8813,0.5723,0.00675,0.02885,-0.02747,-0.09314,1.55,2.678,7.0,-0.883,0.5625,-0.0,0.02629,-0.02707,-0.00925,0.3118,2.984,7.0,-0.9946,0.10394,0.0,0.0
1738776341510273456,1.606,2.738,7.043,-0.884,0.553,0.00624,0.03023,-0.02739,-0.09326,1.532,2.678,7.0,-0.8867,0.551,-0.0,0.02731,-0.02707,-0.00926,0.3118,2.984,7.0,-0.9946,0.10394,0.0,0.0
1738776341560276985,1.564,2.766,7.043,-0.8867,0.534,0.005394,0.0312,-0.02739,-0.0933,1.462,2.73,7.0,-0.8867,0.5195,-0.0,0.02931,-0.02698,-0.009285,0.2122,2.992,7.0,-0.9976,0.07074,0.0,0.0
1738776341610271453,1.518,2.793,7.043,-0.889,0.5127,0.004673,0.03207,-0.02734,-0.0934,1.444,2.73,7.0,-0.8867,0.508,-0.0,0.02982,-0.02696,-0.00929,0.2122,2.992,7.0,-0.9976,0.07074,0.0,0.0
1738776341660275220,1.476,2.816,7.043,-0.892,0.4927,0.004368,0.0337,-0.02724,-0.09344,1.375,2.758,7.0,-0.8906,0.4805,-0.0,0.03111,-0.02687,-0.00931,0.11237,2.998,7.0,-0.9995,0.03745,0.0,0.0
1738776341710318565,1.429,2.842,7.043,-0.895,0.4705,0.00384,0.0353,-0.02725,-0.0935,1.34,2.783,7.0,-0.8945,0.461,-0.0,0.03232,-0.02687,-0.00933,0.11237,2.998,7.0,-0.9995,0.03745,0.0,0.0
1738776341760298490,1.382,2.865,7.043,-0.898,0.448,0.003527,0.03644,-0.02849,-0.09357,1.287,2.81,7.0,-0.8945,0.4336,-0.0,0.0344,-0.02704,-0.00936,0.01239,3.0,7.0,-1.0,0.00413,0.0,0.0
1738776341810321807,1.339,2.887,7.043,-0.9014,0.427,0.003248,0.037,-0.02965,-0.0936,1.27,2.81,7.0,-0.8945,0.4219,-0.0,0.0351,-0.02773,-0.00938,0.01239,3.0,7.0,-1.0,0.00413,0.0,0.0
1738776341860282659,1.292,2.908,7.043,-0.906,0.4048,0.002502,0.03616,-0.0306,-0.0937,1.2,2.838,7.0,-0.8984,0.3867,-0.0,0.03598,-0.02945,-0.00925,-0.0876,2.998,7.0,-0.9995,-0.0292,0.0,0.0
1738776341910322427,1.248,2.926,7.043,-0.91,0.385,0.001468,0.03522,-0.03123,-0.0937,1.165,2.863,7.0,-0.8984,0.371,-0.0,0.03537,-0.03006,-0.009254,-0.0876,2.998,7.0,-0.9995,-0.0292,0.0,0.0
1738776341960297107,1.201,2.945,7.043,-0.915,0.364,0.000838,0.0344,-0.03165,-0.0938,1.112,2.863,7.0,-0.9023,0.3398,-0.003906,0.03406,-0.031,-0.00908,-0.1875,2.994,7.0,-0.998,-0.0625,0.0,0.0
1738776342010315418,1.157,2.963,7.043,-0.9194,0.3455,0.000551,0.03372,-0.0318,-0.0939,1.095,2.89,7.0,-0.9062,0.3281,-0.003906,0.03363,-0.03128,-0.00907,-0.1875,2.994,7.0,-0.998,-0.0625,0.0,0.0
1738776342060304641,1.108,2.98,7.043,-0.9243,0.3262,0.000275,0.03204,-0.03192,-0.094,1.025,2.89,7.0,-0.91,0.2969,-0.003906,0.03268,-0.03152,-0.00898,-0.287,2.986,7.0,-0.9956,-0.0957,0.0,0.0
1738776342110311508,1.064,2.996,7.043,-0.9287,0.3093,-0.000253,0.03058,-0.032,-0.0941,0.99,2.916,7.0,-0.914,0.2812,-0.003906,0.03165,-0.03156,-0.00887,-0.287,2.986,7.0,-0.9956,-0.0957,0.0,0.0
1738776342160267114,1.016,3.012,7.043,-0.933,0.2917,-0.000224,0.02943,-0.032,-0.09424,0.9375,2.916,7.0,-0.918,0.2578,-0.003906,0.02966,-0.03165,-0.00876,-0.3865,2.975,7.0,-0.9917,-0.1288,0.0,0.0
1738776342210335731,0.971,3.025,7.043,-0.9375,0.2764,-0.000169,0.02869,-0.0321,-0.09436,0.9023,2.916,7.0,-0.918,0.2461,-0.003906,0.02898,-0.03165,-0.00875,-0.3865,2.975,7.0,-0.9917,-0.1288,0.0,0.0
1738776342260295391,0.9224,3.04,7.043,-0.9424,0.26,-0.000475,0.02817,-0.03342,-0.09454,0.85,2.943,7.0,-0.926,0.2227,-0.003906,0.02794,-0.03183,-0.008736,-0.4854,2.96,7.0,-0.987,-0.1619,0.0,0.0
1738776342310324907,0.877,3.05,7.043,-0.9473,0.2456,-0.000774,0.02785,-0.0347,-0.09467,0.815,2.943,7.0,-0.926,0.207,-0.003906,0.02751,-0.03278,-0.00874,-0.4854,2.96,7.0,-0.987,-0.1619,0.0,0.0
1738776342360276937,0.8276,3.062,7.043,-0.953,0.2302,-0.001438,0.02759,-0.03564,-0.0948,0.7627,2.943,7.0,-0.9336,0.1875,-0.003906,0.02718,-0.0345,-0.00902,-0.584,2.943,7.0,-0.981,-0.1946,0.0,0.0
1738776342410309076,0.7817,3.074,7.043,-0.959,0.2164,-0.001466,0.02734,-0.03622,-0.0949,0.7275,2.969,7.0,-0.9336,0.1758,-0.003906,0.02701,-0.035,-0.00919,-0.584,2.943,7.0,-0.981,-0.1946,0.0,0.0
1738776342460285186,0.7354,3.084,7.043,-0.965,0.2031,-0.000985,0.0261,-0.0365,-0.095,0.6577,2.969,7.0,-0.9414,0.1562,-0.003906,0.0266,-0.03595,-0.009544,-0.6816,2.922,7.0,-0.9736,-0.2272,0.0,0.0
1738776342510314464,0.685,3.094,7.043,-0.971,0.1895,-0.000397,0.02472,-0.03668,-0.095,0.6226,2.969,7.0,-0.9453,0.1445,-0.003906,0.02565,-0.03622,-0.00979,-0.6816,2.922,7.0,-0.9736,-0.2272,0.0,0.0
1738776342560317039,0.6343,3.104,7.043,-0.977,0.1766,0.000197,0.02373,-0.03687,-0.095,0.5703,2.969,7.0,-0.953,0.125,-0.003906,0.02402,-0.0365,-0.00993,-0.779,2.896,7.0,-0.966,-0.2595,0.0,0.0
1738776342610306501,0.5874,3.111,7.043,-0.983,0.1653,0.000608,0.02309,-0.037,-0.095,0.535,2.969,7.0,-0.953,0.1172,-0.003906,0.0234,-0.03656,-0.01001,-0.779,2.896,7.0,-0.966,-0.2595,0.0,0.0
1738776342660269975,0.54,3.12,7.043,-0.989,0.1543,0.000458,0.02264,-0.03708,-0.095,0.4653,2.996,7.0,-0.961,0.09766,-0.003906,0.02246,-0.03665,-0.010254,-0.8745,2.87,7.0,-0.9565,-0.2915,0.0,0.0
1738776342710313558,0.4885,3.127,7.043,-0.9946,0.1428,-0.000281,0.02234,-0.03714,-0.0949,0.448,2.996,7.0,-0.965,0.08984,-0.003906,0.02213,-0.03683,-0.010254,-0.8745,2.87,7.0,-0.9565,-0.2915,0.0,0.0
1738776342760264396,0.4407,3.135,7.043,-1.0,0.1324,-0.000951,0.02214,-0.03604,-0.09485,0.378,2.996,7.0,-0.9727,0.0742,-0.003906,0.02177,-0.03683,-0.010414,-0.9697,2.84,7.0,-0.9463,-0.3232,0.0,0.0
1738776342810307979,0.3884,3.14,7.043,-1.005,0.1213,-0.001993,0.02205,-0.0347,-0.0948,0.3604,2.996,7.0,-0.9766,0.0664,-0.003906,0.0216,-0.03613,-0.01041,-0.9697,2.84,7.0,-0.9463,-0.3232,0.0,0.0
1738776342860272169,0.34,3.146,7.043,-1.009,0.1111,-0.003212,0.02197,-0.03384,-0.09467,0.2905,2.996,7.0,-0.9805,0.05078,-0.003906,0.0215,-0.03433,-0.01056,-1.063,2.805,7.0,-0.935,-0.3547,0.0,0.0
1738776342910323143,0.2876,3.152,7.043,-1.013,0.10016,-0.003897,0.022,-0.03314,-0.09454,0.238,2.996,7.0,-0.9844,0.04297,-0.003906,0.02142,-0.03372,-0.010635,-1.063,2.805,7.0,-0.935,-0.3547,0.0,0.0
1738776342960299491,0.2347,3.156,7.043,-1.017,0.089,-0.003857,0.02325,-0.03256,-0.0944,0.1855,3.023,7.0,-0.9883,0.03125,-0.003906,0.02158,-0.03287,-0.01045,-1.157,2.768,7.0,-0.923,-0.3855,0.0,0.0
1738776343010309457,0.1859,3.16,7.043,-1.02,0.07825,-0.00366,0.02444,-0.03223,-0.0944,0.1506,3.023,7.0,-0.992,0.02344,-0.007812,0.02226,-0.03253,-0.01021,-1.157,2.768,7.0,-0.923,-0.3855,0.0,0.0
1738776343060272693,0.1368,3.164,7.043,-1.022,0.0671,-0.003813,0.02533,-0.03204,-0.09436,0.0806,3.023,7.0,-0.992,0.007812,-0.003906,0.02406,-0.03192,-0.009796,-1.248,2.729,7.0,-0.909,-0.4163,0.0,0.0
1738776343110319375,0.08356,3.168,7.043,-1.026,0.05472,-0.004326,0.02602,-0.03192,-0.0944,0.0457,3.023,7.0,-0.996,0.0,-0.003906,0.02467,-0.03183,-0.00963,-1.248,2.729,7.0,-0.909,-0.4163,0.0,0.0
1738776343160278797,0.0301,3.17,7.043,-1.029,0.0422,-0.005062,0.02647,-0.03062,-0.0944,-0.00679,3.023,7.0,-1.0,-0.007812,-0.003906,0.02553,-0.03165,-0.009384,-1.339,2.686,7.0,-0.895,-0.4463,0.0,0.0
1738776343210327625,-0.01933,3.172,7.043,-1.031,0.03052,-0.00585,0.02686,-0.02937,-0.0945,-0.04178,3.023,7.0,-1.0,-0.01563,-0.003906,0.02579,-0.03087,-0.00929,-1.339,2.686,7.0,-0.895,-0.4463,0.0,0.0
1738776343260283470,-0.073,3.172,7.043,-1.032,0.0175,-0.00629,0.02834,-0.02837,-0.09454,-0.1117,3.023,7.0,-1.0,-0.03516,-0.007812,0.02638,-0.02905,-0.0091,-1.428,2.639,7.0,-0.8794,-0.4758,0.0,0.0
1738776343310310840,-0.1226,3.174,7.043,-1.034,0.004868,-0.006306,0.02979,-0.02756,-0.09467,-0.1467,3.023,7.0,-1.004,-0.04297,-0.007812,0.0274,-0.02837,-0.00911,-1.428,2.639,7.0,-0.8794,-0.4758,0.0,0.0
1738776343360269069,-0.1764,3.174,7.043,-1.034,-0.00967,-0.00596,0.0321,-0.02577,-0.0947,-0.1991,3.023,7.0,-1.004,-0.0586,-0.007812,0.0293,-0.02731,-0.00912,-1.515,2.59,7.0,-0.8633,-0.505,0.0,0.0
1738776343410326719,-0.2261,3.172,7.04,-1.034,-0.024,-0.006046,0.034,-0.02429,-0.0948,-0.2341,3.023,7.0,-1.004,-0.0664,-0.007812,0.03069,-0.02628,-0.00921,-1.515,2.59,7.0,-0.8633,-0.505,0.0,0.0
1738776343460277795,-0.2756,3.17,7.04,-1.034,-0.03897,-0.005726,0.03503,-0.02357,-0.09485,-0.3042,3.023,7.0,-1.0,-0.08594,-0.007812,0.0335,-0.02411,-0.0093,-1.6,2.537,7.0,-0.8457,-0.533,0.0,0.0
1738776343510306358,-0.3293,3.168,7.04,-1.033,-0.05566,-0.005936,0.03644,-0.02254,-0.0949,-0.339,2.996,7.0,-1.0,-0.09375,-0.007812,0.0345,-0.02332,-0.009384,-1.6,2.537,7.0,-0.8457,-0.533,0.0,0.0
1738776343560267210,-0.3542,3.166,7.04,-1.032,-0.0689,-0.00593,0.03723,-0.02242,-0.095,-0.409,2.996,7.0,-0.996,-0.1133,-0.007812,0.03595,-0.02237,-0.00955,-1.684,2.482,7.0,-0.8276,-0.561,0.0,0.0
1738776343610337972,-0.4326,3.16,7.04,-1.03,-0.0896,-0.005234,0.04004,-0.02176,-0.095,-0.4265,2.996,7.0,-0.996,-0.125,-0.007812,0.03696,-0.02219,-0.009735,-1.684,2.482,7.0,-0.8276,-0.561,0.0,0.0
1738776343660275936,-0.482,3.156,7.04,-1.029,-0.107,-0.004826,0.04233,-0.02155,-0.095,-0.4963,2.996,7.0,-0.992,-0.1445,-0.003906,0.0393,-0.02174,-0.00984,-1.766,2.426,7.0,-0.8086,-0.5884,0.0,0.0
1738776343710310935,-0.5356,3.15,7.04,-1.028,-0.1267,-0.004185,0.0444,-0.02129,-0.095,-0.5312,2.996,7.0,-0.992,-0.1562,-0.003906,0.0412,-0.02155,-0.010025,-1.766,2.426,7.0,-0.8086,-0.5884,0.0,0.0
1738776343760257959,-0.589,3.143,7.04,-1.026,-0.1469,-0.00412,0.04462,-0.01999,-0.0949,-0.6016,2.996,7.0,-0.9883,-0.1797,-0.003906,0.0438,-0.0212,-0.01013,-1.846,2.365,7.0,-0.7886,-0.615,0.0,0.0
1738776343810302495,-0.638,3.135,7.04,-1.024,-0.1653,-0.00403,0.0446,-0.01874,-0.09485,-0.636,2.996,7.0,-0.9844,-0.1914,-0.003906,0.04388,-0.02042,-0.01021,-1.846,2.365,7.0,-0.7886,-0.615,0.0,0.0
1738776343860301971,-0.6914,3.127,7.04,-1.021,-0.1857,-0.003645,0.0468,-0.01775,-0.0948,-0.7065,2.969,7.0,-0.9805,-0.2188,-0.003906,0.04395,-0.0186,-0.01034,-1.923,2.303,7.0,-0.7676,-0.641,0.0,0.0
1738776343910364627,-0.74,3.117,7.04,-1.019,-0.2052,-0.003242,0.049,-0.01707,-0.0947,-0.741,2.969,7.0,-0.9805,-0.2305,-0.003906,0.0455,-0.0179,-0.01042,-1.923,2.303,7.0,-0.7676,-0.641,0.0,0.0
1738776343960340261,-0.7686,3.111,7.04,-1.017,-0.217,-0.003216,0.04974,-0.01682,-0.09467,-0.794,2.943,7.0,-0.9727,-0.25,-0.003906,0.04843,-0.01703,-0.010086,-1.999,2.236,7.0,-0.7456,-0.6665,0.0,0.0
1738776344010324239,-0.793,3.105,7.04,-1.016,-0.2273,-0.003035,0.05078,-0.01663,-0.09467,-0.8286,2.943,7.0,-0.9688,-0.2656,-0.003906,0.04956,-0.01677,-0.00991,-1.999,2.236,7.0,-0.7456,-0.6665,0.0,0.0
1738776344060313940,-0.89,3.082,7.04,-1.009,-0.2693,-0.002558,0.05273,-0.01494,-0.0946,-0.8984,2.943,7.0,-0.965,-0.293,-0.0,0.05118,-0.01616,-0.00965,-2.072,2.17,7.0,-0.723,-0.691,0.0,0.0
1738776344110306978,-0.943,3.068,7.04,-1.005,-0.292,-0.002808,0.05328,-0.013504,-0.09467,-0.9336,2.916,7.0,-0.961,-0.3047,-0.0,0.0518,-0.01521,-0.00946,-2.072,2.17,7.0,-0.723,-0.691,0.0,0.0
1738776344160296440,-0.9907,3.053,7.04,-1.001,-0.3132,-0.002855,0.05362,-0.01256,-0.0947,-0.9863,2.916,7.0,-0.953,-0.3281,-0.0,0.05237,-0.0134,-0.00933,-2.143,2.1,7.0,-0.6997,-0.7144,0.0,0.0
1738776344210312604,-1.035,3.04,7.04,-0.996,-0.3325,-0.003222,0.0538,-0.011925,-0.0947,-1.021,2.89,7.0,-0.949,-0.3398,-0.0,0.05255,-0.012886,-0.00923,-2.143,2.1,7.0,-0.6997,-0.7144,0.0,0.0
1738776344260334730,-1.091,3.02,7.04,-0.9907,-0.357,-0.004276,0.05402,-0.011475,-0.0948,-1.091,2.89,7.0,-0.9414,-0.371,-0.0,0.0529,-0.01185,-0.00921,-2.213,2.027,7.0,-0.6753,-0.7373,0.0,0.0
1738776344310331821,-1.13,3.004,7.04,-0.9863,-0.3743,-0.004883,0.0541,-0.01122,-0.09485,-1.108,2.863,7.0,-0.9375,-0.3828,-0.003906,0.05298,-0.01159,-0.0092,-2.213,2.027,7.0,-0.6753,-0.7373,0.0,0.0
1738776344360330820,-1.188,2.982,7.035,-0.98,-0.4001,-0.005604,0.0542,-0.00969,-0.0949,-1.179,2.838,7.0,-0.9297,-0.4062,-0.003906,0.05316,-0.01106,-0.00928,-2.28,1.951,7.0,-0.6504,-0.7593,0.0,0.0
1738776344410331487,-1.231,2.96,7.035,-0.973,-0.4224,-0.0063,0.0544,-0.008156,-0.095,-1.196,2.838,7.0,-0.926,-0.418,-0.003906,0.05313,-0.0102,-0.00934,-2.28,1.951,7.0,-0.6504,-0.7593,0.0,0.0
1738776344460319995,-1.286,2.94,7.035,-0.967,-0.4429,-0.00636,0.0557,-0.007126,-0.09503,-1.266,2.81,7.0,-0.914,-0.4453,-0.003906,0.05347,-0.008125,-0.00946,-2.342,1.875,7.0,-0.625,-0.781,0.0,0.0
1738776344510352134,-1.336,2.916,7.035,-0.9595,-0.4658,-0.005726,0.05713,-0.006252,-0.0951,-1.301,2.783,7.0,-0.91,-0.461,-0.003906,0.0544,-0.00734,-0.00953,-2.342,1.875,7.0,-0.625,-0.781,0.0,0.0
1738776344560333967,-1.382,2.893,7.035,-0.9526,-0.4873,-0.005123,0.05807,-0.0057,-0.0951,-1.354,2.758,7.0,-0.9023,-0.4844,-0.003906,0.05615,-0.00629,-0.009674,-2.404,1.796,7.0,-0.5986,-0.8013,0.0,0.0
1738776344610336542,-1.432,2.867,7.035,-0.945,-0.5107,-0.004757,0.05872,-0.005432,-0.09515,-1.389,2.758,7.0,-0.8945,-0.5,-0.003906,0.05676,-0.006027,-0.00976,-2.404,1.796,7.0,-0.5986,-0.8013,0.0,0.0
1738776344660327911,-1.48,2.84,7.035,-0.9375,-0.5337,-0.004772,0.05792,-0.005287,-0.09515,-1.458,2.73,7.0,-0.883,-0.5273,-0.003906,0.05762,-0.005672,-0.00992,-2.463,1.714,7.0,-0.5713,-0.821,0.0,0.0
1738776344710346221,-1.525,2.814,7.035,-0.93,-0.554,-0.004856,0.057,-0.005215,-0.0951,-1.476,2.705,7.0,-0.879,-0.547,-0.003906,0.0571,-0.0055,-0.01,-2.463,1.714,7.0,-0.5713,-0.821,0.0,0.0
1738776344760330200,-1.569,2.787,7.035,-0.9233,-0.574,-0.00467,0.05627,-0.00511,-0.09503,-1.546,2.652,7.0,-0.871,-0.578,-0.003906,0.05588,-0.0055,-0.01017,-2.518,1.631,7.0,-0.544,-0.8394,0.0,0.0
1738776344810340404,-1.588,2.775,7.035,-0.9204,-0.582,-0.004524,0.05606,-0.00506,-0.09503,-1.563,2.652,7.0,-0.867,-0.59,-0.003906,0.05545,-0.005417,-0.01017,-2.518,1.631,7.0,-0.544,-0.8394,0.0,0.0
1738776344860336542,-1.661,2.727,7.035,-0.9087,-0.614,-0.004547,0.05527,-0.00493,-0.0949,-1.633,2.598,7.0,-0.8555,-0.621,-0.003906,0.0547,-0.00533,-0.01034,-2.57,1.547,7.0,-0.5156,-0.857,0.0,0.0
1738776344910333156,-1.708,2.695,7.035,-0.901,-0.6343,-0.00404,0.05487,-0.004803,-0.09485,-1.668,2.572,7.0,-0.8516,-0.6406,-0.003906,0.0545,-0.005333,-0.01034,-2.57,1.547,7.0,-0.5156,-0.857,0.0,0.0
1738776344960340976,-1.752,2.664,7.035,-0.894,-0.652,-0.003275,0.05353,-0.004677,-0.0948,-1.721,2.52,6.996,-0.8438,-0.668,-0.003906,0.054,-0.005157,-0.010414,-2.621,1.46,7.0,-0.4866,-0.8735,0.0,0.0
1738776345010340929,-1.798,2.629,7.035,-0.886,-0.6704,-0.002592,0.05203,-0.004482,-0.09467,-1.756,2.492,6.996,-0.836,-0.6797,-0.0,0.05313,-0.005165,-0.010414,-2.621,1.46,7.0,-0.4866,-0.8735,0.0,0.0
1738776345060301542,-1.844,2.594,7.035,-0.8784,-0.688,-0.00241,0.05093,-0.003191,-0.09454,-1.808,2.44,6.996,-0.828,-0.707,-0.0,0.0512,-0.004826,-0.01048,-2.668,1.372,7.0,-0.4573,-0.889,0.0,0.0
1738776345110295057,-1.886,2.56,7.035,-0.8706,-0.7036,-0.00258,0.0501,-0.001883,-0.0944,-1.843,2.412,7.0,-0.8203,-0.7188,-0.0,0.05054,-0.003963,-0.01055,-2.668,1.372,7.0,-0.4573,-0.889,0.0,0.0
1738776345160305976,-1.927,2.527,7.035,-0.862,-0.7183,-0.002556,0.04846,0.00017,-0.0943,-1.8955,2.36,6.996,-0.8125,-0.742,-0.0,0.04922,-0.00199,-0.010414,-2.713,1.282,7.0,-0.4275,-0.9043,0.0,0.0
1738776345210311889,-1.969,2.492,7.03,-0.852,-0.7324,-0.00243,0.04675,0.00215,-0.09424,-1.913,2.36,6.996,-0.8047,-0.75,-0.0,0.04828,-0.000876,-0.01021,-2.713,1.282,7.0,-0.4275,-0.9043,0.0,0.0
1738776345260327100,-2.012,2.453,7.03,-0.841,-0.746,-0.002054,0.04312,0.00363,-0.0942,-1.966,2.307,6.996,-0.793,-0.7734,-0.0,0.04556,0.001952,-0.00989,-2.754,1.191,7.0,-0.397,-0.918,0.0,0.0
1738776345310337066,-2.057,2.414,7.03,-0.829,-0.758,-0.001556,0.0396,0.004738,-0.0941,-2.0,2.254,6.996,-0.785,-0.785,-0.0,0.04306,0.002888,-0.00978,-2.754,1.191,7.0,-0.397,-0.918,0.0,0.0
1738776345360322713,-2.088,2.383,7.03,-0.8193,-0.766,-0.001306,0.03818,0.006165,-0.0941,-2.053,2.227,6.996,-0.7734,-0.797,-0.0,0.03873,0.004246,-0.009674,-2.791,1.099,7.0,-0.3662,-0.9307,0.0,0.0
1738776345410337686,-2.137,2.338,7.03,-0.8037,-0.7764,-0.001455,0.03555,0.00821,-0.0942,-2.088,2.201,6.996,-0.7656,-0.8047,-0.0,0.03726,0.00536,-0.00966,-2.791,1.099,7.0,-0.3662,-0.9307,0.0,0.0
1738776345460336446,-2.162,2.312,7.03,-0.795,-0.78,-0.001508,0.0348,0.00871,-0.0941,-2.14,2.121,6.996,-0.746,-0.8164,-0.0,0.03485,0.007767,-0.009705,-2.826,1.005,7.0,-0.335,-0.9424,0.0,0.0
1738776345510330438,-2.203,2.271,7.03,-0.7803,-0.79,-0.001558,0.03397,0.00997,-0.0941,-2.158,2.096,6.996,-0.7383,-0.824,-0.0,0.03424,0.00854,-0.0097,-2.826,1.005,7.0,-0.335,-0.9424,0.0,0.0
1738776345560324668,-2.244,2.22,7.03,-0.762,-0.799,-0.001634,0.03226,0.010765,-0.0941,-2.21,2.068,6.996,-0.7227,-0.832,-0.0,0.0331,0.00966,-0.00986,-2.86,0.91,7.0,-0.3035,-0.9526,0.0,0.0
1738776345610341787,-2.287,2.186,7.03,-0.7495,-0.804,-0.001394,0.03072,0.01118,-0.09406,-2.229,2.041,6.996,-0.715,-0.836,-0.0,0.03217,0.00991,-0.00986,-2.86,0.91,7.0,-0.3035,-0.9526,0.0,0.0
1738776345660326242,-2.328,2.14,7.03,-0.7334,-0.8105,-0.001331,0.02945,0.01273,-0.094,-2.28,1.962,6.996,-0.699,-0.8438,-0.0,0.02998,0.01068,-0.010025,-2.887,0.8145,7.0,-0.2715,-0.9624,0.0,0.0
1738776345710330963,-2.365,2.098,7.03,-0.7173,-0.8154,-0.001579,0.02864,0.014275,-0.09393,-2.314,1.936,6.996,-0.6875,-0.8516,-0.0,0.0293,0.01172,-0.0101,-2.887,0.8145,7.0,-0.2715,-0.9624,0.0,0.0
1738776345760334491,-2.377,2.084,7.03,-0.7124,-0.817,-0.001554,0.0286,0.01465,-0.09393,-2.367,1.883,6.996,-0.672,-0.8555,-0.0,0.02817,0.013695,-0.00982,-2.912,0.718,7.0,-0.2393,-0.971,0.0,0.0
1738776345810356378,-2.436,2.016,7.03,-0.685,-0.8247,-0.000784,0.0278,0.0162,-0.0939,-2.385,1.856,6.996,-0.664,-0.8594,-0.0,0.02798,0.014206,-0.00964,-2.912,0.718,7.0,-0.2393,-0.971,0.0,0.0
1738776345860321521,-2.469,1.977,7.03,-0.6694,-0.8286,-2.6e-05,0.02757,0.01675,-0.09393,-2.438,1.803,6.996,-0.6445,-0.8633,-0.0,0.02747,0.01541,-0.009285,-2.936,0.62,7.0,-0.2068,-0.9785,0.0,0.0
1738776345910271406,-2.502,1.933,7.03,-0.6523,-0.833,0.000681,0.02742,0.01724,-0.09393,-2.455,1.776,6.996,-0.633,-0.867,-0.0,0.0273,0.01575,-0.00919,-2.936,0.62,7.0,-0.2068,-0.9785,0.0,0.0
1738776345960265636,-2.533,1.893,7.03,-0.636,-0.837,0.001176,0.02733,0.01862,-0.094,-2.508,1.724,6.996,-0.617,-0.871,-0.0,0.02711,0.01643,-0.0091,-2.955,0.522,7.0,-0.1741,-0.985,0.0,0.0
1738776346010251522,-2.566,1.85,7.03,-0.6187,-0.8413,0.001143,0.02725,0.02007,-0.0941,-2.525,1.697,6.996,-0.6055,-0.875,-0.0,0.02702,0.01721,-0.00892,-2.955,0.522,7.0,-0.1741,-0.985,0.0,0.0
1738776346060276508,-2.596,1.809,7.03,-0.6016,-0.845,0.000952,0.02722,0.02103,-0.0942,-2.56,1.617,6.996,-0.582,-0.879,-0.0,0.02693,0.0192,-0.008896,-2.97,0.4233,7.0,-0.1411,-0.99,0.0,0.0
1738776346110229015,-2.627,1.765,7.03,-0.583,-0.849,0.000565,0.02719,0.02185,-0.09424,-2.578,1.591,6.996,-0.574,-0.879,-0.0,0.02693,0.0199,-0.009056,-2.97,0.4233,7.0,-0.1411,-0.99,0.0,0.0
1738776346160257101,-2.654,1.724,7.03,-0.566,-0.853,0.000421,0.02718,0.0235,-0.0943,-2.613,1.538,6.996,-0.551,-0.883,-0.0,0.02693,0.02092,-0.00904,-2.982,0.3242,7.0,-0.10803,-0.994,0.0,0.0
1738776346210223913,-2.682,1.683,7.03,-0.548,-0.857,0.000353,0.02715,0.02512,-0.09436,-2.63,1.512,6.996,-0.539,-0.883,-0.0,0.02692,0.02197,-0.00912,-2.982,0.3242,7.0,-0.10803,-0.994,0.0,0.0
1738776346260284900,-2.709,1.638,7.03,-0.528,-0.8613,0.000297,0.0271,0.02632,-0.0944,-2.664,1.458,6.996,-0.5117,-0.8867,-0.0,0.02692,0.02438,-0.009254,-2.992,0.2246,7.0,-0.0748,-0.997,0.0,0.0
1738776346310227155,-2.736,1.593,7.03,-0.5073,-0.865,0.000222,0.0271,0.02713,-0.0945,-2.682,1.432,6.996,-0.496,-0.8906,-0.0,0.0269,0.02525,-0.009415,-2.992,0.2246,7.0,-0.0748,-0.997,0.0,0.0
1738776346360277175,-2.76,1.552,7.03,-0.4885,-0.869,7.5e-05,0.0271,0.02762,-0.0945,-2.717,1.379,6.996,-0.4688,-0.8945,-0.0,0.0269,0.02629,-0.009575,-2.998,0.12476,7.0,-0.0416,-0.999,0.0,0.0
1738776346410231351,-2.783,1.51,7.03,-0.4695,-0.873,0.000389,0.0271,0.02795,-0.0945,-2.734,1.353,6.996,-0.4531,-0.8945,-0.0,0.02689,0.02664,-0.00974,-2.998,0.12476,7.0,-0.0416,-0.999,0.0,0.0
1738776346460362672,-2.807,1.464,7.03,-0.4492,-0.8774,0.000699,0.02708,0.02818,-0.0945,-2.752,1.3,6.996,-0.4258,-0.8984,-0.0,0.02689,0.02716,-0.00991,-3.0,0.02478,7.0,-0.00826,-1.0,0.0,0.0
1738776346510296344,-2.814,1.437,7.03,-0.4353,-0.88,0.000897,0.02707,0.02826,-0.0944,-2.77,1.246,6.996,-0.4102,-0.9023,-0.0,0.02698,0.02724,-0.01008,-3.0,0.02478,7.0,-0.00826,-1.0,0.0,0.0
1738776346560352563,-2.85,1.376,7.03,-0.4106,-0.8853,0.001208,0.02835,0.0283,-0.09436,-2.787,1.22,6.996,-0.3828,-0.9023,-0.0,0.02715,0.02742,-0.01025,-3.0,-0.0752,7.0,0.02507,-0.9995,0.0,0.0
1738776346610227823,-2.87,1.337,7.03,-0.3909,-0.89,0.001065,0.02968,0.02827,-0.0943,-2.805,1.167,6.996,-0.3672,-0.9023,-0.0,0.02783,0.02742,-0.01024,-3.0,-0.0752,7.0,0.02507,-0.9995,0.0,0.0
1738776346660383462,-2.889,1.287,7.03,-0.373,-0.895,0.000627,0.03055,0.02817,-0.0942,-2.822,1.113,6.996,-0.3398,-0.91,-0.0,0.02965,0.02753,-0.01047,-2.994,-0.1752,7.0,0.05838,-0.9985,0.0,0.0
1738776346710324287,-2.906,1.244,7.03,-0.354,-0.901,0.00042,0.03117,0.02808,-0.09406,-2.822,1.087,6.996,-0.3242,-0.91,-0.0,0.03024,0.02744,-0.01047,-2.994,-0.1752,7.0,0.05838,-0.9985,0.0,0.0
1738776346760289192,-2.924,1.197,7.03,-0.3367,-0.9062,0.000179,0.03162,0.02689,-0.09393,-2.84,1.034,6.996,-0.2969,-0.918,-0.0,0.03111,0.02727,-0.010544,-2.988,-0.275,7.0,0.0916,-0.9956,0.0,0.0
1738776346810224056,-2.938,1.161,7.03,-0.323,-0.911,0.000169,0.03186,0.02579,-0.0938,-2.857,1.008,6.996,-0.2852,-0.918,-0.0,0.03137,0.0265,-0.010635,-2.988,-0.275,7.0,0.0916,-0.9956,0.0,0.0
1738776346860255241,-2.95,1.124,7.03,-0.3086,-0.916,0.000187,0.03268,0.025,-0.0937,-2.857,0.928,6.996,-0.2578,-0.926,-0.0,0.0319,0.02478,-0.01048,-2.977,-0.3743,7.0,0.12476,-0.992,0.0,0.0
1738776346910207986,-2.97,1.062,7.03,-0.2886,-0.9243,-9.7e-05,0.0346,0.02397,-0.09357,-2.875,0.9014,6.996,-0.2461,-0.9297,-0.0,0.03293,0.0241,-0.01048,-2.977,-0.3743,7.0,0.12476,-0.992,0.0,0.0
1738776346960214614,-2.984,1.014,7.03,-0.2727,-0.9316,-1.2e-05,0.03568,0.02351,-0.09344,-2.893,0.8486,6.996,-0.2227,-0.9336,-0.0,0.03476,0.02315,-0.010475,-2.963,-0.4731,7.0,0.1577,-0.9873,0.0,0.0
1738776347010197162,-2.998,0.9683,7.03,-0.2585,-0.9385,-0.00013,0.03635,0.02318,-0.0933,-2.893,0.8223,6.996,-0.2109,-0.9375,-0.0,0.03528,0.02298,-0.0103,-2.963,-0.4731,7.0,0.1577,-0.9873,0.0,0.0
1738776347060242652,-3.004,0.9307,7.03,-0.246,-0.9453,-0.000369,0.03674,0.02217,-0.0932,-2.91,0.769,6.996,-0.1914,-0.9453,-0.0,0.03632,0.02246,-0.0103,-2.945,-0.572,7.0,0.1906,-0.9814,0.0,0.0
1738776347110203504,-3.021,0.874,7.03,-0.2311,-0.9536,-0.001047,0.0371,0.02031,-0.09314,-2.91,0.716,6.996,-0.1797,-0.953,-0.0,0.0366,0.02151,-0.01014,-2.945,-0.572,7.0,0.1906,-0.9814,0.0,0.0
1738776347160200357,-3.033,0.828,7.03,-0.219,-0.961,-0.001304,0.03726,0.01932,-0.093,-2.91,0.716,6.996,-0.1719,-0.953,-0.0,0.03677,0.02048,-0.010155,-2.924,-0.6694,7.0,0.2231,-0.9746,0.0,0.0
1738776347210200309,-3.043,0.793,7.03,-0.2065,-0.9683,-0.00154,0.03735,0.01866,-0.09296,-2.928,0.636,6.996,-0.1523,-0.965,-0.0,0.0371,0.01892,-0.009834,-2.924,-0.6694,7.0,0.2231,-0.9746,0.0,0.0
1738776347260272502,-3.05,0.7427,7.03,-0.1981,-0.9736,-0.001628,0.0374,0.01826,-0.0929,-2.928,0.5835,6.996,-0.1328,-0.9727,-0.0,0.0372,0.01796,-0.00968,-2.9,-0.7666,7.0,0.2556,-0.967,0.0,0.0
1738776347310215950,-3.062,0.68,7.03,-0.1836,-0.983,-0.001549,0.03745,0.0179,-0.0929,-2.928,0.557,6.996,-0.1211,-0.9766,-0.0,0.0373,0.0177,-0.009514,-2.9,-0.7666,7.0,0.2556,-0.967,0.0,0.0
1738776347360241174,-3.072,0.629,7.03,-0.1721,-0.99,-0.001019,0.03748,0.01772,-0.0929,-2.945,0.504,6.996,-0.1094,-0.9844,-0.0,0.0373,0.01735,-0.009346,-2.873,-0.863,7.0,0.2876,-0.9575,0.0,0.0
1738776347410203933,-3.08,0.581,7.03,-0.1616,-0.997,-0.000648,0.0375,0.01762,-0.0929,-2.945,0.451,6.996,-0.10156,-0.9883,-0.0,0.0372,0.01727,-0.00926,-2.873,-0.863,7.0,0.2876,-0.9575,0.0,0.0
1738776347460244655,-3.088,0.5293,7.03,-0.1504,-1.004,-0.000506,0.03754,0.01749,-0.09296,-2.945,0.398,6.996,-0.08594,-0.996,-0.0,0.0373,0.01718,-0.00918,-2.844,-0.958,7.0,0.3193,-0.9478,0.0,0.0
1738776347510206460,-3.096,0.4807,7.03,-0.1403,-1.011,-0.000514,0.03754,0.01738,-0.09296,-2.963,0.3447,6.996,-0.0742,-1.0,-0.0,0.0373,0.017,-0.00901,-2.844,-0.958,7.0,0.3193,-0.9478,0.0,0.0
1738776347560248374,-3.102,0.428,7.03,-0.1294,-1.018,-0.0006,0.03757,0.01732,-0.0931,-2.963,0.2917,6.996,-0.0625,-1.008,-0.0,0.03738,0.01692,-0.00892,-2.809,-1.053,7.0,0.3508,-0.9365,0.0,0.0
1738776347610214948,-3.107,0.379,7.03,-0.1195,-1.024,-0.000464,0.03757,0.0173,-0.09314,-2.963,0.2654,6.996,-0.0547,-1.012,-0.0,0.0373,0.01683,-0.008835,-2.809,-1.053,7.0,0.3508,-0.9365,0.0,0.0
1738776347660224676,-3.115,0.3254,7.03,-0.10895,-1.031,-0.000564,0.03757,0.01729,-0.0932,-2.963,0.2123,6.996,-0.03906,-1.02,-0.0,0.0373,0.01683,-0.00875,-2.773,-1.1455,7.0,0.3818,-0.9243,0.0,0.0
1738776347710203647,-3.12,0.276,7.03,-0.09924,-1.037,-0.000432,0.03732,0.01746,-0.0933,-2.963,0.1592,6.996,-0.03125,-1.023,-0.0,0.0373,0.01683,-0.00875,-2.773,-1.1455,7.0,0.3818,-0.9243,0.0,0.0
1738776347760246992,-3.125,0.2217,7.03,-0.0882,-1.044,-0.000191,0.0347,0.02008,-0.0934,-2.98,0.1062,6.996,-0.01953,-1.031,-0.0,0.03677,0.01733,-0.00866,-2.732,-1.237,7.0,0.4124,-0.911,0.0,0.0
1738776347810209035,-3.129,0.1715,7.03,-0.0766,-1.048,-0.000469,0.03232,0.02254,-0.0935,-2.98,0.07965,6.996,-0.01172,-1.035,-0.0,0.03488,0.01923,-0.00873,-2.732,-1.237,7.0,0.4124,-0.911,0.0,0.0
1738776347860272884,-3.13,0.12115,7.03,-0.06415,-1.052,-0.001061,0.03055,0.02422,-0.0936,-2.98,0.0001336,6.996,0.0,-1.039,-0.0,0.03168,0.02242,-0.00888,-2.69,-1.327,7.0,0.4426,-0.897,0.0,0.0
1738776347910220623,-3.135,0.0664,7.03,-0.0499,-1.055,-0.001653,0.02917,0.02553,-0.0937,-2.98,-0.0529,6.996,0.007812,-1.039,-0.0,0.03029,0.02379,-0.008965,-2.69,-1.327,7.0,0.4426,-0.897,0.0,0.0
1738776347960517644,-3.137,0.01149,7.03,-0.03525,-1.057,-0.002232,0.02832,0.02638,-0.09375,-2.98,-0.1059,7.0,0.02344,-1.043,-0.0,0.02881,0.02525,-0.00922,-2.645,-1.416,7.0,0.4722,-0.8813,0.0,0.0
1738776348010252475,-3.139,-0.03928,7.03,-0.02151,-1.059,-0.002604,0.02783,0.0269,-0.0938,-2.98,-0.1324,6.996,0.03125,-1.043,-0.0,0.02837,0.02568,-0.00939,-2.645,-1.416,7.0,0.4722,-0.8813,0.0,0.0
1738776348060251235,-3.139,-0.09015,7.03,-0.007698,-1.061,-0.00301,0.02753,0.02724,-0.0938,-2.98,-0.212,7.0,0.05078,-1.043,-0.0,0.02759,0.02646,-0.00957,-2.596,-1.504,7.0,0.5015,-0.865,0.0,0.0
1738776348110235214,-3.139,-0.1454,7.03,0.007248,-1.0625,-0.003658,0.02719,0.02756,-0.0938,-2.98,-0.2385,7.0,0.0625,-1.047,-0.0,0.0274,0.02664,-0.009735,-2.596,-1.504,7.0,0.5015,-0.865,0.0,0.0
1738776348160251617,-3.139,-0.1964,7.03,0.02129,-1.063,-0.0044,0.0259,0.02885,-0.0938,-2.98,-0.2915,7.0,0.0781,-1.047,-0.0,0.0268,0.02724,-0.00991,-2.545,-1.59,7.0,0.53,-0.848,0.0,0.0
1738776348210261821,-3.137,-0.2517,7.03,0.03717,-1.064,-0.005356,0.02452,0.0303,-0.09375,-2.98,-0.3445,7.0,0.08984,-1.047,-0.0,0.02592,0.0281,-0.010086,-2.545,-1.59,7.0,0.53,-0.848,0.0,0.0
1738776348260264873,-3.135,-0.3027,7.03,0.05225,-1.064,-0.007225,0.02359,0.03117,-0.0937,-2.98,-0.3975,7.0,0.10547,-1.047,-0.0,0.0242,0.02982,-0.00974,-2.49,-1.674,7.0,0.5576,-0.83,0.0,0.0
1738776348310274362,-3.13,-0.3582,7.03,0.0688,-1.064,-0.00953,0.02277,0.03186,-0.0937,-2.98,-0.4507,7.0,0.1172,-1.043,-0.003906,0.02351,0.0305,-0.00948,-2.49,-1.674,7.0,0.5576,-0.83,0.0,0.0
1738776348360260963,-3.127,-0.4133,7.03,0.08575,-1.063,-0.01183,0.02101,0.03363,-0.09375,-2.98,-0.5034,7.0,0.1328,-1.043,-0.003906,0.02248,0.03134,-0.00923,-2.434,-1.756,7.0,0.585,-0.811,0.0,0.0
1738776348410219192,-3.123,-0.4644,7.027,0.1022,-1.062,-0.01429,0.01953,0.03516,-0.09375,-2.963,-0.5303,7.0,0.1445,-1.043,-0.007812,0.02135,0.03247,-0.00924,-2.434,-1.756,7.0,0.585,-0.811,0.0,0.0
1738776348460258722,-3.117,-0.5195,7.027,0.12054,-1.06,-0.01631,0.0184,0.03635,-0.0939,-2.963,-0.61,7.004,0.1641,-1.039,-0.007812,0.01918,0.0346,-0.00908,-2.373,-1.836,7.0,0.612,-0.791,0.0,0.0
1738776348510205984,-3.111,-0.5703,7.027,0.1378,-1.058,-0.0175,0.01758,0.03723,-0.0939,-2.963,-0.636,7.0,0.1758,-1.035,-0.01172,0.0185,0.0355,-0.00917,-2.373,-1.836,7.0,0.612,-0.791,0.0,0.0
1738776348560287952,-3.11,-0.5747,7.027,0.1393,-1.057,-0.01761,0.01747,0.0373,-0.0939,-2.963,-0.6626,7.004,0.1836,-1.035,-0.01172,0.01796,0.036,-0.00917,-2.31,-1.914,7.0,0.6377,-0.77,0.0,0.0
1738776348610308885,-3.096,-0.676,7.027,0.1744,-1.051,-0.01971,0.01432,0.03827,-0.094,-2.945,-0.742,7.004,0.207,-1.027,-0.01172,0.01624,0.03687,-0.009285,-2.31,-1.914,7.0,0.6377,-0.77,0.0,0.0
1738776348660259723,-3.09,-0.705,7.023,0.1863,-1.05,-0.02003,0.01366,0.039,-0.09406,-2.928,-0.7954,7.004,0.2305,-1.02,-0.01172,0.01407,0.03763,-0.009315,-2.246,-1.989,7.0,0.663,-0.7485,0.0,0.0
1738776348710305929,-3.076,-0.7803,7.023,0.2124,-1.042,-0.02214,0.01245,0.04126,-0.09406,-2.928,-0.848,7.004,0.2383,-1.016,-0.01172,0.01329,0.03873,-0.009415,-2.246,-1.989,7.0,0.663,-0.7485,0.0,0.0
1738776348760339736,-3.064,-0.8345,7.023,0.233,-1.037,-0.02382,0.01195,0.04355,-0.09406,-2.928,-0.9014,7.004,0.2617,-1.008,-0.01563,0.01232,0.0407,-0.00959,-2.178,-2.062,7.0,0.688,-0.726,0.0,0.0
1738776348810342311,-3.053,-0.8843,7.02,0.2532,-1.032,-0.02487,0.01166,0.04547,-0.0941,-2.91,-0.9277,7.004,0.2734,-1.004,-0.01563,0.01206,0.04202,-0.00959,-2.178,-2.062,7.0,0.688,-0.726,0.0,0.0
1738776348860297918,-3.04,-0.9336,7.02,0.2737,-1.028,-0.02486,0.01148,0.0469,-0.09406,-2.893,-1.008,7.004,0.2969,-0.996,-0.01563,0.01161,0.04486,-0.00967,-2.107,-2.135,7.0,0.7114,-0.7026,0.0,0.0
1738776348910283803,-3.025,-0.987,7.02,0.2966,-1.023,-0.02422,0.01124,0.04816,-0.0941,-2.893,-1.034,7.004,0.3125,-0.992,-0.01563,0.01153,0.0458,-0.00941,-2.107,-2.135,7.0,0.7114,-0.7026,0.0,0.0
1738776348960274696,-3.01,-1.036,7.02,0.318,-1.019,-0.02408,0.009964,0.04993,-0.0941,-2.875,-1.087,7.004,0.336,-0.9844,-0.01563,0.01092,0.0476,-0.00924,-2.035,-2.203,7.0,0.7344,-0.6787,0.0,0.0
1738776349010289430,-2.992,-1.089,7.016,0.3423,-1.013,-0.02377,0.00849,0.05167,-0.0942,-2.875,-1.113,7.0,0.3477,-0.9805,-0.01563,0.01014,0.04855,-0.00908,-2.035,-2.203,7.0,0.7344,-0.6787,0.0,0.0
1738776349060274124,-2.977,-1.138,7.016,0.365,-1.007,-0.02371,0.0064,0.0528,-0.09424,-2.84,-1.193,7.0,0.375,-0.9688,-0.01563,0.00814,0.05087,-0.00912,-1.961,-2.27,7.0,0.757,-0.654,0.0,0.0
1738776349110315322,-2.965,-1.165,7.016,0.3745,-1.003,-0.02371,0.005222,0.05325,-0.0943,-2.84,-1.22,7.0,0.3906,-0.965,-0.01563,0.006588,0.05157,-0.00907,-1.961,-2.27,7.0,0.757,-0.654,0.0,0.0
1738776349160323858,-2.938,-1.237,7.01,0.4126,-0.9927,-0.02373,0.004387,0.05283,-0.09436,-2.822,-1.272,7.0,0.414,-0.953,-0.01563,0.004425,0.05215,-0.009125,-1.884,-2.334,7.0,0.7783,-0.628,0.0,0.0
1738776349210309743,-2.914,-1.289,7.01,0.4365,-0.985,-0.02332,0.00473,0.05188,-0.0945,-2.805,-1.325,7.0,0.4258,-0.949,-0.01563,0.004513,0.05173,-0.009125,-1.884,-2.334,7.0,0.7783,-0.628,0.0,0.0
1738776349260316610,-2.914,-1.293,7.01,0.4382,-0.9844,-0.0233,0.00473,0.05188,-0.0945,-2.77,-1.379,7.0,0.457,-0.9375,-0.01172,0.004864,0.05054,-0.0092,-1.806,-2.396,7.0,0.799,-0.6016,0.0,0.0
1738776349310307741,-2.871,-1.383,7.008,0.479,-0.9717,-0.0226,0.005207,0.0509,-0.0946,-2.752,-1.405,7.0,0.4727,-0.9336,-0.01172,0.005123,0.0501,-0.00919,-1.806,-2.396,7.0,0.799,-0.6016,0.0,0.0
1738776349360332250,-2.85,-1.425,7.008,0.498,-0.966,-0.02156,0.00436,0.05164,-0.09467,-2.752,-1.432,7.0,0.4844,-0.926,-0.01172,0.0053,0.04974,-0.00919,-1.725,-2.455,7.0,0.8184,-0.5747,0.0,0.0
1738776349410319089,-2.818,-1.482,7.008,0.5244,-0.957,-0.02078,0.002943,0.05292,-0.0947,-2.717,-1.484,7.0,0.5156,-0.918,-0.01172,0.004517,0.05054,-0.00921,-1.725,-2.455,7.0,0.8184,-0.5747,0.0,0.0
1738776349460298061,-2.791,-1.532,7.008,0.548,-0.9487,-0.01976,0.00204,0.05243,-0.0948,-2.682,-1.564,7.0,0.547,-0.9062,-0.01172,0.002958,0.05173,-0.00916,-1.642,-2.512,7.0,0.837,-0.5474,0.0,0.0
1738776349510293722,-2.766,-1.574,7.004,0.5664,-0.942,-0.01886,0.001477,0.05176,-0.09485,-2.646,-1.591,7.0,0.5664,-0.9023,-0.007812,0.002352,0.05145,-0.00926,-1.642,-2.512,7.0,0.837,-0.5474,0.0,0.0
1738776349560297727,-2.736,-1.623,7.004,0.5884,-0.9336,-0.01738,0.001007,0.0512,-0.0949,-2.613,-1.644,7.0,0.5938,-0.8906,-0.007812,0.001578,0.0505,-0.009285,-1.557,-2.564,7.0,0.855,-0.519,0.0,0.0
1738776349610295057,-2.705,-1.671,7.004,0.61,-0.925,-0.01646,0.000709,0.05063,-0.095,-2.596,-1.67,7.0,0.6055,-0.8867,-0.007812,0.001321,0.05026,-0.00929,-1.557,-2.564,7.0,0.855,-0.519,0.0,0.0
1738776349660300493,-2.676,-1.715,7.004,0.629,-0.9165,-0.01572,0.000512,0.04907,-0.09503,-2.543,-1.75,6.996,0.6367,-0.875,-0.003906,0.000981,0.04938,-0.00922,-1.471,-2.615,7.0,0.8716,-0.4902,0.0,0.0
1738776349710286855,-2.643,-1.763,7.0,0.6484,-0.908,-0.01464,0.000338,0.0474,-0.0951,-2.525,-1.776,6.996,0.6523,-0.871,-0.003906,0.000814,0.0482,-0.00922,-1.471,-2.615,7.0,0.8716,-0.4902,0.0,0.0
1738776349760300874,-2.611,-1.806,7.0,0.665,-0.9,-0.013275,0.000206,0.04526,-0.0952,-2.49,-1.829,6.996,0.6797,-0.8594,-0.003906,0.0006547,0.0461,-0.00905,-1.383,-2.662,7.0,0.887,-0.461,0.0,0.0
1738776349810295581,-2.576,-1.853,7.0,0.682,-0.891,-0.01241,-2.7e-05,0.04312,-0.09534,-2.455,-1.855,6.996,0.6914,-0.8516,-0.003906,0.000578,0.04446,-0.008965,-1.383,-2.662,7.0,0.887,-0.461,0.0,0.0
1738776349860300302,-2.54,-1.898,7.0,0.698,-0.882,-0.01169,-0.000923,0.04163,-0.0954,-2.402,-1.936,6.996,0.715,-0.8438,-0.0,0.0001497,0.04196,-0.00932,-1.293,-2.707,7.0,0.9023,-0.4312,0.0,0.0
1738776349910295724,-2.518,-1.927,7.0,0.7075,-0.8755,-0.01112,-0.002329,0.041,-0.0954,-2.367,-1.962,6.996,0.7266,-0.836,-0.0,-0.0007977,0.04102,-0.00943,-1.293,-2.707,7.0,0.9023,-0.4312,0.0,0.0
1738776349960321187,-2.469,-1.986,7.0,0.7266,-0.862,-0.01057,-0.00458,0.03918,-0.09546,-2.332,-2.016,6.996,0.75,-0.824,-0.0,-0.002953,0.03934,-0.00964,-1.202,-2.748,7.0,0.916,-0.401,0.0,0.0
1738776350010301589,-2.447,-2.018,7.0,0.736,-0.8564,-0.0103,-0.00618,0.03778,-0.09546,-2.314,-2.041,6.996,0.754,-0.8203,-0.0,-0.00407,0.0384,-0.00966,-1.202,-2.748,7.0,0.916,-0.401,0.0,0.0
1738776350060266971,-2.398,-2.068,6.996,0.75,-0.8394,-0.00979,-0.00839,0.0347,-0.09546,-2.246,-2.094,6.996,0.7734,-0.8047,-0.0,-0.00682,0.0358,-0.009705,-1.11,-2.787,7.0,0.929,-0.37,0.0,0.0
1738776350110299825,-2.357,-2.111,6.996,0.761,-0.826,-0.009186,-0.009544,0.0324,-0.0955,-2.229,-2.121,6.996,0.785,-0.797,-0.0,-0.007763,0.03415,-0.00963,-1.11,-2.787,7.0,0.929,-0.37,0.0,0.0
1738776350160327911,-2.322,-2.15,6.996,0.77,-0.8135,-0.00882,-0.011345,0.02986,-0.0955,-2.176,-2.174,6.996,0.797,-0.7812,-0.0,-0.00947,0.03104,-0.00947,-1.017,-2.822,7.0,0.941,-0.3389,0.0,0.0
1738776350210302114,-2.281,-2.191,6.996,0.7783,-0.799,-0.00881,-0.01323,0.02744,-0.0956,-2.158,-2.201,6.996,0.8047,-0.7773,-0.0,-0.010414,0.02956,-0.00939,-1.017,-2.822,7.0,0.941,-0.3389,0.0,0.0
1738776350260284662,-2.266,-2.209,6.996,0.7803,-0.793,-0.008675,-0.014145,0.02715,-0.0956,-2.088,-2.254,6.996,0.8164,-0.7617,-0.0,-0.01299,0.02644,-0.00967,-0.922,-2.855,7.0,0.9517,-0.3074,0.0,0.0
1738776350310285568,-2.203,-2.27,6.996,0.792,-0.7676,-0.007256,-0.01778,0.025,-0.09564,-2.053,-2.28,6.996,0.8203,-0.75,-0.0,-0.0148,0.02548,-0.00977,-0.922,-2.855,7.0,0.9517,-0.3074,0.0,0.0
1738776350360251188,-2.162,-2.31,6.996,0.7983,-0.75,-0.00584,-0.01932,0.02438,-0.0956,-2.018,-2.334,6.996,0.828,-0.7344,-0.0,-0.01738,0.02426,-0.009964,-0.826,-2.885,7.0,0.9614,-0.2754,0.0,0.0
1738776350410276412,-2.127,-2.342,6.996,0.8037,-0.735,-0.00507,-0.02026,0.024,-0.0956,-1.982,-2.36,6.996,0.832,-0.7227,-0.0,-0.01825,0.02391,-0.00997,-0.826,-2.885,7.0,0.9614,-0.2754,0.0,0.0
1738776350460261821,-2.084,-2.38,6.996,0.8096,-0.717,-0.00463,-0.02103,0.02359,-0.0956,-1.931,-2.412,6.996,0.84,-0.703,-0.0,-0.01962,0.02338,-0.00999,-0.73,-2.91,7.0,0.9697,-0.2433,0.0,0.0
1738776350510319471,-2.074,-2.389,6.996,0.811,-0.7124,-0.004562,-0.02112,0.02354,-0.0956,-1.8955,-2.44,6.996,0.8438,-0.6914,-0.0,-0.02014,0.02321,-0.01008,-0.73,-2.91,7.0,0.9697,-0.2433,0.0,0.0
1738776350560299634,-1.999,-2.453,6.996,0.821,-0.6797,-0.003729,-0.0233,0.02179,-0.0955,-1.878,-2.465,6.996,0.8477,-0.6836,-0.0,-0.0204,0.02295,-0.01008,-0.6323,-2.932,7.0,0.9775,-0.2108,0.0,0.0
1738776350610301494,-1.967,-2.484,6.996,0.8247,-0.6616,-0.003082,-0.02486,0.02077,-0.09546,-1.808,-2.52,6.996,0.8516,-0.66,0.003906,-0.02203,0.02164,-0.009995,-0.6323,-2.932,7.0,0.9775,-0.2108,0.0,0.0
1738776350660296916,-1.937,-2.504,6.992,0.827,-0.651,-0.002935,-0.0261,0.0199,-0.09546,-1.756,-2.545,6.996,0.8594,-0.6367,0.003906,-0.02428,0.01991,-0.00991,-0.534,-2.951,7.0,0.984,-0.1781,0.0,0.0
1738776350710311889,-1.877,-2.545,6.992,0.832,-0.622,-0.002905,-0.02922,0.01884,-0.09546,-1.721,-2.572,6.996,0.8633,-0.625,0.003906,-0.02591,0.0193,-0.009834,-0.534,-2.951,7.0,0.984,-0.1781,0.0,0.0
1738776350760320425,-1.837,-2.578,6.992,0.8354,-0.602,-0.002638,-0.03061,0.01831,-0.0954,-1.668,-2.625,6.996,0.8633,-0.6016,0.003906,-0.02866,0.01825,-0.00976,-0.4355,-2.969,7.0,0.9893,-0.1453,0.0,0.0
1738776350810330867,-1.793,-2.61,6.992,0.8384,-0.58,-0.002644,-0.0318,0.01802,-0.0954,-1.65,-2.625,6.996,0.867,-0.59,0.003906,-0.02936,0.01808,-0.00959,-0.4355,-2.969,7.0,0.9893,-0.1453,0.0,0.0
1738776350860259056,-1.753,-2.637,6.992,0.8413,-0.5596,-0.002577,-0.03363,0.01782,-0.09546,-1.581,-2.678,6.996,0.871,-0.5625,0.003906,-0.03108,0.01773,-0.009514,-0.3364,-2.98,7.0,0.9937,-0.1122,0.0,0.0
1738776350910251379,-1.709,-2.666,6.992,0.844,-0.536,-0.002293,-0.03537,0.01773,-0.09546,-1.546,-2.705,6.996,0.871,-0.547,0.003906,-0.03238,0.01762,-0.00944,-0.3364,-2.98,7.0,0.9937,-0.1122,0.0,0.0
1738776350960264444,-1.669,-2.691,6.992,0.847,-0.514,-0.001984,-0.0365,0.01765,-0.0955,-1.528,-2.705,6.996,0.871,-0.5312,0.003906,-0.03348,0.01755,-0.00936,-0.2369,-2.99,7.0,0.997,-0.079,0.0,0.0
1738776351010289907,-1.651,-2.701,6.992,0.8486,-0.5107,-0.001927,-0.03687,0.01762,-0.0955,-1.476,-2.73,6.996,0.875,-0.504,0.003906,-0.03522,0.01753,-0.009285,-0.2369,-2.99,7.0,0.997,-0.079,0.0,0.0
1738776351060281038,-1.584,-2.74,6.992,0.8535,-0.4685,-0.000862,-0.0378,0.01888,-0.09564,-1.406,-2.758,6.996,0.879,-0.4688,0.003906,-0.03644,0.0177,-0.00922,-0.1371,-2.996,7.0,0.999,-0.04572,0.0,0.0
1738776351110287427,-1.539,-2.764,6.992,0.8574,-0.4448,-0.001314,-0.03812,0.02008,-0.0957,-1.371,-2.783,6.996,0.879,-0.4492,0.003906,-0.03677,0.01874,-0.00915,-0.1371,-2.996,7.0,0.999,-0.04572,0.0,0.0
1738776351160278320,-1.498,-2.783,6.992,0.8613,-0.423,-0.001407,-0.03827,0.02084,-0.09576,-1.318,-2.81,6.996,0.883,-0.418,0.003906,-0.0372,0.0202,-0.009186,-0.03717,-3.0,7.0,1.0,-0.01239,0.0,0.0
1738776351210296869,-1.456,-2.805,6.992,0.8657,-0.4016,-0.001242,-0.03824,0.02148,-0.0959,-1.301,-2.81,6.996,0.883,-0.4023,0.003906,-0.03723,0.02055,-0.009186,-0.03717,-3.0,7.0,1.0,-0.01239,0.0,0.0
1738776351260283708,-1.411,-2.824,6.992,0.871,-0.379,-0.001423,-0.03705,0.02187,-0.09595,-1.248,-2.836,6.996,0.8867,-0.371,0.003906,-0.03714,0.0215,-0.00921,0.0628,-3.0,7.0,1.0,0.02095,0.0,0.0
1738776351310302257,-1.411,-2.828,6.992,0.871,-0.3706,-0.001376,-0.03693,0.02191,-0.09595,-1.214,-2.836,6.996,0.8906,-0.3516,0.003906,-0.0362,0.02176,-0.00938,0.0628,-3.0,7.0,1.0,0.02095,0.0,0.0
1738776351360297679,-1.323,-2.86,6.992,0.881,-0.3384,-0.000653,-0.03348,0.02357,-0.096,-1.161,-2.863,6.996,0.8945,-0.3203,0.003906,-0.03412,0.02246,-0.009445,0.1627,-2.996,7.0,0.9985,0.05426,0.0,0.0
1738776351410297632,-1.277,-2.877,6.992,0.886,-0.3193,-0.000354,-0.03146,0.02501,-0.09607,-1.126,-2.863,6.996,0.8984,-0.3086,0.003906,-0.033,0.02324,-0.009445,0.1627,-2.996,7.0,0.9985,0.05426,0.0,0.0
1738776351460258007,-1.235,-2.893,6.992,0.892,-0.3027,-0.000542,-0.03012,0.0259,-0.0961,-1.073,-2.89,6.996,0.9023,-0.2812,0.003906,-0.03024,0.02515,-0.00962,0.2625,-2.988,7.0,0.996,0.0875,0.0,0.0
1738776351510310411,-1.192,-2.906,6.992,0.898,-0.2869,-0.001348,-0.02919,0.0264,-0.0961,-1.038,-2.89,6.996,0.9062,-0.2656,0.003906,-0.02939,0.02585,-0.00979,0.2625,-2.988,7.0,0.996,0.0875,0.0,0.0
1738776351560310363,-1.1455,-2.92,6.992,0.905,-0.2705,-0.001949,-0.02852,0.0268,-0.0961,-1.021,-2.89,6.996,0.91,-0.254,0.003906,-0.0288,0.02611,-0.00987,0.362,-2.979,7.0,0.9927,0.12067,0.0,0.0
1738776351610301971,-1.098,-2.934,6.992,0.911,-0.2544,-0.002605,-0.02798,0.02708,-0.09607,-0.951,-2.916,6.996,0.918,-0.2344,0.003906,-0.02785,0.0267,-0.010124,0.362,-2.979,7.0,0.9927,0.12067,0.0,0.0
1738776351660258054,-1.054,-2.945,6.992,0.9175,-0.2404,-0.003431,-0.02655,0.02722,-0.09607,-0.8984,-2.916,6.996,0.926,-0.207,0.003906,-0.02707,0.02696,-0.01029,0.461,-2.965,7.0,0.9883,0.1537,0.0,0.0
1738776351710268974,-1.01,-2.957,6.992,0.9233,-0.227,-0.00389,-0.02516,0.02733,-0.096,-0.864,-2.943,6.996,0.9297,-0.1953,-0.0,-0.02605,0.02715,-0.010284,0.461,-2.965,7.0,0.9883,0.1537,0.0,0.0
1738776351760249853,-0.9653,-2.969,6.992,0.929,-0.2175,-0.003902,-0.02415,0.02748,-0.09595,-0.846,-2.943,6.996,0.9336,-0.1875,-0.0,-0.02501,0.02715,-0.010445,0.5596,-2.947,7.0,0.9824,0.1865,0.0,0.0
1738776351810297250,-0.917,-2.979,6.992,0.9355,-0.2014,-0.003986,-0.0233,0.02753,-0.0958,-0.7764,-2.943,6.996,0.9375,-0.168,-0.0,-0.02362,0.02733,-0.01051,0.5596,-2.947,7.0,0.9824,0.1865,0.0,0.0
1738776351860280275,-0.868,-2.988,6.992,0.942,-0.1891,-0.004147,-0.02158,0.02756,-0.0957,-0.706,-2.943,6.996,0.949,-0.1484,-0.0,-0.02234,0.02742,-0.01058,0.657,-2.928,7.0,0.9756,0.2191,0.0,0.0
1738776351910295724,-0.8228,-2.998,6.992,0.9478,-0.1787,-0.004257,-0.02014,0.02756,-0.09564,-0.6714,-2.969,6.996,0.953,-0.1367,-0.0,-0.02112,0.02742,-0.01065,0.657,-2.928,7.0,0.9756,0.2191,0.0,0.0
1738776351960274219,-0.7734,-3.006,6.992,0.9536,-0.168,-0.004356,-0.02019,0.02757,-0.09546,-0.6187,-2.969,6.996,0.957,-0.125,-0.0,-0.0194,0.02744,-0.01071,0.755,-2.904,7.0,0.968,0.2515,0.0,0.0
1738776352010293006,-0.7236,-3.016,6.992,0.9595,-0.1571,-0.004333,-0.02057,0.02757,-0.09534,-0.6016,-2.969,6.996,0.961,-0.1172,-0.0,-0.01958,0.02744,-0.0108,0.755,-2.904,7.0,0.968,0.2515,0.0,0.0
1738776352060281276,-0.6772,-3.021,6.992,0.965,-0.1473,-0.003983,-0.01979,0.02762,-0.09515,-0.5312,-2.969,6.996,0.9688,-0.10156,-0.0,-0.01991,0.02744,-0.0108,0.851,-2.877,7.0,0.959,0.2837,0.0,0.0
1738776352110323429,-0.627,-3.03,6.992,0.9707,-0.1373,-0.003279,-0.01897,0.02765,-0.09503,-0.4963,-2.969,6.996,0.9727,-0.09375,-0.0,-0.01932,0.02753,-0.010796,0.851,-2.877,7.0,0.959,0.2837,0.0,0.0
1738776352160390138,-0.58,-3.037,6.992,0.976,-0.1282,-0.002592,-0.01945,0.02765,-0.0949,-0.444,-2.996,6.996,0.9766,-0.08203,-0.0,-0.01845,0.02753,-0.01079,0.9463,-2.848,7.0,0.9487,0.3154,0.0,0.0
1738776352210317850,-0.5293,-3.043,6.992,0.982,-0.11816,-0.001496,-0.02022,0.02766,-0.0947,-0.409,-2.996,6.996,0.9805,-0.0742,-0.0,-0.0188,0.02753,-0.01079,0.9463,-2.848,7.0,0.9487,0.3154,0.0,0.0
1738776352260252237,-0.4822,-3.049,6.992,0.987,-0.10864,-0.001059,-0.02078,0.02762,-0.09454,-0.339,-2.996,6.996,0.9844,-0.0625,0.003906,-0.01984,0.02751,-0.0108,1.041,-2.814,7.0,0.938,0.347,0.0,0.0
1738776352310265064,-0.4346,-3.053,6.99,0.992,-0.099,-0.000413,-0.02121,0.02757,-0.0944,-0.3042,-2.996,6.996,0.9883,-0.05078,0.003906,-0.02036,0.02751,-0.01081,1.041,-2.814,7.0,0.938,0.347,0.0,0.0
1738776352360271453,-0.3828,-3.059,6.99,0.9976,-0.0885,-0.000212,-0.02151,0.02754,-0.09424,-0.2866,-2.996,6.996,0.9883,-0.04688,0.003906,-0.02061,0.02742,-0.01082,1.134,-2.777,7.0,0.926,0.378,0.0,0.0
1738776352410338163,-0.3308,-3.062,6.99,1.003,-0.078,-0.000491,-0.02184,0.02734,-0.09406,-0.2167,-2.996,6.996,0.996,-0.03516,0.003906,-0.02095,0.02742,-0.01082,1.134,-2.777,7.0,0.926,0.378,0.0,0.0
