time,x_sphinx,y_sphinx,z_sphinx,vx_sphinx,vy_sphinx,vz_sphinx,roll_sphinx,pitch_sphinx,yaw_sphinx,x_anafi,y_anafi,z_anafi,vx_anafi,vy_anafi,vz_anafi,roll_anafi,pitch_anafi,yaw_anafi,wp_x,wp_y,wp_z,wp_vx,wp_vy,wp_vz,wp_yaw
1738837617391834259,0.00913,-0.044,0.9717,0.01359,0.01425,0.000758,-0.004894,-0.004177,0.0343,-0.007156,-0.053,0.996,0.007812,0.01172,-0.0,-0.004997,-0.003963,0.03772,0,0,0,0,0,0,0
1738837617441892385,0.00978,-0.04327,0.972,0.01339,0.01645,2.8e-05,-0.004898,-0.00427,0.03436,-0.007156,-0.053,1.0,0.007812,0.01563,-0.0,-0.004997,-0.003963,0.03772,0,0,0,0,0,0,0
1738837617491834640,0.010475,-0.04236,0.9717,0.01314,0.01881,-0.000109,-0.004925,-0.004288,0.0344,-0.007156,-0.053,0.996,0.007812,0.01563,-0.0,-0.005,-0.004135,0.0378,0,0,0,0,0,0,0
1738837617541855335,0.0111,-0.0414,0.972,0.01295,0.02097,0.000474,-0.00491,-0.00413,0.03442,-0.007156,-0.053,0.996,0.007812,0.01953,-0.0,-0.005,-0.004135,0.0378,0,0,0,0,0,0,0
1738837617591825723,0.011765,-0.04025,0.972,0.01281,0.02328,0.000833,-0.004898,-0.004066,0.0345,-0.007156,-0.053,0.996,0.007812,0.01953,-0.0,-0.004997,-0.003963,0.0378,0,0,0,0,0,0,0
1738837617641850471,0.01238,-0.0391,0.972,0.01269,0.02539,0.000439,-0.00489,-0.004124,0.0345,-0.007156,-0.053,0.996,0.007812,0.02344,-0.0,-0.004997,-0.003963,0.0379,0,0,0,0,0,0,0
1738837617691847085,0.01303,-0.03772,0.972,0.012505,0.02763,0.000176,-0.0049,-0.0042,0.03455,-0.007156,-0.053,0.996,0.003906,0.02344,-0.0,-0.004997,-0.003963,0.0378,0,0,0,0,0,0,0
1738837617741886377,0.01363,-0.03632,0.972,0.012344,0.02966,0.000334,-0.00475,-0.004112,0.03458,-0.007156,-0.053,0.996,0.003906,0.02734,-0.0,-0.005085,-0.004047,0.0379,0,0,0,0,0,0,0
1738837617791890621,0.01427,-0.03473,0.972,0.01222,0.03143,-0.00025,-0.003378,-0.00413,0.03464,-0.007156,-0.02649,1.0,0.003906,0.02734,-0.0,-0.004562,-0.003885,0.0379,0,0,0,0,0,0,0
1738837617841896533,0.014854,-0.0332,0.972,0.01209,0.03247,-0.000786,-0.002235,-0.00418,0.03467,-0.007156,-0.02649,1.0,0.003906,0.03125,-0.0,-0.0037,-0.0039,0.0379,0,0,0,0,0,0,0
1738837617891891241,0.01543,-0.03162,0.972,0.01198,0.03302,-0.001054,-0.00137,-0.004177,0.03473,-0.007156,-0.02649,1.0,0.003906,0.03125,-0.0,-0.002146,-0.00393,0.0379,0,0,0,0,0,0,0
1738837617941902875,0.0161,-0.02977,0.9717,0.01188,0.03323,-0.000724,-0.000698,-0.004086,0.03476,-0.007156,-0.02649,1.0,0.003906,0.03125,-0.0,-0.001456,-0.003944,0.0379,0,0,0,0,0,0,0
1738837617991889238,0.01662,-0.0283,0.9717,0.01187,0.03317,0.000627,-0.000335,-0.00393,0.0348,-0.007156,-0.02649,0.996,0.003906,0.03125,-0.0,-0.0007625,-0.003784,0.0379,0,0,0,0,0,0,0
1738837618041898250,0.01724,-0.02658,0.972,0.01193,0.03296,0.001073,-7.6e-05,-0.003895,0.03485,-0.007156,-0.02649,0.996,0.003906,0.03125,-0.0,-0.0005016,-0.003702,0.0379,0,0,0,0,0,0,0
1738837618091892957,0.01785,-0.02489,0.972,0.01195,0.03265,0.00122,5.8e-05,-0.00404,0.03488,-0.007156,-0.02649,0.996,0.003906,0.03125,-0.0,-0.0002413,-0.003622,0.0379,0,0,0,0,0,0,0
1738837618141894817,0.01843,-0.02332,0.972,0.011925,0.03232,0.001577,0.000117,-0.004063,0.0349,-0.007156,-0.02649,0.996,0.003906,0.03125,-0.0,-7.194e-05,-0.003798,0.0379,0,0,0,0,0,0,0
1738837618191894292,0.01906,-0.02165,0.972,0.011894,0.03195,0.002296,0.00016,-0.00407,0.03497,-0.007156,-0.02649,0.996,0.003906,0.02734,-0.0,-7.194e-05,-0.003798,0.0379,0,0,0,0,0,0,0
1738837618241921424,0.01962,-0.02013,0.972,0.011856,0.0316,0.002638,0.000174,-0.0041,0.03503,-0.007156,-0.02649,0.996,0.003906,0.02734,-0.0,-7.194e-05,-0.003798,0.0379,0,0,0,0,0,0,0
1738837618291891574,0.02023,-0.0185,0.9727,0.0118,0.03119,0.002878,0.000196,-0.004147,0.0351,-0.007156,-0.02649,0.996,0.003906,0.02734,-0.0,1.27e-05,-0.003885,0.0379,0,0,0,0,0,0,0
1738837618341912269,0.02084,-0.01688,0.9727,0.011734,0.03079,0.002905,0.000181,-0.004147,0.03513,-0.007156,-0.02649,0.996,0.003906,0.02734,-0.0,1.27e-05,-0.003885,0.0379,0,0,0,0,0,0,0
1738837618391902208,0.02136,-0.01553,0.9727,0.01166,0.03047,0.001896,0.000155,-0.00424,0.0352,-0.007156,-0.02649,0.996,0.003906,0.02734,-0.0,1.27e-05,-0.003885,0.0379,0,0,0,0,0,0,0
1738837618441898584,0.02197,-0.01396,0.9727,0.01152,0.03009,0.000783,0.000172,-0.004314,0.03522,-0.007156,-0.02649,1.0,0.003906,0.02734,-0.0,9.74e-05,-0.003975,0.0379,0,0,0,0,0,0,0
1738837618491902828,0.02252,-0.01253,0.9727,0.011375,0.02975,0.000279,0.000164,-0.004276,0.03528,-0.007156,-0.02649,0.996,0.003906,0.02734,-0.0,9.4e-06,-0.00406,0.0379,0,0,0,0,0,0,0
1738837618541903734,0.0231,-0.01099,0.9727,0.01129,0.02939,0.000313,0.000137,-0.004105,0.0353,-0.007156,-0.02649,0.996,0.003906,0.02734,-0.0,9.74e-05,-0.003975,0.0379,0,0,0,0,0,0,0
1738837618591907739,0.02365,-0.00958,0.9727,0.01126,0.02907,-0.000983,0.000131,-0.004128,0.03534,-0.007156,-0.02649,1.0,0.003906,0.02344,-0.0,1.27e-05,-0.003885,0.0379,0,0,0,0,0,0,0
1738837618641899585,0.02423,-0.00808,0.9727,0.011185,0.02873,-0.001859,0.000134,-0.00418,0.0354,-0.007156,-0.02649,1.0,0.003906,0.02344,-0.0,1.27e-05,-0.003885,0.0379,0,0,0,0,0,0,0
1738837618691893815,0.02481,-0.006596,0.9727,0.011116,0.0284,-0.002028,0.000115,-0.004093,0.03546,-0.007156,-0.02649,1.0,0.003906,0.02344,-0.0,1.27e-05,-0.003885,0.0379,0,0,0,0,0,0,0
1738837618741903781,0.02534,-0.00524,0.9727,0.011116,0.02809,-0.001559,0.000115,-0.00397,0.03552,-0.007156,-0.02649,1.0,0.003906,0.02344,-0.0,1.27e-05,-0.003885,0.0379,0,0,0,0,0,0,0
1738837618791903018,0.02592,-0.003788,0.9727,0.011185,0.02779,0.000448,8.7e-05,-0.003786,0.03558,-0.007156,-0.02649,0.996,0.003906,0.02344,-0.0,1.6e-05,-0.003714,0.0379,0,0,0,0,0,0,0
1738837618841897726,0.02646,-0.00246,0.9727,0.01132,0.02753,0.00106,8.3e-05,-0.00377,0.0356,-0.007156,-0.02649,0.996,0.003906,0.02344,-0.0,1.925e-05,-0.00354,0.0379,0,0,0,0,0,0,0
1738837618891912460,0.02701,-0.001146,0.9727,0.01139,0.02724,0.001209,8.4e-05,-0.003967,0.03568,-0.007156,2.867e-05,0.996,0.003906,0.02344,-0.0,1.925e-05,-0.00354,0.0379,0,0,0,0,0,0,0
1738837618941907644,0.0276,0.000263,0.9727,0.011375,0.02696,0.001444,7.5e-05,-0.00408,0.0357,-0.007156,2.867e-05,0.996,0.003906,0.02344,-0.0,1.6e-05,-0.003714,0.0379,0,0,0,0,0,0,0
1738837618991886854,0.0282,0.001657,0.9727,0.011345,0.02667,0.002714,6.7e-05,-0.004036,0.03574,-0.007156,2.867e-05,0.996,0.003906,0.02344,-0.0,1.27e-05,-0.003885,0.0379,0,0,0,0,0,0,0
1738837619041826963,0.02873,0.002932,0.9727,0.011345,0.02641,0.00203,8.5e-05,-0.0041,0.03583,-0.007156,2.867e-05,0.996,0.003906,0.01953,-0.0,-7.194e-05,-0.003798,0.0379,0,0,0,0,0,0,0
1738837619091801166,0.02928,0.004192,0.973,0.01124,0.02614,0.000952,0.000108,-0.004333,0.03586,-0.007156,2.867e-05,1.0,0.003906,0.01953,-0.0,1.27e-05,-0.003885,0.0379,0,0,0,0,0,0,0
1738837619141799926,0.02986,0.005543,0.973,0.01107,0.02585,7.8e-05,7.9e-05,-0.004326,0.03592,0.01033,2.867e-05,1.0,0.003906,0.01953,-0.0,9.4e-06,-0.00406,0.0379,0,0,0,0,0,0,0
1738837619191793203,0.03038,0.00678,0.973,0.01094,0.02559,-0.000583,9.5e-05,-0.004276,0.03598,0.01033,2.867e-05,1.0,0.003906,0.01953,-0.0,9.4e-06,-0.00406,0.0379,0,0,0,0,0,0,0
1738837619241790771,0.03094,0.0081,0.973,0.01084,0.0253,-0.000982,0.000122,-0.00418,0.03604,0.01033,2.867e-05,1.0,0.003906,0.01953,-0.0,9.4e-06,-0.00406,0.0379,0,0,0,0,0,0,0
1738837619291797399,0.03146,0.00931,0.9727,0.01078,0.02504,-0.000739,9.8e-05,-0.00411,0.0361,0.01033,2.867e-05,0.996,0.003906,0.01953,-0.0,1.27e-05,-0.003885,0.0379,0,0,0,0,0,0,0
1738837619341776847,0.03204,0.010605,0.9727,0.01079,0.02477,0.000286,0.000104,-0.003925,0.03616,0.01033,2.867e-05,0.996,0.003906,0.01953,-0.0,1.25e-05,-0.003885,0.038,0,0,0,0,0,0,0
1738837619391775131,0.03256,0.01179,0.9727,0.01086,0.02452,0.000907,0.000104,-0.003895,0.03616,0.01033,2.867e-05,0.996,0.003906,0.01953,-0.0,-6.884e-05,-0.003624,0.038,0,0,0,0,0,0,0
1738837619441773891,0.0331,0.013054,0.973,0.0109,0.02425,0.000575,8.2e-05,-0.003994,0.03622,0.01033,2.867e-05,1.0,0.003906,0.01953,-0.0,-6.884e-05,-0.003624,0.038,0,0,0,0,0,0,0
1738837619491780519,0.03363,0.01421,0.973,0.01088,0.02402,-0.000165,5.3e-05,-0.00416,0.0363,0.01033,2.867e-05,1.0,0.003906,0.01953,-0.0,-7.21e-05,-0.003798,0.038,0,0,0,0,0,0,0
1738837619541842222,0.0342,0.01546,0.973,0.01079,0.02377,-0.001,4e-05,-0.004223,0.03635,0.01033,2.867e-05,1.0,0.003906,0.01953,-0.0,-7.52e-05,-0.00397,0.0379,0,0,0,0,0,0,0
1738837619591822862,0.03476,0.01668,0.9727,0.01069,0.02356,-0.001475,7e-06,-0.00419,0.03638,0.01033,2.867e-05,1.0,0.003906,0.01953,-0.0,-7.54e-05,-0.00397,0.038,0,0,0,0,0,0,0
1738837619641847848,0.03528,0.0178,0.9727,0.01063,0.02335,-0.002659,1.7e-05,-0.00417,0.03644,0.01033,2.867e-05,1.0,0.003906,0.01563,-0.0,-7.54e-05,-0.00397,0.038,0,0,0,0,0,0,0
1738837619691882610,0.03577,0.01892,0.9727,0.010544,0.02315,-0.00401,4.1e-05,-0.004227,0.03647,0.01033,2.867e-05,1.0,0.003906,0.01563,-0.0,-7.54e-05,-0.00397,0.038,0,0,0,0,0,0,0
1738837619741885900,0.03632,0.02013,0.972,0.010445,0.02292,-0.005272,2.5e-05,-0.004234,0.03653,0.01033,2.867e-05,1.0,0.003906,0.01563,-0.0,-7.54e-05,-0.00397,0.038,0,0,0,0,0,0,0
1738837619791862964,0.03687,0.02132,0.972,0.01036,0.02272,-0.005516,1e-06,-0.004105,0.0366,0.01033,2.867e-05,1.0,0.003906,0.01563,-0.0,-7.54e-05,-0.00397,0.038,0,0,0,0,0,0,0
1738837619841898202,0.03735,0.0224,0.9717,0.01037,0.02254,-0.005478,2.2e-05,-0.003956,0.03662,0.01033,2.867e-05,1.0,0.003906,0.01563,-0.003906,-7.23e-05,-0.003798,0.03806,0,0,0,0,0,0,0
1738837619891865015,0.03787,0.02347,0.9717,0.01042,0.02234,-0.005627,2.4e-05,-0.00391,0.03665,0.01033,2.867e-05,1.0,0.003906,0.01563,-0.0,-6.9e-05,-0.003624,0.03806,0,0,0,0,0,0,0
1738837619941883087,0.03845,0.02472,0.971,0.01047,0.02213,-0.006287,8e-06,-0.004017,0.0367,0.01033,2.867e-05,1.0,0.003906,0.01563,-0.0,-6.884e-05,-0.003624,0.038,0,0,0,0,0,0,0
1738837619991873025,0.0389,0.0257,0.9707,0.01047,0.02197,-0.006336,-1.8e-05,-0.00402,0.03674,0.01033,2.867e-05,1.0,0.003906,0.01563,-0.003906,-7.21e-05,-0.003798,0.038,0,0,0,0,0,0,0
1738837620041865110,0.03946,0.02682,0.9707,0.01048,0.02179,-0.005188,-1.2e-05,-0.00393,0.0368,0.01033,2.867e-05,1.0,0.003906,0.01563,-0.003906,-7.21e-05,-0.003798,0.038,0,0,0,0,0,0,0
1738837620091886758,0.03995,0.02786,0.97,0.01057,0.02162,-0.003542,-1.6e-05,-0.00379,0.03687,0.01033,2.867e-05,0.996,0.003906,0.01563,-0.0,-6.884e-05,-0.003624,0.038,0,0,0,0,0,0,0
1738837620141921997,0.0405,0.02899,0.97,0.01072,0.02147,-0.001448,-3.9e-05,-0.003702,0.0369,0.01033,2.867e-05,0.996,0.003906,0.01563,-0.0,-6.574e-05,-0.003452,0.03806,0,0,0,0,0,0,0
1738837620191913127,0.04102,0.03001,0.97,0.01088,0.02133,0.000969,-4.9e-05,-0.00367,0.0369,0.01033,2.867e-05,0.996,0.003906,0.01563,-0.0,-6.664e-05,-0.003452,0.03857,0,0,0,0,0,0,0
1738837620241905450,0.04156,0.03104,0.97,0.01104,0.0212,0.002642,-5.1e-05,-0.003754,0.03687,0.01033,2.867e-05,0.996,0.003906,0.01563,-0.0,-6.723e-05,-0.003452,0.03894,0,0,0,0,0,0,0
1738837620291832208,0.04214,0.03214,0.9707,0.01113,0.02106,0.003933,-8.4e-05,-0.00392,0.03677,0.01033,0.02654,0.996,0.003906,0.01563,-0.0,-0.0001558,-0.003536,0.03928,0,0,0,0,0,0,0
1738837620341882705,0.04276,0.0333,0.9707,0.01115,0.02092,0.004807,-9.2e-05,-0.004036,0.03665,0.01033,0.02654,0.996,0.003906,0.01563,-0.0,-0.0001589,-0.00371,0.0391,0,0,0,0,0,0,0
1738837620391869783,0.04324,0.03424,0.971,0.01111,0.0208,0.004498,-0.000117,-0.00417,0.0366,0.01033,0.02654,0.996,0.003906,0.01563,0.003906,-7.39e-05,-0.003798,0.03894,0,0,0,0,0,0,0
1738837620441909790,0.04382,0.0353,0.971,0.01099,0.02069,0.003983,-0.000102,-0.00432,0.0365,0.01033,0.02654,0.996,0.003906,0.01172,0.003906,-0.0001615,-0.003881,0.03876,0,0,0,0,0,0,0
1738837620491889476,0.04434,0.0363,0.971,0.01084,0.02055,0.003073,-8.8e-05,-0.004333,0.03647,0.01033,0.02654,0.996,0.003906,0.01172,0.003906,-0.0001646,-0.004055,0.03857,0,0,0,0,0,0,0
1738837620541918277,0.0449,0.03735,0.9717,0.010666,0.02042,0.001488,-6.9e-05,-0.0044,0.0364,0.01033,0.02654,0.996,0.003906,0.01172,-0.0,-0.0001646,-0.004055,0.03857,0,0,0,0,0,0,0
1738837620591898202,0.0454,0.03833,0.9717,0.01049,0.02028,0.000389,-4.4e-05,-0.004353,0.03638,0.01033,0.02654,0.996,0.003906,0.01172,-0.0,-0.0001643,-0.004055,0.03842,0,0,0,0,0,0,0
1738837620641914129,0.04596,0.0394,0.9717,0.01036,0.02007,-0.000577,0.000246,-0.004223,0.03638,0.01033,0.02654,1.0,0.003906,0.01172,-0.0,-0.0001643,-0.004055,0.03842,0,0,0,0,0,0,0
1738837620691895008,0.04645,0.04034,0.9717,0.010315,0.01949,-0.001174,0.001555,-0.00411,0.03635,0.01033,0.02654,1.0,0.003906,0.01172,-0.0,0.0003572,-0.003891,0.03833,0,0,0,0,0,0,0
1738837620741883277,0.047,0.04132,0.971,0.01035,0.01822,-0.001376,0.002802,-0.003998,0.03635,0.01033,0.02654,1.0,0.003906,0.01172,-0.0,0.001566,-0.003914,0.03824,0,0,0,0,0,0,0
1738837620791829347,0.0475,0.04214,0.971,0.01044,0.01659,-0.001258,0.003645,-0.003933,0.03635,0.01033,0.02654,1.0,0.003906,0.01172,-0.0,0.003038,-0.003685,0.03824,0,0,0,0,0,0,0
1738837620841872215,0.04803,0.04297,0.971,0.010574,0.01444,-0.000732,0.004272,-0.003868,0.03638,0.01033,0.02654,0.996,0.003906,0.007812,-0.0,0.003555,-0.003695,0.03824,0,0,0,0,0,0,0
1738837620891854763,0.04855,0.0436,0.971,0.01074,0.012276,-0.000732,0.004646,-0.003822,0.03638,0.01033,0.02654,1.0,0.003906,0.007812,-0.0,0.004246,-0.003708,0.03806,3.0,2.0,5.0,0.0,0.0,0.0,180.0
1738837620941858530,0.0491,0.0442,0.971,0.0109,0.00979,-0.001471,0.004887,-0.00399,0.03638,0.01033,0.02654,1.0,0.003906,0.003906,-0.0,0.004505,-0.003626,0.03806,3.0,2.0,5.0,0.0,0.0,0.0,180.0
1738837620991843938,0.04962,0.0446,0.971,0.010994,0.00742,-0.000546,0.005035,-0.003933,0.03644,0.01033,0.02654,0.996,0.003906,0.003906,-0.0,0.00476,-0.00389,0.03806,3.0,2.0,5.0,0.0,0.0,0.0,180.0
1738837621041860818,0.0502,0.04492,0.9717,0.01124,0.005383,0.04236,0.001477,-0.000527,0.03656,0.01033,0.02654,0.996,0.003906,0.0,-0.0,0.00485,-0.003805,0.03806,3.0,2.0,5.0,0.0,0.0,0.0,180.0
1738837621091877222,0.05087,0.04523,0.9775,0.01941,0.00974,0.2083,-0.01636,0.022,0.0402,0.01033,0.02654,1.0,0.003906,0.0,0.05078,-0.00193,0.002886,0.03876,3.0,2.0,5.0,0.0,0.0,0.0,180.0
1738837621141899347,0.05258,0.04617,0.9946,0.0496,0.02904,0.4648,-0.03442,0.05157,0.05804,0.01033,0.02654,1.004,0.01172,0.003906,0.1875,-0.01753,0.02377,0.0432,3.0,2.0,5.0,0.0,0.0,0.0,180.0
1738837621191873311,0.05615,0.0484,1.023,0.1022,0.0672,0.7285,-0.0651,0.0973,0.09375,0.02782,0.02654,1.027,0.0547,0.03125,0.508,-0.04257,0.06366,0.0713,3.0,2.0,5.0,0.0,0.0,0.0,180.0
1738837621241885662,0.0639,0.05386,1.069,0.203,0.1505,1.016,-0.11487,0.1744,0.1569,0.02782,0.02654,1.047,0.08984,0.0586,0.676,-0.06354,0.09485,0.0958,3.0,2.0,5.0,0.0,0.0,0.0,180.0
1738837621291878461,0.0769,0.0641,1.124,0.3452,0.284,1.279,-0.1594,0.2588,0.2378,0.02782,0.02654,1.102,0.2227,0.168,1.031,-0.1259,0.1937,0.1788,3.0,2.0,5.0,0.0,0.0,0.0,180.0
1738837621341886281,0.0999,0.0843,1.198,0.537,0.5,1.564,-0.1998,0.3257,0.3494,0.04532,0.02654,1.148,0.3477,0.289,1.246,-0.162,0.2637,0.2498,3.0,2.0,5.0,0.0,0.0,0.0,180.0
1738837621391874551,0.1298,0.1141,1.278,0.6934,0.7373,1.752,-0.2385,0.3535,0.467,0.0628,0.05307,1.242,0.586,0.574,1.594,-0.2119,0.3386,0.395,3.0,2.0,5.0,0.0,0.0,0.0,180.0
1738837621441874265,0.1687,0.1593,1.372,0.794,0.999,1.837,-0.292,0.35,0.5977,0.08026,0.0796,1.293,0.6797,0.7305,1.711,-0.2367,0.353,0.47,3.0,2.0,5.0,0.0,0.0,0.0,180.0
1738837621491868257,0.211,0.2184,1.469,0.8237,1.269,1.866,-0.3499,0.3367,0.7173,0.1327,0.1326,1.398,0.793,1.0625,1.828,-0.3037,0.3467,0.633,3.0,2.0,5.0,0.0,0.0,0.0,180.0
1738837621541781187,0.2502,0.2856,1.559,0.796,1.527,1.874,-0.4014,0.3293,0.8145,0.1677,0.159,1.473,0.8086,1.27,1.852,-0.3484,0.3367,0.724,3.0,2.0,5.0,0.0,0.0,0.0,180.0
1738837621591798067,0.2866,0.3652,1.648,0.723,1.788,1.881,-0.4207,0.3142,0.901,0.2202,0.2651,1.598,0.754,1.621,1.863,-0.411,0.325,0.854,3.0,2.0,5.0,0.0,0.0,0.0,180.0
1738837621641795396,0.3215,0.4653,1.747,0.609,2.055,1.887,-0.4275,0.2952,0.9883,0.2377,0.318,1.664,0.6953,1.809,1.871,-0.4214,0.313,0.916,3.0,2.0,5.0,0.0,0.0,0.0,180.0
1738837621691813945,0.3477,0.57,1.837,0.482,2.275,1.894,-0.4001,0.2627,1.067,0.2727,0.4243,1.77,0.539,2.129,1.879,-0.422,0.286,1.025,3.0,2.0,5.0,0.0,0.0,0.0,180.0
1738837621741780757,0.369,0.6934,1.936,0.3376,2.467,1.897,-0.3633,0.22,1.152,0.29,0.504,1.836,0.4414,2.281,1.887,-0.398,0.2603,1.083,3.0,2.0,5.0,0.0,0.0,0.0,180.0
1738837621791815519,0.3818,0.815,2.027,0.2032,2.598,1.904,-0.318,0.1617,1.2295,0.3252,0.663,1.961,0.2578,2.508,1.895,-0.35,0.2026,1.189,3.0,2.0,5.0,0.0,0.0,0.0,180.0
1738837621841779232,0.3887,0.9526,2.127,0.06366,2.684,1.916,-0.2725,0.1,1.31,0.3252,0.742,2.023,0.1602,2.594,1.902,-0.3152,0.1577,1.245,3.0,2.0,5.0,0.0,0.0,0.0,180.0
1738837621891826629,0.3887,1.082,2.219,-0.0554,2.717,1.927,-0.2323,0.0419,1.382,0.3425,0.9014,2.125,-0.003906,2.68,1.918,-0.259,0.08014,1.346,3.0,2.0,5.0,0.0,0.0,0.0,180.0
1738837621941791296,0.3828,1.224,2.318,-0.1703,2.71,1.94,-0.1953,-0.004078,1.457,0.3425,1.008,2.195,-0.08984,2.7,1.926,-0.2301,0.03848,1.398,3.0,2.0,5.0,0.0,0.0,0.0,180.0
1738837621991818428,0.3733,1.343,2.404,-0.2522,2.678,1.954,-0.1575,-0.04016,1.519,0.3252,1.193,2.316,-0.2266,2.691,1.941,-0.1823,-0.0176,1.492,3.0,2.0,5.0,0.0,0.0,0.0,180.0
1738837622041774749,0.3567,1.49,2.516,-0.3303,2.61,1.974,-0.1131,-0.07324,1.594,0.3252,1.272,2.371,-0.2773,2.668,1.949,-0.156,-0.04156,1.534,3.0,2.0,5.0,0.0,0.0,0.0,180.0
1738837622091833591,0.3398,1.614,2.61,-0.3708,2.53,1.99,-0.0684,-0.1075,1.656,0.3076,1.458,2.48,-0.3633,2.586,1.965,-0.099,-0.08405,1.628,3.0,2.0,5.0,0.0,0.0,0.0,180.0
1738837622141855478,0.32,1.743,2.715,-0.3843,2.428,2.008,-0.02478,-0.1371,1.721,0.29,1.564,2.55,-0.3906,2.535,1.977,-0.0658,-0.10925,1.673,3.0,2.0,5.0,0.0,0.0,0.0,180.0
1738837622191881895,0.302,1.856,2.81,-0.3691,2.32,2.014,0.01374,-0.1802,1.777,0.2551,1.75,2.688,-0.3984,2.402,1.996,-0.00838,-0.1539,1.759,3.0,2.0,5.0,0.0,0.0,0.0,180.0
1738837622241861820,0.284,1.974,2.916,-0.322,2.19,2.018,0.05103,-0.2203,1.836,0.2551,1.829,2.738,-0.3867,2.348,2.0,0.01177,-0.1777,1.788,3.0,2.0,5.0,0.0,0.0,0.0,180.0
1738837622291882514,0.27,2.076,3.012,-0.2524,2.059,2.016,0.0805,-0.2625,1.887,0.2202,1.988,2.86,-0.3203,2.18,2.004,0.06076,-0.2334,1.866,3.0,2.0,5.0,0.0,0.0,0.0,180.0
1738837622341900825,0.2588,2.188,3.125,-0.1406,1.896,2.01,0.11145,-0.2996,1.942,0.2026,2.068,2.93,-0.2656,2.09,2.004,0.082,-0.264,1.902,3.0,2.0,5.0,0.0,0.0,0.0,180.0
1738837622391876697,0.2551,2.268,3.213,-0.03336,1.767,2.0,0.1305,-0.3276,1.983,0.1852,2.201,3.066,-0.1328,1.906,1.996,0.11646,-0.3066,1.967,3.0,2.0,5.0,0.0,0.0,0.0,180.0
1738837622441908597,0.257,2.355,3.316,0.11334,1.613,1.983,0.1517,-0.3484,2.031,0.1852,2.254,3.133,-0.0586,1.816,1.996,0.1293,-0.3257,1.995,3.0,2.0,5.0,0.0,0.0,0.0,180.0
1738837622491870164,0.266,2.43,3.412,0.2617,1.4795,1.963,0.1643,-0.355,2.072,0.1677,2.387,3.262,0.1367,1.621,1.98,0.1559,-0.3506,2.059,3.0,2.0,5.0,0.0,0.0,0.0,180.0
1738837622541933536,0.2842,2.502,3.514,0.4268,1.351,1.924,0.1777,-0.3562,2.117,0.1677,2.44,3.332,0.2422,1.531,1.965,0.1648,-0.354,2.088,3.0,2.0,5.0,0.0,0.0,0.0,180.0
1738837622591872930,0.3083,2.564,3.604,0.5815,1.243,1.878,0.1816,-0.3547,2.156,0.1852,2.545,3.469,0.4531,1.375,1.926,0.1793,-0.355,2.143,3.0,2.0,5.0,0.0,0.0,0.0,180.0
1738837622641874313,0.343,2.627,3.7,0.743,1.143,1.808,0.1852,-0.3486,2.2,0.2026,2.572,3.54,0.551,1.309,1.902,0.1814,-0.3538,2.168,3.0,2.0,5.0,0.0,0.0,0.0,180.0
1738837622691890001,0.3787,2.676,3.777,0.8726,1.068,1.732,0.1771,-0.3474,2.232,0.2377,2.678,3.648,0.7617,1.184,1.809,0.183,-0.3467,2.225,3.0,2.0,5.0,0.0,0.0,0.0,180.0
1738837622741889715,0.4324,2.732,3.873,1.04,0.9766,1.657,0.168,-0.3354,2.275,0.2727,2.705,3.71,0.867,1.133,1.75,0.1759,-0.3455,2.25,3.0,2.0,5.0,0.0,0.0,0.0,180.0
1738837622791892766,0.4854,2.777,3.95,1.166,0.91,1.564,0.1534,-0.3254,2.31,0.3252,2.783,3.82,1.059,1.031,1.656,0.1635,-0.33,2.3,3.0,2.0,5.0,0.0,0.0,0.0,180.0
1738837622841859340,0.55,2.822,4.03,1.303,0.8403,1.489,0.1416,-0.3098,2.348,0.36,2.81,3.867,1.137,0.992,1.598,0.1543,-0.3245,2.322,3.0,2.0,5.0,0.0,0.0,0.0,180.0
1738837622891897916,0.6147,2.861,4.098,1.404,0.787,1.376,0.1239,-0.2974,2.38,0.43,2.863,3.945,1.301,0.914,1.496,0.138,-0.3047,2.37,3.0,2.0,5.0,0.0,0.0,0.0,180.0
1738837622941878795,0.697,2.904,4.17,1.524,0.724,1.278,0.1068,-0.281,2.416,0.4824,2.916,4.004,1.387,0.871,1.398,0.12317,-0.2954,2.396,3.0,2.0,5.0,0.0,0.0,0.0,180.0
1738837622991883277,0.766,2.936,4.227,1.609,0.6772,1.206,0.0869,-0.2666,2.443,0.5874,2.969,4.086,1.523,0.8047,1.281,0.1019,-0.2751,2.438,3.0,2.0,5.0,0.0,0.0,0.0,180.0
1738837623041859149,0.845,2.967,4.285,1.699,0.624,1.153,0.0693,-0.251,2.47,0.6396,2.996,4.117,1.582,0.7734,1.227,0.08826,-0.2659,2.455,3.0,2.0,5.0,0.0,0.0,0.0,180.0
1738837623091888427,0.936,2.998,4.344,1.781,0.568,1.09,0.04218,-0.2333,2.498,0.7275,3.049,4.17,1.699,0.707,1.145,0.06247,-0.2439,2.492,3.0,2.0,5.0,0.0,0.0,0.0,180.0
1738837623141834735,1.023,3.023,4.395,1.85,0.513,1.05,0.02106,-0.2181,2.521,0.7974,3.076,4.215,1.762,0.668,1.098,0.0413,-0.2308,2.514,3.0,2.0,5.0,0.0,0.0,0.0,180.0
1738837623191848993,1.121,3.049,4.445,1.91,0.4507,1.009,-0.007423,-0.2025,2.545,0.937,3.129,4.28,1.859,0.59,1.031,0.0081,-0.209,2.547,3.0,2.0,5.0,0.0,0.0,0.0,180.0
1738837623241797924,1.214,3.068,4.496,1.96,0.387,0.997,-0.02826,-0.1882,2.566,0.9897,3.129,4.3,1.898,0.5547,1.0,-0.00824,-0.2003,2.56,3.0,2.0,5.0,0.0,0.0,0.0,180.0
1738837623291803121,1.317,3.086,4.547,2.0,0.3152,0.9976,-0.04938,-0.1642,2.59,1.112,3.182,4.344,1.961,0.4688,0.9766,-0.03604,-0.178,2.59,3.0,2.0,5.0,0.0,0.0,0.0,180.0
1738837623341780662,1.414,3.1,4.594,2.023,0.2517,0.9824,-0.0633,-0.1469,2.61,1.182,3.182,4.383,1.992,0.4102,0.9766,-0.0514,-0.1594,2.607,3.0,2.0,5.0,0.0,0.0,0.0,180.0
1738837623391805410,1.52,3.111,4.645,2.037,0.1881,0.925,-0.0764,-0.1342,2.633,1.322,3.209,4.445,2.02,0.3281,0.9414,-0.0692,-0.1389,2.635,3.0,2.0,5.0,0.0,0.0,0.0,180.0
1738837623441766977,1.617,3.12,4.688,2.043,0.1298,0.868,-0.08527,-0.1218,2.652,1.374,3.209,4.47,2.027,0.2969,0.914,-0.0753,-0.1332,2.645,3.0,2.0,5.0,0.0,0.0,0.0,180.0
1738837623491795063,1.724,3.125,4.73,2.041,0.0685,0.802,-0.09515,-0.10376,2.674,1.497,3.234,4.523,2.04,0.2188,0.84,-0.0872,-0.1157,2.674,3.0,2.0,5.0,0.0,0.0,0.0,180.0
1738837623541769266,1.829,3.127,4.77,2.033,0.00826,0.74,-0.1034,-0.0849,2.693,1.584,3.234,4.56,2.04,0.1719,0.785,-0.0948,-0.1015,2.69,3.0,2.0,5.0,0.0,0.0,0.0,180.0
1738837623591854572,1.927,3.125,4.805,2.018,-0.04608,0.6816,-0.11334,-0.06696,2.71,1.725,3.234,4.605,2.031,0.09766,0.711,-0.1057,-0.0778,2.715,3.0,2.0,5.0,0.0,0.0,0.0,180.0
1738837623641837596,2.023,3.121,4.836,1.993,-0.10254,0.643,-0.1216,-0.04913,2.729,1.794,3.262,4.625,2.02,0.0625,0.672,-0.11206,-0.06665,2.725,3.0,2.0,5.0,0.0,0.0,0.0,180.0
1738837623691862583,2.125,3.115,4.867,1.959,-0.164,0.6143,-0.1295,-0.02525,2.744,1.916,3.234,4.664,1.992,-0.01172,0.617,-0.123,-0.04147,2.748,3.0,2.0,5.0,0.0,0.0,0.0,180.0
1738837623741779088,2.219,3.105,4.9,1.918,-0.2177,0.574,-0.1353,-0.00863,2.762,2.004,3.234,4.69,1.969,-0.0586,0.5938,-0.129,-0.02318,2.762,3.0,2.0,5.0,0.0,0.0,0.0,180.0
1738837623791810512,2.332,3.09,4.93,1.862,-0.2815,0.5044,-0.1409,0.00577,2.781,2.127,3.234,4.727,1.914,-0.1328,0.535,-0.1362,-0.002636,2.783,3.0,2.0,5.0,0.0,0.0,0.0,180.0
1738837623841787099,2.414,3.076,4.95,1.817,-0.3284,0.455,-0.1447,0.01753,2.795,2.197,3.234,4.742,1.887,-0.1641,0.496,-0.139,0.00422,2.793,3.0,2.0,5.0,0.0,0.0,0.0,180.0
1738837623891853809,2.506,3.059,4.973,1.759,-0.3838,0.4019,-0.1497,0.0332,2.809,2.3,3.209,4.773,1.824,-0.2383,0.4297,-0.1447,0.02155,2.814,3.0,2.0,5.0,0.0,0.0,0.0,180.0
1738837623941798686,2.596,3.037,4.992,1.693,-0.4412,0.3657,-0.1536,0.04926,2.824,2.389,3.209,4.79,1.781,-0.2812,0.3867,-0.1486,0.03366,2.826,3.0,2.0,5.0,0.0,0.0,0.0,180.0
1738837623991847991,2.676,3.014,5.01,1.625,-0.4941,0.342,-0.1548,0.0653,2.836,2.494,3.182,4.812,1.699,-0.3555,0.3398,-0.1531,0.054,2.844,3.0,2.0,5.0,0.0,0.0,0.0,180.0
1738837624041817665,2.758,2.988,5.027,1.548,-0.549,0.3088,-0.1544,0.0785,2.85,2.547,3.154,4.824,1.66,-0.3906,0.3242,-0.1537,0.0641,2.852,3.0,2.0,5.0,0.0,0.0,0.0,180.0
1738837624091848611,2.83,2.959,5.04,1.473,-0.5967,0.2795,-0.1495,0.0895,2.861,2.668,3.129,4.85,1.559,-0.4688,0.2852,-0.1525,0.08185,2.87,3.0,2.0,5.0,0.0,0.0,0.0,180.0
1738837624141811370,2.904,2.928,5.055,1.39,-0.6455,0.2505,-0.1444,0.10034,2.873,2.72,3.102,4.863,1.508,-0.504,0.2617,-0.1487,0.0897,2.877,3.0,2.0,5.0,0.0,0.0,0.0,180.0
1738837624191844701,2.969,2.895,5.066,1.309,-0.6875,0.2281,-0.1375,0.11053,2.883,2.826,3.076,4.88,1.402,-0.5664,0.2266,-0.1417,0.10345,2.893,3.0,2.0,5.0,0.0,0.0,0.0,180.0
1738837624241791248,3.035,2.86,5.08,1.22,-0.729,0.2063,-0.1312,0.12067,2.895,2.861,3.049,4.887,1.352,-0.5938,0.2109,-0.1375,0.10974,2.9,3.0,2.0,5.0,0.0,0.0,0.0,180.0
1738837624291847229,3.092,2.822,5.086,1.134,-0.7637,0.1897,-0.1236,0.1317,2.904,2.95,2.996,4.91,1.234,-0.6484,0.1836,-0.1284,0.12366,2.914,3.0,2.0,5.0,0.0,0.0,0.0,180.0
1738837624341788053,3.148,2.781,5.098,1.039,-0.7964,0.1687,-0.1167,0.141,2.912,3.0,2.969,4.918,1.172,-0.6797,0.1719,-0.123,0.1318,2.92,3.0,2.0,5.0,0.0,0.0,0.0,180.0
1738837624391838550,3.195,2.744,5.105,0.949,-0.823,0.1565,-0.1078,0.1473,2.922,3.07,2.943,4.926,1.055,-0.7227,0.1445,-0.1138,0.1428,2.934,3.0,2.0,5.0,0.0,0.0,0.0,180.0
1738837624441837072,3.242,2.7,5.113,0.852,-0.8477,0.1389,-0.0996,0.1516,2.93,3.105,2.916,4.93,1.0,-0.742,0.1367,-0.10803,0.1469,2.938,3.0,2.0,5.0,0.0,0.0,0.0,180.0
1738837624491866111,3.277,2.662,5.117,0.771,-0.8647,0.1257,-0.09045,0.1498,2.936,3.158,2.838,4.95,0.883,-0.7773,0.1211,-0.0975,0.1517,2.95,3.0,2.0,5.0,0.0,0.0,0.0,180.0
1738837624541840076,3.318,2.613,5.125,0.673,-0.882,0.10474,-0.0799,0.1475,2.943,3.193,2.81,4.953,0.8086,-0.797,0.10547,-0.08923,0.1499,2.955,3.0,2.0,5.0,0.0,0.0,0.0,180.0
1738837624591871738,3.35,2.57,5.13,0.592,-0.8916,0.09033,-0.0665,0.1443,2.951,3.246,2.758,4.96,0.6953,-0.8164,0.08203,-0.0759,0.1469,2.963,3.0,2.0,5.0,0.0,0.0,0.0,180.0
1738837624641846179,3.377,2.523,5.133,0.5063,-0.897,0.0838,-0.0542,0.143,2.957,3.264,2.73,4.96,0.6445,-0.824,0.0742,-0.06744,0.1449,2.969,3.0,2.0,5.0,0.0,0.0,0.0,180.0
1738837624691878080,3.4,2.48,5.137,0.4292,-0.8965,0.0819,-0.04114,0.1411,2.963,3.316,2.678,4.977,0.543,-0.836,0.0664,-0.0517,0.143,2.977,3.0,2.0,5.0,0.0,0.0,0.0,180.0
1738837624741877079,3.42,2.434,5.14,0.3503,-0.8906,0.0706,-0.03049,0.1384,2.97,3.334,2.652,4.977,0.4766,-0.836,0.0625,-0.04077,0.1415,2.982,3.0,2.0,5.0,0.0,0.0,0.0,180.0
1738837624791875362,3.434,2.395,5.145,0.2866,-0.8823,0.06104,-0.02258,0.1348,2.975,3.367,2.572,4.98,0.375,-0.828,0.05078,-0.02663,0.1371,2.99,3.0,2.0,5.0,0.0,0.0,0.0,180.0
1738837624841871976,3.447,2.35,5.15,0.2134,-0.8696,0.05478,-0.01552,0.1323,2.98,3.367,2.545,4.984,0.332,-0.824,0.04297,-0.0215,0.1346,2.994,3.0,2.0,5.0,0.0,0.0,0.0,180.0
1738837624891877889,3.457,2.305,5.15,0.1427,-0.854,0.05148,-0.007645,0.1287,2.986,3.385,2.492,4.992,0.2422,-0.8125,0.03516,-0.01252,0.1315,3.002,3.0,2.0,5.0,0.0,0.0,0.0,180.0
1738837624941881179,3.46,2.268,5.152,0.08624,-0.839,0.0412,-0.00254,0.1251,2.99,3.402,2.467,4.996,0.1914,-0.801,0.03516,-0.00716,0.1289,3.006,3.0,2.0,5.0,0.0,0.0,0.0,180.0
1738837624991896152,3.465,2.225,5.152,0.02391,-0.819,0.02936,0.003782,0.1162,2.996,3.402,2.412,4.996,0.10156,-0.7812,0.01563,0.001103,0.12115,3.014,3.0,2.0,5.0,0.0,0.0,0.0,180.0
1738837625041890382,3.463,2.184,5.156,-0.03433,-0.7974,0.02519,0.00955,0.10986,3.002,3.402,2.387,4.996,0.0703,-0.7695,0.01172,0.004135,0.11664,3.016,3.0,2.0,5.0,0.0,0.0,0.0,180.0
1738837625091893672,3.46,2.143,5.156,-0.0885,-0.7725,0.02487,0.0194,0.1023,3.006,3.42,2.334,5.004,-0.003906,-0.746,0.003906,0.01296,0.1077,3.021,3.0,2.0,5.0,0.0,0.0,0.0,180.0
1738837625141875743,3.455,2.105,5.156,-0.1345,-0.746,0.02654,0.02661,0.0962,3.01,3.402,2.307,5.004,-0.03906,-0.7305,0.003906,0.01976,0.1026,3.025,3.0,2.0,5.0,0.0,0.0,0.0,180.0
1738837625191827774,3.45,2.072,5.16,-0.1732,-0.72,0.02907,0.03235,0.0891,3.014,3.402,2.254,5.0,-0.10156,-0.6953,0.007812,0.02928,0.0938,3.031,3.0,2.0,5.0,0.0,0.0,0.0,180.0
1738837625241792678,3.438,2.037,5.16,-0.2145,-0.688,0.0306,0.03726,0.08154,3.02,3.402,2.227,5.0,-0.1289,-0.6797,0.007812,0.0331,0.0889,3.035,3.0,2.0,5.0,0.0,0.0,0.0,180.0
1738837625291813850,3.426,2.002,5.16,-0.2505,-0.655,0.03117,0.0416,0.07135,3.023,3.385,2.201,5.01,-0.1797,-0.6406,0.007812,0.03906,0.079,3.04,3.0,2.0,5.0,0.0,0.0,0.0,180.0
1738837625341788530,3.414,1.971,5.164,-0.2788,-0.623,0.03137,0.04453,0.0636,3.025,3.385,2.174,5.01,-0.207,-0.617,0.01172,0.04233,0.0709,3.043,3.0,2.0,5.0,0.0,0.0,0.0,180.0
1738837625391826868,3.398,1.939,5.164,-0.3052,-0.589,0.02907,0.04782,0.05536,3.03,3.367,2.121,5.01,-0.2422,-0.574,0.01172,0.04636,0.06055,3.047,3.0,2.0,5.0,0.0,0.0,0.0,180.0
1738837625441788911,3.383,1.912,5.168,-0.3257,-0.556,0.02777,0.05023,0.04922,3.033,3.367,2.094,5.01,-0.2578,-0.5586,0.007812,0.0482,0.05573,3.049,3.0,2.0,5.0,0.0,0.0,0.0,180.0
1738837625491834640,3.365,1.884,5.168,-0.3445,-0.5205,0.02615,0.05325,0.04147,3.037,3.35,2.068,5.027,-0.2852,-0.5156,0.007812,0.05173,0.0465,3.055,3.0,2.0,5.0,0.0,0.0,0.0,180.0
1738837625541788578,3.348,1.86,5.168,-0.358,-0.4875,0.02367,0.0555,0.0353,3.04,3.334,2.041,5.027,-0.2969,-0.4922,0.007812,0.05374,0.04117,3.057,3.0,2.0,5.0,0.0,0.0,0.0,180.0
1738837625591892719,3.33,1.836,5.17,-0.3694,-0.4512,0.0218,0.05847,0.02855,3.043,3.316,2.016,5.027,-0.3164,-0.4492,0.003906,0.05682,0.0328,3.06,3.0,2.0,5.0,0.0,0.0,0.0,180.0
1738837625641842603,3.312,1.814,5.17,-0.377,-0.417,0.02045,0.06052,0.02357,3.045,3.316,1.988,5.027,-0.3203,-0.4297,0.003906,0.05865,0.02893,3.062,3.0,2.0,5.0,0.0,0.0,0.0,180.0
1738837625691891670,3.291,1.794,5.17,-0.3823,-0.38,0.01883,0.0621,0.0176,3.049,3.281,1.962,5.04,-0.332,-0.3828,-0.0,0.0614,0.02147,3.066,3.0,2.0,5.0,0.0,0.0,0.0,180.0
1738837625741859912,3.273,1.776,5.17,-0.3848,-0.3457,0.01686,0.0631,0.012924,3.05,3.281,1.936,5.04,-0.336,-0.3633,-0.0,0.06235,0.0174,3.068,3.0,2.0,5.0,0.0,0.0,0.0,180.0
1738837625791857242,3.256,1.761,5.176,-0.385,-0.3118,0.01588,0.06384,0.007698,3.053,3.264,1.909,5.04,-0.336,-0.3125,-0.0,0.0637,0.01032,3.072,3.0,2.0,5.0,0.0,0.0,0.0,180.0
1738837625841778755,3.234,1.745,5.176,-0.3828,-0.2756,0.007065,0.06415,0.00302,3.055,3.246,1.909,5.04,-0.336,-0.293,-0.0,0.064,0.007534,3.074,3.0,2.0,5.0,0.0,0.0,0.0,180.0
1738837625891827106,3.217,1.733,5.176,-0.3787,-0.2435,-0.004883,0.06323,-0.000906,3.057,3.229,1.883,5.047,-0.332,-0.2461,-0.01172,0.064,0.0012245,3.076,3.0,2.0,5.0,0.0,0.0,0.0,180.0
1738837625941816806,3.197,1.722,5.176,-0.373,-0.2092,-0.01128,0.06223,-0.002508,3.059,3.21,1.883,5.047,-0.3281,-0.2227,-0.01953,0.0633,-0.001265,3.078,3.0,2.0,5.0,0.0,0.0,0.0,180.0
1738837625991868734,3.18,1.712,5.17,-0.3674,-0.1782,-0.01455,0.06165,-0.0039,3.06,3.193,1.856,5.047,-0.3242,-0.1797,-0.02734,0.0621,-0.002934,3.08,3.0,2.0,5.0,0.0,0.0,0.0,180.0
1738837626041828155,3.16,1.704,5.17,-0.3608,-0.1453,-0.01625,0.061,-0.005566,3.062,3.193,1.856,5.047,-0.3203,-0.1602,-0.02734,0.0619,-0.003925,3.082,3.0,2.0,5.0,0.0,0.0,0.0,180.0
1738837626091869115,3.143,1.697,5.17,-0.353,-0.1133,-0.01729,0.0594,-0.00924,3.064,3.158,1.829,5.055,-0.3125,-0.1172,-0.03125,0.06067,-0.006706,3.084,3.0,2.0,5.0,0.0,0.0,0.0,180.0
1738837626141831398,3.125,1.692,5.17,-0.3442,-0.085,-0.01819,0.05768,-0.01249,3.066,3.158,1.829,5.05,-0.3086,-0.09375,-0.03125,0.0595,-0.00936,3.084,3.0,2.0,5.0,0.0,0.0,0.0,180.0
1738837626191866397,3.107,1.688,5.17,-0.3333,-0.05618,-0.01857,0.05392,-0.01614,3.066,3.123,1.829,5.05,-0.293,-0.0586,-0.03125,0.05652,-0.01383,3.086,3.0,2.0,5.0,0.0,0.0,0.0,180.0
1738837626241823434,3.092,1.687,5.168,-0.3218,-0.03168,-0.01973,0.0508,-0.01877,3.068,3.123,1.829,5.05,-0.289,-0.03906,-0.03125,0.05423,-0.01591,3.088,3.0,2.0,5.0,0.0,0.0,0.0,180.0
1738837626291909933,3.076,1.686,5.168,-0.3086,-0.007195,-0.02126,0.04718,-0.02083,3.07,3.105,1.829,5.06,-0.2734,-0.007812,-0.03125,0.04956,-0.01962,3.09,3.0,2.0,5.0,0.0,0.0,0.0,180.0
1738837626341891050,3.062,1.686,5.168,-0.297,0.01195,-0.02235,0.0447,-0.02193,3.072,3.088,1.829,5.06,-0.2617,0.003906,-0.03125,0.04718,-0.02092,3.092,3.0,2.0,5.0,0.0,0.0,0.0,180.0
1738837626391903162,3.047,1.687,5.164,-0.2822,0.03442,-0.02321,0.04126,-0.02272,3.074,3.07,1.829,5.055,-0.2461,0.03125,-0.03516,0.04337,-0.02228,3.094,3.0,2.0,5.0,0.0,0.0,0.0,180.0
1738837626441895723,3.033,1.689,5.164,-0.2693,0.05215,-0.02327,0.03885,-0.02325,3.074,3.07,1.829,5.055,-0.2383,0.04297,-0.03516,0.04156,-0.0226,3.094,3.0,2.0,5.0,0.0,0.0,0.0,180.0
1738837626491907119,3.02,1.692,5.164,-0.2551,0.0697,-0.0236,0.0359,-0.02484,3.076,3.053,1.829,5.062,-0.2227,0.0703,-0.03516,0.03784,-0.02368,3.098,3.0,2.0,5.0,0.0,0.0,0.0,180.0
1738837626541900396,3.008,1.695,5.164,-0.2428,0.0833,-0.02481,0.03378,-0.02625,3.078,3.035,1.829,5.06,-0.2109,0.0781,-0.03516,0.03586,-0.02486,3.098,3.0,2.0,5.0,0.0,0.0,0.0,180.0
1738837626591901302,2.996,1.7,5.16,-0.2278,0.09784,-0.02612,0.03085,-0.02733,3.08,3.018,1.829,5.06,-0.1953,0.09766,-0.03516,0.0326,-0.02669,3.1,3.0,2.0,5.0,0.0,0.0,0.0,180.0
1738837626641878843,2.984,1.706,5.16,-0.2125,0.11084,-0.02592,0.02817,-0.02773,3.08,3.018,1.829,5.06,-0.1875,0.1094,-0.03516,0.03087,-0.02727,3.102,3.0,2.0,5.0,0.0,0.0,0.0,180.0
1738837626691916942,2.975,1.711,5.16,-0.199,0.12115,-0.02586,0.02423,-0.02666,3.082,3.0,1.829,5.062,-0.168,0.125,-0.03516,0.02687,-0.02719,3.102,3.0,2.0,5.0,0.0,0.0,0.0,180.0
1738837626741898536,2.965,1.718,5.156,-0.185,0.1302,-0.02777,0.02055,-0.0259,3.084,3.0,1.829,5.062,-0.1602,0.1289,-0.03516,0.02382,-0.0263,3.104,3.0,2.0,5.0,0.0,0.0,0.0,180.0
1738837626791893482,2.955,1.725,5.156,-0.1727,0.137,-0.02765,0.01707,-0.02522,3.084,2.982,1.856,5.062,-0.1406,0.1406,-0.03516,0.01921,-0.02547,3.104,3.0,2.0,5.0,0.0,0.0,0.0,180.0
1738837626841833114,2.947,1.731,5.152,-0.1602,0.1425,-0.03696,0.01428,-0.02501,3.084,2.982,1.856,5.06,-0.1328,0.1445,-0.03516,0.01712,-0.02498,3.105,3.0,2.0,5.0,0.0,0.0,0.0,180.0
1738837626891789674,2.94,1.738,5.152,-0.1486,0.1464,-0.04932,0.01256,-0.02625,3.084,2.965,1.856,5.066,-0.1172,0.1484,-0.04688,0.01358,-0.02531,3.105,3.0,2.0,5.0,0.0,0.0,0.0,180.0
1738837626941775321,2.932,1.746,5.15,-0.1356,0.1499,-0.05447,0.011215,-0.02547,3.084,2.965,1.856,5.062,-0.1094,0.1523,-0.0547,0.012474,-0.02611,3.105,3.0,2.0,5.0,0.0,0.0,0.0,180.0
1738837626991781949,2.926,1.754,5.15,-0.1245,0.1525,-0.0565,0.00937,-0.02432,3.086,2.965,1.856,5.06,-0.09375,0.1562,-0.0625,0.01037,-0.0246,3.105,3.0,2.0,5.0,0.0,0.0,0.0,180.0
1738837627041774034,2.92,1.762,5.145,-0.11285,0.1543,-0.04877,0.007538,-0.02325,3.086,2.965,1.856,5.06,-0.08594,0.1562,-0.0625,0.00932,-0.0241,3.105,3.0,2.0,5.0,0.0,0.0,0.0,180.0
1738837627091796875,2.916,1.769,5.14,-0.1029,0.1552,-0.03763,0.005253,-0.02162,3.086,2.95,1.883,5.062,-0.0742,0.1562,-0.05078,0.006695,-0.02225,3.105,3.0,2.0,5.0,0.0,0.0,0.0,180.0
1738837627141796350,2.91,1.777,5.14,-0.09296,0.1549,-0.0423,0.003246,-0.02246,3.086,2.95,1.883,5.062,-0.0664,0.1562,-0.04297,0.004868,-0.02133,3.105,3.0,2.0,5.0,0.0,0.0,0.0,180.0
1738837627191844940,2.906,1.785,5.137,-0.08246,0.1537,-0.05313,0.001814,-0.02367,3.086,2.95,1.883,5.06,-0.0547,0.1562,-0.05078,0.002565,-0.02318,3.107,3.0,2.0,5.0,0.0,0.0,0.0,180.0
1738837627241800785,2.902,1.792,5.133,-0.0728,0.1521,-0.05856,0.001005,-0.02261,3.086,2.95,1.883,5.06,-0.04688,0.1562,-0.0547,0.001965,-0.02345,3.107,3.0,2.0,5.0,0.0,0.0,0.0,180.0
1738837627291859626,2.898,1.8,5.133,-0.0632,0.1501,-0.0616,0.000502,-0.02121,3.086,2.932,1.909,5.062,-0.03516,0.1523,-0.0625,0.0008135,-0.02184,3.107,3.0,2.0,5.0,0.0,0.0,0.0,180.0
1738837627341814041,2.895,1.808,5.13,-0.05493,0.1482,-0.063,0.000241,-0.02016,3.086,2.932,1.909,5.06,-0.03125,0.1484,-0.0664,0.000538,-0.02089,3.107,3.0,2.0,5.0,0.0,0.0,0.0,180.0
1738837627391839265,2.893,1.814,5.125,-0.04718,0.1461,-0.06305,0.000107,-0.0194,3.086,2.932,1.909,5.055,-0.01953,0.1484,-0.0664,0.0002546,-0.01959,3.107,3.0,2.0,5.0,0.0,0.0,0.0,180.0
1738837627441806077,2.89,1.822,5.12,-0.03906,0.144,-0.05392,4.7e-05,-0.01831,3.086,2.932,1.909,5.05,-0.01563,0.1445,-0.0664,7.13e-05,-0.01907,3.107,3.0,2.0,5.0,0.0,0.0,0.0,180.0
1738837627491837024,2.889,1.829,5.12,-0.03217,0.1418,-0.04086,5.6e-05,-0.01531,3.086,2.932,1.909,5.05,-0.003906,0.1406,-0.05078,0.0001188,-0.01692,3.107,3.0,2.0,5.0,0.0,0.0,0.0,180.0
1738837627541803121,2.887,1.836,5.117,-0.0269,0.14,-0.03543,4.7e-05,-0.01469,3.086,2.932,1.936,5.05,0.0,0.1406,-0.04297,-2.4e-06,-0.01494,3.107,3.0,2.0,5.0,0.0,0.0,0.0,180.0
1738837627591887950,2.887,1.843,5.117,-0.02168,0.1382,-0.03296,8e-06,-0.014946,3.086,2.914,1.936,5.047,0.0,0.1367,-0.03516,-8.34e-06,-0.01459,3.107,3.0,2.0,5.0,0.0,0.0,0.0,180.0
1738837627641855478,2.885,1.85,5.113,-0.016,0.1361,-0.03232,4e-06,-0.01512,3.086,2.914,1.936,5.047,0.003906,0.1328,-0.03516,-9.44e-05,-0.01468,3.107,3.0,2.0,5.0,0.0,0.0,0.0,180.0
1738837627691878080,2.885,1.856,5.113,-0.01076,0.1343,-0.03265,-4e-06,-0.015175,3.086,2.914,1.936,5.047,0.007812,0.1328,-0.03516,-9.274e-05,-0.014854,3.107,3.0,2.0,5.0,0.0,0.0,0.0,180.0
1738837627741870164,2.885,1.863,5.113,-0.00514,0.1323,-0.03375,-0.000202,-0.01515,3.086,2.914,1.936,5.047,0.01172,0.1289,-0.03516,-6.26e-06,-0.01494,3.107,3.0,2.0,5.0,0.0,0.0,0.0,180.0
1738837627791858911,2.885,1.87,5.11,-7.3e-05,0.1301,-0.03372,-0.001445,-0.014885,3.086,2.914,1.962,5.043,0.01953,0.125,-0.03516,-0.000701,-0.01478,3.107,3.0,2.0,5.0,0.0,0.0,0.0,180.0
1738837627841903448,2.885,1.876,5.11,0.005135,0.1272,-0.035,-0.002657,-0.014626,3.086,2.914,1.962,5.043,0.01953,0.125,-0.03516,-0.001568,-0.01462,3.107,3.0,2.0,5.0,0.0,0.0,0.0,180.0
1738837627891914129,2.885,1.883,5.105,0.009834,0.124,-0.03604,-0.003464,-0.0146,3.084,2.914,1.962,5.043,0.02734,0.1211,-0.03516,-0.003036,-0.01438,3.107,3.0,2.0,5.0,0.0,0.0,0.0,180.0
1738837627941902160,2.885,1.889,5.105,0.01442,0.12054,-0.0362,-0.004013,-0.014366,3.084,2.914,1.962,5.043,0.03125,0.1172,-0.03516,-0.003641,-0.014305,3.107,3.0,2.0,5.0,0.0,0.0,0.0,180.0
1738837627991917371,2.887,1.895,5.1,0.01918,0.11664,-0.03784,-0.004402,-0.01426,3.084,2.914,1.962,5.043,0.03516,0.1133,-0.03516,-0.004333,-0.01398,3.107,3.0,2.0,5.0,0.0,0.0,0.0,180.0
1738837628041907310,2.887,1.9,5.1,0.02356,0.1129,-0.0383,-0.004642,-0.01409,3.084,2.914,1.988,5.04,0.03906,0.1094,-0.03516,-0.004505,-0.01398,3.107,3.0,2.0,5.0,0.0,0.0,0.0,180.0
1738837628091899156,2.889,1.905,5.098,0.0278,0.1089,-0.0385,-0.004795,-0.01258,3.084,2.914,1.988,5.043,0.04297,0.10547,-0.03516,-0.004772,-0.01338,3.107,3.0,2.0,5.0,0.0,0.0,0.0,180.0
1738837628141920804,2.89,1.911,5.098,0.03098,0.10516,-0.03967,-0.00487,-0.01147,3.084,2.914,1.988,5.043,0.04297,0.10156,-0.03516,-0.004883,-0.012085,3.107,3.0,2.0,5.0,0.0,0.0,0.0,180.0
1738837628191883802,2.89,1.916,5.094,0.0339,0.1012,-0.03876,-0.004898,-0.01047,3.084,2.914,1.988,5.04,0.04688,0.09766,-0.03906,-0.004993,-0.01062,3.107,3.0,2.0,5.0,0.0,0.0,0.0,180.0
1738837628241891384,2.893,1.921,5.094,0.03616,0.0976,-0.0371,-0.00489,-0.0097,3.084,2.914,1.988,5.035,0.05078,0.09375,-0.03516,-0.005,-0.0101,3.107,3.0,2.0,5.0,0.0,0.0,0.0,180.0
1738837628291900873,2.895,1.926,5.09,0.03824,0.09375,-0.0355,-0.004883,-0.00924,3.084,2.914,1.988,5.04,0.05078,0.08984,-0.03516,-0.004932,-0.009155,3.107,3.0,2.0,5.0,0.0,0.0,0.0,180.0
1738837628341917514,2.896,1.931,5.09,0.04004,0.0902,-0.0351,-0.004868,-0.00919,3.084,2.914,1.988,5.04,0.05078,0.08594,-0.03125,-0.005024,-0.008896,3.107,3.0,2.0,5.0,0.0,0.0,0.0,180.0
1738837628391892671,2.898,1.935,5.086,0.04196,0.0865,-0.0349,-0.004845,-0.00923,3.086,2.932,2.016,5.035,0.0547,0.08203,-0.03125,-0.005024,-0.008896,3.107,3.0,2.0,5.0,0.0,0.0,0.0,180.0
1738837628441862821,2.9,1.939,5.086,0.04376,0.0831,-0.03482,-0.004826,-0.009094,3.086,2.932,2.016,5.035,0.0547,0.0781,-0.03125,-0.005024,-0.008896,3.107,3.0,2.0,5.0,0.0,0.0,0.0,180.0
1738837628491825580,2.904,1.943,5.086,0.04532,0.07947,-0.03485,-0.004795,-0.007763,3.086,2.932,2.016,5.035,0.0547,0.0742,-0.03125,-0.005035,-0.0082,3.107,3.0,2.0,5.0,0.0,0.0,0.0,180.0
1738837628541779041,2.906,1.947,5.082,0.04608,0.07623,-0.035,-0.004795,-0.006554,3.086,2.932,2.016,5.035,0.0547,0.0703,-0.03125,-0.004967,-0.00725,3.107,3.0,2.0,5.0,0.0,0.0,0.0,180.0
1738837628591781377,2.908,1.951,5.082,0.04636,0.0728,-0.03397,-0.004807,-0.005543,3.086,2.932,2.016,5.03,0.0547,0.0664,-0.03125,-0.00491,-0.00561,3.107,3.0,2.0,5.0,0.0,0.0,0.0,180.0
1738837628641782522,2.91,1.954,5.08,0.04617,0.06964,-0.03317,-0.004814,-0.00487,3.086,2.932,2.016,5.03,0.0547,0.0625,-0.03125,-0.004917,-0.005093,3.107,3.0,2.0,5.0,0.0,0.0,0.0,180.0
1738837628691856384,2.912,1.958,5.08,0.04575,0.06635,-0.03253,-0.004787,-0.004505,3.086,2.932,2.016,5.03,0.0547,0.0586,-0.03125,-0.004932,-0.004402,3.107,3.0,2.0,5.0,0.0,0.0,0.0,180.0
1738837628741832971,2.914,1.961,5.074,0.04523,0.0633,-0.03162,-0.00477,-0.004276,3.086,2.932,2.016,5.03,0.0547,0.0547,-0.03125,-0.00485,-0.004143,3.107,3.0,2.0,5.0,0.0,0.0,0.0,180.0
1738837628791779518,2.918,1.964,5.074,0.0446,0.06006,-0.03093,-0.00473,-0.00415,3.086,2.932,2.016,5.03,0.0547,0.05078,-0.02734,-0.004852,-0.003967,3.107,3.0,2.0,5.0,0.0,0.0,0.0,180.0
1738837628841770172,2.92,1.967,5.074,0.04395,0.05713,-0.03035,-0.004726,-0.0041,3.086,2.932,2.016,5.027,0.05078,0.05078,-0.02734,-0.004856,-0.003796,3.107,3.0,2.0,5.0,0.0,0.0,0.0,180.0
1738837628891803503,2.922,1.97,5.07,0.0433,0.05426,-0.03035,-0.00471,-0.004086,3.086,2.932,2.016,5.03,0.05078,0.04297,-0.02734,-0.004856,-0.003796,3.107,3.0,2.0,5.0,0.0,0.0,0.0,180.0
1738837628941805124,2.924,1.973,5.07,0.04263,0.05112,-0.02267,-0.004684,-0.003826,3.086,2.95,2.016,5.03,0.05078,0.04297,-0.02734,-0.004856,-0.003796,3.107,3.0,2.0,5.0,0.0,0.0,0.0,180.0
1738837628991833448,2.926,1.975,5.07,0.04144,0.04807,-0.01313,-0.004654,-0.002565,3.086,2.95,2.041,5.03,0.04688,0.03906,-0.01563,-0.004787,-0.002844,3.107,3.0,2.0,5.0,0.0,0.0,0.0,180.0
1738837629041798591,2.928,1.978,5.07,0.04016,0.04535,-0.01115,-0.00467,-0.003231,3.086,2.95,2.041,5.03,0.04688,0.03516,-0.007812,-0.00471,-0.002237,3.107,3.0,2.0,5.0,0.0,0.0,0.0,180.0
1738837629091850042,2.93,1.9795,5.066,0.03934,0.04214,-0.01102,-0.004684,-0.00428,3.086,2.95,2.041,5.035,0.04297,0.03125,-0.003906,-0.004864,-0.003448,3.107,3.0,2.0,5.0,0.0,0.0,0.0,180.0
1738837629141798734,2.932,1.981,5.066,0.03897,0.0397,-0.01982,-0.00469,-0.004948,3.084,2.95,2.041,5.035,0.04297,0.03125,-0.003906,-0.004852,-0.003967,3.107,3.0,2.0,5.0,0.0,0.0,0.0,180.0
1738837629192197084,2.934,1.983,5.066,0.03915,0.03702,-0.03107,-0.004715,-0.006405,3.084,2.95,2.041,5.03,0.04297,0.02734,-0.01953,-0.004917,-0.005436,3.107,3.0,2.0,5.0,0.0,0.0,0.0,180.0
1738837629241797924,2.936,1.985,5.062,0.03967,0.03412,-0.03497,-0.00468,-0.005753,3.084,2.95,2.041,5.03,0.04297,0.02734,-0.02734,-0.004906,-0.005955,3.107,3.0,2.0,5.0,0.0,0.0,0.0,180.0
1738837629291844367,2.938,1.987,5.062,0.0395,0.03125,-0.03513,-0.004658,-0.004467,3.084,2.95,2.041,5.03,0.04297,0.02344,-0.03125,-0.004753,-0.004913,3.107,3.0,2.0,5.0,0.0,0.0,0.0,180.0
1738837629341794729,2.94,1.988,5.062,0.03888,0.02869,-0.0338,-0.004612,-0.003754,3.084,2.95,2.041,5.03,0.04297,0.01953,-0.03125,-0.004765,-0.00405,3.107,3.0,2.0,5.0,0.0,0.0,0.0,180.0
1738837629391850709,2.941,1.989,5.06,0.038,0.02596,-0.0329,-0.004604,-0.00349,3.084,2.95,2.041,5.03,0.03906,0.01563,-0.02734,-0.00478,-0.00319,3.107,3.0,2.0,5.0,0.0,0.0,0.0,180.0
1738837629441790580,2.943,1.991,5.06,0.03714,0.02348,-0.03152,-0.00461,-0.003523,3.084,2.95,2.041,5.027,0.03906,0.01563,-0.02734,-0.004696,-0.003101,3.107,3.0,2.0,5.0,0.0,0.0,0.0,180.0
1738837629491830110,2.945,1.992,5.055,0.03632,0.02103,-0.03046,-0.004604,-0.003553,3.084,2.95,2.041,5.03,0.03906,0.01172,-0.02734,-0.00478,-0.00319,3.107,3.0,2.0,5.0,0.0,0.0,0.0,180.0
1738837629541797637,2.947,1.993,5.055,0.03546,0.01836,-0.02129,-0.0046,-0.00339,3.084,2.95,2.041,5.03,0.03516,0.007812,-0.02734,-0.004692,-0.003273,3.107,3.0,2.0,5.0,0.0,0.0,0.0,180.0
1738837629591826438,2.95,1.994,5.055,0.03412,0.01573,-0.00965,-0.004574,-0.002228,3.084,2.965,2.041,5.027,0.03516,0.007812,-0.01172,-0.004707,-0.00241,3.107,3.0,2.0,5.0,0.0,0.0,0.0,180.0
1738837629641773462,2.951,1.994,5.055,0.0328,0.013435,-0.006115,-0.004395,-0.003021,3.084,2.965,2.041,5.027,0.03516,0.003906,-0.003906,-0.004715,-0.001892,3.107,3.0,2.0,5.0,0.0,0.0,0.0,180.0
1738837629691818475,2.953,1.995,5.055,0.03207,0.01134,-0.005386,-0.00303,-0.00423,3.084,2.965,2.041,5.03,0.03125,0.0,-0.0,-0.004,-0.003262,3.107,3.0,2.0,5.0,0.0,0.0,0.0,180.0
1738837629741777658,2.953,1.996,5.055,0.03183,0.009995,-0.00508,-0.001896,-0.00473,3.084,2.965,2.041,5.03,0.03125,0.0,-0.0,-0.003044,-0.003849,3.107,3.0,2.0,5.0,0.0,0.0,0.0,180.0
1738837629791802644,2.955,1.996,5.05,0.03174,0.00906,-0.00547,-0.000978,-0.004948,3.084,2.965,2.041,5.03,0.03125,0.0,-0.0,-0.001654,-0.004345,3.107,3.0,2.0,5.0,0.0,0.0,0.0,180.0