time,x_sphinx,y_sphinx,z_sphinx,vx_sphinx,vy_sphinx,vz_sphinx,roll_sphinx,pitch_sphinx,yaw_sphinx,x_anafi,y_anafi,z_anafi,vx_anafi,vy_anafi,vz_anafi,roll_anafi,pitch_anafi,yaw_anafi,wp_x,wp_y,wp_z,wp_vx,wp_vy,wp_vz,wp_yaw
1738831527978709459,0.05786,-0.01046,0.9653,-3e-06,0.00729,-0.001796,9.5e-05,-0.004204,-0.05908,0.02716,-0.02641,1.0,0.0,0.003906,-0.0,9.96e-05,-0.00449,0.03253,0,0,0,0,0,0,0
1738831528028680562,0.05786,-0.01008,0.965,2.5e-05,0.00722,-0.002783,0.000112,-0.00425,-0.05896,0.02716,-0.02641,1.0,0.0,0.003906,-0.0,0.00010204,-0.00432,0.0327,0,0,0,0,0,0,0
1738831528078750371,0.05786,-0.009735,0.965,1.3e-05,0.007145,-0.003128,0.000124,-0.00426,-0.0589,0.02716,-0.02641,1.0,0.0,0.003906,-0.0,9.88e-05,-0.00449,0.0329,0,0,0,0,0,0,0
1738831528128709077,0.05786,-0.00937,0.965,2.7e-05,0.00707,-0.0032,0.000131,-0.004192,-0.05884,0.02716,-0.02641,1.0,0.0,0.003906,-0.0,9.805e-05,-0.00449,0.03323,0,0,0,0,0,0,0
1738831528178708553,0.05786,-0.00903,0.9644,6.7e-05,0.006992,-0.003078,0.000111,-0.004143,-0.0588,0.02716,-0.02641,1.0,0.0,0.003906,-0.0,0.0001003,-0.00432,0.0335,0,0,0,0,0,0,0
1738831528228688478,0.05786,-0.00867,0.9644,0.000134,0.00693,-0.00267,8.3e-05,-0.004116,-0.0588,0.02716,-0.02641,1.0,0.0,0.003906,-0.0,9.996e-05,-0.00432,0.03366,0,0,0,0,0,0,0
1738831528278706789,0.05786,-0.00834,0.9644,0.000197,0.00687,-0.001795,8.9e-05,-0.0041,-0.05884,0.02716,-0.02641,0.996,0.0,0.003906,-0.0,9.96e-05,-0.00432,0.03384,0,0,0,0,0,0,0
1738831528328691959,0.0579,-0.00798,0.9644,0.000284,0.0068,-0.001319,0.000122,-0.004093,-0.05887,0.02716,-0.02641,1.0,0.0,0.003906,-0.0,9.94e-05,-0.00432,0.03394,0,0,0,0,0,0,0
1738831528378720521,0.0579,-0.007656,0.9644,0.000331,0.006737,-0.001611,0.000108,-0.00421,-0.05896,0.02716,-0.02641,1.0,0.0,0.003906,-0.0,9.906e-05,-0.00432,0.0341,0,0,0,0,0,0,0
1738831528428697347,0.05792,-0.00731,0.964,0.000289,0.006664,-0.003105,0.000104,-0.004448,-0.05902,0.02716,-0.02641,1.0,0.0,0.003906,-0.0,9.61e-05,-0.00449,0.0341,0,0,0,0,0,0,0
1738831528478940725,0.05792,-0.00699,0.964,0.000174,0.00661,-0.004517,8.5e-05,-0.0045,-0.05905,0.02716,-0.02641,1.0,0.0,0.003906,-0.0,9.42e-05,-0.004665,0.03366,0,0,0,0,0,0,0
1738831528528693675,0.05792,-0.006645,0.9634,5.3e-05,0.00657,-0.00461,7.6e-05,-0.004414,-0.05908,0.02716,-0.02641,1.0,0.0,0.003906,-0.0,9.48e-05,-0.00466,0.03342,0,0,0,0,0,0,0
1738831528578704357,0.05792,-0.006332,0.9634,4.4e-05,0.006508,-0.00372,0.000106,-0.00414,-0.05902,0.02716,-0.02641,1.0,0.0,0.003906,-0.0,9.84e-05,-0.00449,0.03305,0,0,0,0,0,0,0
1738831528628686666,0.05792,-0.006023,0.9634,0.000133,0.006447,-0.002794,9.9e-05,-0.004032,-0.05896,0.02716,-0.02641,1.0,0.0,0.003906,-0.0,0.0001011,-0.00432,0.03314,0,0,0,0,0,0,0
1738831528678712606,0.05795,-0.005688,0.9634,0.00025,0.006393,-0.001752,6.8e-05,-0.004025,-0.05896,0.02716,-0.02641,0.996,0.0,0.003906,-0.0,1.585e-05,-0.00423,0.03333,0,0,0,0,0,0,0
1738831528728706598,0.05795,-0.005383,0.963,0.000351,0.006344,-0.001116,8.6e-05,-0.00407,-0.05896,0.02716,-0.02641,0.996,0.0,0.003906,-0.0,1.53e-05,-0.00423,0.03357,0,0,0,0,0,0,0
1738831528778719186,0.05798,-0.005054,0.963,0.000414,0.006294,-0.000978,6e-05,-0.004185,-0.05896,0.02716,-0.02641,1.0,0.0,0.003906,-0.0,9.96e-05,-0.00432,0.03384,0,0,0,0,0,0,0
1738831528828699111,0.05798,-0.004753,0.963,0.000409,0.006264,-0.001614,4.9e-05,-0.004337,-0.059,0.02716,-0.02641,1.0,0.0,0.003906,-0.0,1.18e-05,-0.004402,0.03384,0,0,0,0,0,0,0
1738831528878704071,0.058,-0.00443,0.963,0.000347,0.00623,-4.3e-05,4.8e-05,-0.00427,-0.05902,0.02716,-0.02641,0.996,0.0,0.003906,-0.0,9.67e-05,-0.00449,0.03384,0,0,0,0,0,0,0
1738831528928691387,0.05804,-0.004128,0.963,0.000405,0.006203,0.001493,4.2e-05,-0.00405,-0.05905,0.02716,-0.02641,0.996,0.0,0.003906,-0.0,1.18e-05,-0.004402,0.03384,0,0,0,0,0,0,0
1738831528978716135,0.05804,-0.003807,0.963,0.000502,0.00617,0.002554,4.6e-05,-0.004105,-0.05908,0.02716,-0.02641,0.996,0.0,0.003906,-0.0,1.436e-05,-0.00423,0.03403,0,0,0,0,0,0,0
1738831529028687477,0.05807,-0.003511,0.9634,0.000538,0.006134,0.002897,6.2e-05,-0.00424,-0.05914,0.02716,-0.02641,0.996,0.0,0.003906,-0.0,9.924e-05,-0.00432,0.03403,0,0,0,0,0,0,0
1738831529078713893,0.0581,-0.003195,0.9634,0.000512,0.006092,0.003078,9.2e-05,-0.004326,-0.0592,0.02716,-0.02641,0.996,0.0,0.003906,-0.0,1.144e-05,-0.004402,0.03403,0,0,0,0,0,0,0
1738831529128732919,0.05814,-0.002903,0.9634,0.000468,0.006042,0.00352,9.2e-05,-0.00433,-0.05923,0.02716,-0.02641,0.996,0.0,0.003906,-0.0,9.704e-05,-0.00449,0.03366,0,0,0,0,0,0,0
1738831529178719758,0.05817,-0.00259,0.964,0.000443,0.00598,0.00431,0.000118,-0.004253,-0.05923,0.02716,-0.02641,0.996,0.0,0.003906,-0.0,9.82e-05,-0.00449,0.03314,0,0,0,0,0,0,0
1738831529228718280,0.05817,-0.002304,0.964,0.000445,0.005917,0.005054,0.000127,-0.00423,-0.05917,0.02716,-0.02641,0.996,0.0,0.003906,-0.0,9.84e-05,-0.00449,0.03305,0,0,0,0,0,0,0
1738831529278718709,0.0582,-0.001999,0.9644,0.000447,0.005856,0.005074,0.000108,-0.004276,-0.05914,0.02716,-0.02641,0.996,0.0,0.003906,0.003906,9.805e-05,-0.00449,0.03323,0,0,0,0,0,0,0
1738831529328726530,0.05823,-0.001719,0.9644,0.00041,0.005806,0.005245,9.8e-05,-0.004337,-0.0591,0.02716,-0.02641,0.996,0.0,0.003906,0.003906,9.78e-05,-0.00449,0.03333,0,0,0,0,0,0,0
1738831529378732204,0.05826,-0.001419,0.965,0.000383,0.005745,0.005615,0.00013,-0.00426,-0.05905,0.02716,-0.02641,0.996,0.0,0.003906,0.003906,9.88e-05,-0.00449,0.0329,0,0,0,0,0,0,0
1738831529428731203,0.05826,-0.001145,0.965,0.000371,0.005676,0.00557,0.000141,-0.004295,-0.059,0.02716,-0.02641,0.996,0.0,0.003906,0.003906,9.84e-05,-0.00449,0.03305,0,0,0,0,0,0,0
1738831529478756666,0.0583,-0.000851,0.9653,0.000331,0.005608,0.00459,0.00016,-0.00437,-0.05896,0.02716,9.5e-05,0.996,0.0,0.003906,0.003906,9.82e-05,-0.00449,0.03314,0,0,0,0,0,0,0
1738831529528728008,0.0583,-0.000584,0.9653,0.000247,0.005535,0.003254,0.000148,-0.004467,-0.0589,0.02716,9.5e-05,0.996,0.0,0.003906,0.003906,0.0001831,-0.004578,0.03314,0,0,0,0,0,0,0
1738831529578727006,0.0583,-0.000298,0.966,0.000122,0.00547,0.002024,0.000137,-0.004482,-0.0588,0.02716,9.5e-05,0.996,0.0,0.003906,-0.0,9.614e-05,-0.004665,0.0328,0,0,0,0,0,0,0
1738831529628726005,0.05832,-3.7e-05,0.966,4.3e-05,0.005417,0.001963,0.000112,-0.00432,-0.05872,0.02716,9.5e-05,0.996,0.0,0.003906,-0.0,9.656e-05,-0.004665,0.03262,0,0,0,0,0,0,0
1738831529678730487,0.05832,0.000244,0.966,5.6e-05,0.005367,0.002718,9.2e-05,-0.004147,-0.0586,0.02716,9.5e-05,0.996,0.0,0.003906,-0.0,0.000184,-0.004578,0.0327,0,0,0,0,0,0,0
1738831529728713035,0.05832,0.0005,0.966,0.000137,0.005325,0.002882,0.000105,-0.004074,-0.0585,0.02716,9.5e-05,0.996,0.0,0.003906,-0.0,0.0001011,-0.00432,0.03314,0,0,0,0,0,0,0
1738831529778733968,0.05832,0.000776,0.9663,0.000196,0.005276,0.002535,9.7e-05,-0.004204,-0.05847,0.02716,9.5e-05,0.996,0.0,0.003906,-0.0,0.0001003,-0.00432,0.0335,0,0,0,0,0,0,0
1738831529828718185,0.05832,0.001028,0.9663,0.000211,0.005245,0.002522,6.2e-05,-0.004208,-0.05844,0.02716,9.5e-05,0.996,0.0,0.003906,-0.0,0.000185,-0.004406,0.03357,0,0,0,0,0,0,0
1738831529878762483,0.05835,0.0013,0.9663,0.000237,0.00522,0.001993,5.3e-05,-0.004215,-0.05847,0.02716,9.5e-05,0.996,0.0,0.003906,-0.0,1.22e-05,-0.004402,0.03366,0,0,0,0,0,0,0
1738831529928733348,0.05835,0.00155,0.9663,0.000244,0.005203,0.001517,4.5e-05,-0.004246,-0.0585,0.02716,9.5e-05,1.0,0.0,0.0,-0.0,1.18e-05,-0.004402,0.03384,0,0,0,0,0,0,0
1738831529978749990,0.05838,0.00182,0.9663,0.000254,0.005188,0.001029,1.5e-05,-0.004215,-0.05853,0.02716,9.5e-05,1.0,0.0,0.0,-0.0,1.144e-05,-0.004402,0.03403,0,0,0,0,0,0,0
1738831530028736114,0.05838,0.00207,0.9663,0.000266,0.005188,0.000231,3.1e-05,-0.004265,-0.05856,0.02716,9.5e-05,1.0,0.0,0.0,-0.0,1.11e-05,-0.004402,0.03418,0,0,0,0,0,0,0
1738831530078741312,0.05838,0.002338,0.9663,0.000255,0.005177,0.001558,2.7e-05,-0.00418,-0.05865,0.02716,9.5e-05,0.996,0.0,0.0,-0.0,1.11e-05,-0.004402,0.03418,0,0,0,0,0,0,0
1738831530128735780,0.0584,0.002586,0.967,0.000352,0.005165,0.002209,3.8e-05,-0.004,-0.05875,0.02716,9.5e-05,0.996,0.0,0.0,-0.0,9.847e-05,-0.00432,0.03436,0,0,0,0,0,0,0
1738831530178726196,0.05844,0.002855,0.967,0.000431,0.005142,0.001957,5.8e-05,-0.00422,-0.05887,0.02716,9.5e-05,0.996,0.0,0.0,-0.0,9.847e-05,-0.00432,0.03436,0,0,0,0,0,0,0
1738831530228718996,0.05844,0.003101,0.967,0.000421,0.005116,0.002087,8e-05,-0.00426,-0.059,0.02716,9.5e-05,0.996,0.0,0.0,-0.0,9.55e-05,-0.00449,0.03436,0,0,0,0,0,0,0
1738831530278753995,0.05847,0.003366,0.967,0.00042,0.005077,0.002506,7.4e-05,-0.004227,-0.05908,0.02716,9.5e-05,0.996,0.0,0.0,-0.0,9.51e-05,-0.00449,0.03452,0,0,0,0,0,0,0
1738831530328727006,0.0585,0.003609,0.9673,0.000441,0.005054,0.00213,4.8e-05,-0.00423,-0.05923,0.02716,9.5e-05,1.0,0.0,0.0,-0.0,9.51e-05,-0.00449,0.03452,0,0,0,0,0,0,0
1738831530378731012,0.0585,0.00385,0.9673,0.000408,0.00504,0.001201,4.3e-05,-0.00439,-0.05933,0.02716,9.5e-05,1.0,0.0,0.0,-0.0,8.5e-06,-0.004578,0.03403,0,0,0,0,0,0,0
1738831530428731203,0.05853,0.004112,0.9673,0.000332,0.005028,0.000706,2.9e-05,-0.004356,-0.0594,0.02716,9.5e-05,1.0,0.0,0.0,-0.0,9.1e-06,-0.004574,0.03375,0,0,0,0,0,0,0
1738831530478758573,0.05853,0.004353,0.9673,0.000299,0.00502,-0.000123,4e-06,-0.004326,-0.05942,0.02716,9.5e-05,1.0,0.0,0.0,-0.0,9.7e-06,-0.004578,0.0335,0,0,0,0,0,0,0
1738831530528717279,0.05856,0.004616,0.9673,0.000251,0.005024,-0.001499,1.1e-05,-0.004368,-0.0594,0.02716,9.5e-05,1.0,0.0,0.0,-0.0,1.05e-05,-0.004578,0.03314,0,0,0,0,0,0,0
1738831530578740596,0.05856,0.004875,0.9673,0.000172,0.00502,-0.003061,3.5e-05,-0.004433,-0.0593,0.02716,9.5e-05,1.0,0.0,0.0,-0.0,1.15e-05,-0.004574,0.0327,0,0,0,0,0,0,0
1738831530628715753,0.0586,0.005116,0.967,0.000102,0.005013,-0.003975,4e-05,-0.004353,-0.0592,0.02716,9.5e-05,1.0,0.0,0.0,-0.0,9.68e-05,-0.00466,0.03253,0,0,0,0,0,0,0
1738831530678749322,0.0586,0.005356,0.967,9e-05,0.00499,-0.00286,7e-05,-0.004143,-0.0591,0.02716,9.5e-05,1.0,0.0,0.0,-0.003906,1.204e-05,-0.004578,0.03247,0,0,0,0,0,0,0
1738831530728734731,0.0586,0.005615,0.967,0.000235,0.004955,-0.001329,6.7e-05,-0.003872,-0.05896,0.02716,9.5e-05,1.0,0.0,0.0,-0.0,0.0001022,-0.00432,0.03262,0,0,0,0,0,0,0
1738831530778755187,0.0586,0.005875,0.967,0.000428,0.00493,-0.000543,3.7e-05,-0.003925,-0.05884,0.02716,9.5e-05,1.0,0.0,0.0,-0.0,0.0001043,-0.004147,0.033,0,0,0,0,0,0,0
1738831530828733682,0.05862,0.006107,0.9663,0.000532,0.004913,-0.001138,4.5e-05,-0.00415,-0.05878,0.02716,9.5e-05,1.0,0.0,0.0,-0.0,0.00010395,-0.004147,0.03314,0,0,0,0,0,0,0
1738831530878731012,0.05865,0.006344,0.9663,0.000537,0.004898,-0.001588,6.9e-05,-0.00427,-0.05875,0.02716,9.5e-05,1.0,0.0,0.0,-0.0,0.00010073,-0.00432,0.03333,0,0,0,0,0,0,0
1738831530928725719,0.0587,0.0066,0.9663,0.000521,0.004868,-0.002111,7.5e-05,-0.004276,-0.05872,0.02716,9.5e-05,1.0,0.0,0.0,-0.0,9.704e-05,-0.00449,0.03366,0,0,0,0,0,0,0
1738831530978757143,0.05872,0.00685,0.9663,0.000494,0.004845,-0.002579,8.4e-05,-0.004307,-0.05875,0.02716,9.5e-05,1.0,0.0,0.0,-0.0,9.686e-05,-0.00449,0.03375,0,0,0,0,0,0,0
1738831531028693914,0.05875,0.007084,0.9663,0.000479,0.004814,-0.002476,7.5e-05,-0.004227,-0.05875,0.02716,9.5e-05,1.0,0.0,0.0,-0.0,9.626e-05,-0.00449,0.03403,0,0,0,0,0,0,0
1738831531078688859,0.05878,0.00737,0.966,0.000526,0.004795,-0.001268,3.5e-05,-0.00409,-0.05884,0.02716,9.5e-05,1.0,0.0,0.0,-0.0,9.626e-05,-0.00449,0.03403,0,0,0,0,0,0,0
1738831531128679752,0.05878,0.00754,0.966,0.000597,0.004784,-0.000448,4.3e-05,-0.00403,-0.0589,0.02716,9.5e-05,0.996,0.0,0.0,-0.0,1.4e-05,-0.00423,0.03418,0,0,0,0,0,0,0
1738831531178710937,0.0588,0.00781,0.966,0.00072,0.004757,0.000649,6.2e-05,-0.00403,-0.05896,0.02716,9.5e-05,0.996,0.0,0.0,-0.0,1.4e-05,-0.00423,0.03418,0,0,0,0,0,0,0
1738831531228685379,0.05887,0.00804,0.966,0.000803,0.004726,0.000991,8.4e-05,-0.00412,-0.05905,0.02716,9.5e-05,0.996,0.0,0.0,-0.0,1.365e-05,-0.00423,0.03436,0,0,0,0,0,0,0
1738831531278676509,0.0589,0.008286,0.9663,0.000835,0.004692,0.001021,0.000105,-0.004234,-0.05917,0.02716,9.5e-05,0.996,0.0,0.0,-0.0,9.847e-05,-0.00432,0.03436,0,0,0,0,0,0,0
1738831531328677177,0.05893,0.00851,0.9663,0.000815,0.00465,0.002007,9e-05,-0.00426,-0.05927,0.02716,9.5e-05,0.996,0.0,0.0,-0.0,1.067e-05,-0.004402,0.03436,0,0,0,0,0,0,0
1738831531378715276,0.059,0.00873,0.9663,0.000851,0.004612,0.0036,0.000115,-0.004066,-0.05936,0.02716,9.5e-05,0.996,0.0,0.0,-0.0,9.626e-05,-0.00449,0.03403,0,0,0,0,0,0,0
1738831531428679943,0.05902,0.008965,0.9663,0.000939,0.00456,0.004322,0.000109,-0.004135,-0.05945,0.02716,9.5e-05,0.996,0.0,0.0,-0.0,1.4e-05,-0.00423,0.03418,0,0,0,0,0,0,0
1738831531478688001,0.05908,0.0092,0.967,0.000945,0.004513,0.004147,0.000105,-0.00431,-0.0595,0.02716,9.5e-05,0.996,0.0,0.0,-0.0,9.88e-05,-0.00432,0.03418,0,0,0,0,0,0,0
1738831531528679370,0.0591,0.00942,0.967,0.000873,0.004482,0.004227,0.000105,-0.004417,-0.0596,0.02716,9.5e-05,0.996,0.0,0.0,-0.0,9.704e-05,-0.00449,0.03366,3.0,2.0,5.0,0.0,0.0,0.0,0.0
1738831531578694820,0.05917,0.009636,0.9673,0.000802,0.00444,0.004536,0.000103,-0.004333,-0.05963,0.02716,9.5e-05,0.996,0.0,0.0,-0.0,9.9e-06,-0.004574,0.03342,3.0,2.0,5.0,0.0,0.0,0.0,0.0
1738831531628676176,0.0592,0.009865,0.9673,0.000761,0.0044,0.004467,9.7e-05,-0.004326,-0.05957,0.02716,9.5e-05,0.996,0.0,0.0,-0.0,9.86e-05,-0.00449,0.033,3.0,2.0,5.0,0.0,0.0,0.0,0.0
1738831531678661108,0.05923,0.01008,0.968,0.000679,0.004543,0.03052,-0.000651,-0.002714,-0.0595,0.02716,9.5e-05,0.996,0.0,0.0,-0.0,9.9e-05,-0.00449,0.0328,3.0,2.0,5.0,0.0,0.0,0.0,0.0
1738831531728686094,0.0594,0.01035,0.973,0.00734,0.00676,0.1935,-0.0071,0.01779,-0.05948,0.02716,9.5e-05,1.0,0.0,0.0,0.03906,-0.001896,0.000204,0.033,3.0,2.0,5.0,0.0,0.0,0.0,0.0
1738831531778709650,0.06027,0.0108,0.988,0.0319,0.012794,0.4236,-0.01454,0.04156,-0.05963,0.02716,9.5e-05,1.0,0.003906,0.003906,0.1484,-0.006733,0.01573,0.03317,3.0,2.0,5.0,0.0,0.0,0.0,0.0
1738831531828701496,0.0631,0.01192,1.018,0.0806,0.0342,0.706,-0.0508,0.0735,-0.06003,0.02716,9.5e-05,1.027,0.04297,0.01563,0.4805,-0.02281,0.0508,0.0337,3.0,2.0,5.0,0.0,0.0,0.0,0.0
1738831531878731727,0.06866,0.014755,1.058,0.1564,0.09015,0.971,-0.1135,0.1167,-0.0607,0.04465,9.507e-05,1.039,0.0664,0.03125,0.617,-0.04248,0.06696,0.0338,3.0,2.0,5.0,0.0,0.0,0.0,0.0
1738831531928757905,0.07996,0.02219,1.116,0.2856,0.2025,1.259,-0.1818,0.1859,-0.06174,0.04465,9.507e-05,1.102,0.1719,0.1289,1.004,-0.1324,0.1317,0.03372,3.0,2.0,5.0,0.0,0.0,0.0,0.0
1738831531978729248,0.09784,0.0354,1.183,0.4668,0.3516,1.521,-0.235,0.2632,-0.0625,0.04465,9.507e-05,1.141,0.254,0.2148,1.199,-0.1779,0.1807,0.03345,3.0,2.0,5.0,0.0,0.0,0.0,0.0
1738831532028763532,0.1284,0.0585,1.269,0.7056,0.5317,1.737,-0.2644,0.3325,-0.06018,0.06213,0.02661,1.238,0.508,0.4648,1.57,-0.2488,0.2903,0.03378,3.0,2.0,5.0,0.0,0.0,0.0,0.0
1738831532078778505,0.1676,0.0878,1.3545,0.923,0.6846,1.823,-0.279,0.3706,-0.0552,0.07965,0.02661,1.27,0.617,0.5625,1.676,-0.261,0.323,0.03546,3.0,2.0,5.0,0.0,0.0,0.0,0.0
1738831532128750562,0.2217,0.1277,1.45,1.148,0.843,1.86,-0.2878,0.3801,-0.05212,0.1321,0.07965,1.395,0.918,0.8203,1.816,-0.2817,0.375,0.04266,3.0,2.0,5.0,0.0,0.0,0.0,0.0
1738831532178771257,0.2817,0.1716,1.54,1.349,0.9844,1.874,-0.2905,0.3801,-0.05258,0.1671,0.10614,1.461,1.059,0.9414,1.844,-0.2874,0.3796,0.04446,3.0,2.0,5.0,0.0,0.0,0.0,0.0
1738831532228783369,0.3574,0.2267,1.638,1.555,1.13,1.881,-0.2778,0.3645,-0.0541,0.2544,0.1857,1.594,1.328,1.172,1.863,-0.2874,0.3755,0.0435,3.0,2.0,5.0,0.0,0.0,0.0,0.0
1738831532278739929,0.4363,0.284,1.728,1.731,1.253,1.884,-0.2634,0.3474,-0.05505,0.272,0.1857,1.621,1.414,1.246,1.871,-0.28,0.367,0.04282,3.0,2.0,5.0,0.0,0.0,0.0,0.0
1738831532328785657,0.5312,0.3523,1.826,1.905,1.372,1.887,-0.2366,0.316,-0.05582,0.377,0.2917,1.754,1.648,1.445,1.879,-0.2573,0.3398,0.04153,3.0,2.0,5.0,0.0,0.0,0.0,0.0
1738831532378758907,0.626,0.4207,1.916,2.047,1.466,1.89,-0.2133,0.2876,-0.05658,0.4294,0.3447,1.82,1.758,1.535,1.883,-0.238,0.3174,0.04114,3.0,2.0,5.0,0.0,0.0,0.0,0.0
1738831532428780555,0.736,0.499,2.016,2.176,1.549,1.892,-0.1808,0.2483,-0.05786,0.5693,0.451,1.957,1.945,1.6875,1.891,-0.202,0.2742,0.03983,3.0,2.0,5.0,0.0,0.0,0.0,0.0
1738831532478756427,0.843,0.575,2.105,2.273,1.608,1.894,-0.1542,0.2172,-0.059,0.6045,0.4773,1.98,2.0,1.727,1.895,-0.1857,0.2542,0.03934,3.0,2.0,5.0,0.0,0.0,0.0,0.0
1738831532528785467,0.9634,0.66,2.205,2.361,1.656,1.898,-0.1208,0.1875,-0.06003,0.7617,0.61,2.113,2.137,1.828,1.898,-0.1455,0.2085,0.03775,3.0,2.0,5.0,0.0,0.0,0.0,0.0
1738831532578784465,1.079,0.74,2.295,2.428,1.686,1.907,-0.0951,0.1666,-0.0609,0.9014,0.7427,2.238,2.234,1.891,1.91,-0.1058,0.1749,0.03644,3.0,2.0,5.0,0.0,0.0,0.0,0.0
1738831532628789663,1.206,0.8286,2.395,2.484,1.701,1.918,-0.06183,0.1357,-0.06174,0.989,0.8223,2.312,2.285,1.918,1.914,-0.0835,0.156,0.03586,3.0,2.0,5.0,0.0,0.0,0.0,0.0
1738831532678785562,1.327,0.91,2.488,2.521,1.701,1.932,-0.03568,0.1099,-0.0625,1.041,0.8486,2.34,2.312,1.922,1.918,-0.0668,0.1404,0.03558,3.0,2.0,5.0,0.0,0.0,0.0,0.0
1738831532728762865,1.458,0.998,2.588,2.543,1.686,1.945,-0.003855,0.07666,-0.063,1.217,0.981,2.473,2.371,1.934,1.9375,-0.02739,0.10144,0.0345,3.0,2.0,5.0,0.0,0.0,0.0,0.0
1738831532778779506,1.581,1.078,2.682,2.545,1.658,1.958,0.02055,0.05005,-0.0633,1.392,1.113,2.598,2.395,1.91,1.953,0.01036,0.0608,0.0339,3.0,2.0,5.0,0.0,0.0,0.0,0.0
1738831532828718900,1.713,1.164,2.783,2.531,1.615,1.972,0.0498,0.01974,-0.06335,1.479,1.193,2.668,2.398,1.891,1.961,0.02809,0.04208,0.03384,3.0,2.0,5.0,0.0,0.0,0.0,0.0
1738831532878709793,1.834,1.24,2.879,2.504,1.564,1.98,0.0719,-0.004303,-0.06354,1.549,1.246,2.707,2.395,1.859,1.969,0.0454,0.02437,0.03372,3.0,2.0,5.0,0.0,0.0,0.0,0.0
1738831532928724288,1.953,1.313,2.975,2.463,1.503,1.986,0.09717,-0.0342,-0.06366,1.724,1.379,2.844,2.367,1.789,1.98,0.07874,-0.01221,0.03357,3.0,2.0,5.0,0.0,0.0,0.0,0.0
1738831532978728532,2.08,1.39,3.078,2.402,1.426,1.992,0.11926,-0.0618,-0.06396,1.811,1.432,2.914,2.344,1.742,1.984,0.09753,-0.03467,0.03348,3.0,2.0,5.0,0.0,0.0,0.0,0.0
1738831533028738737,2.193,1.456,3.174,2.334,1.347,1.994,0.1353,-0.08356,-0.0639,1.969,1.564,3.055,2.273,1.633,1.992,0.1256,-0.0704,0.03314,3.0,2.0,5.0,0.0,0.0,0.0,0.0
1738831533078721046,2.312,1.523,3.277,2.25,1.256,1.995,0.1477,-0.10236,-0.0639,2.021,1.591,3.086,2.246,1.586,1.992,0.1339,-0.0815,0.03323,3.0,2.0,5.0,0.0,0.0,0.0,0.0
1738831533128745317,2.418,1.582,3.373,2.166,1.168,1.996,0.1573,-0.1196,-0.06396,2.195,1.697,3.227,2.148,1.457,1.992,0.1504,-0.10693,0.0332,3.0,2.0,5.0,0.0,0.0,0.0,0.0
1738831533178756952,2.527,1.64,3.477,2.066,1.069,1.996,0.1648,-0.1353,-0.0642,2.336,1.803,3.355,2.043,1.328,1.992,0.1619,-0.1289,0.03302,3.0,2.0,5.0,0.0,0.0,0.0,0.0
1738831533228746891,2.625,1.689,3.572,1.967,0.9775,1.994,0.1704,-0.1508,-0.0644,2.424,1.856,3.434,1.977,1.25,1.992,0.1669,-0.1407,0.03278,3.0,2.0,5.0,0.0,0.0,0.0,0.0
1738831533278767585,2.732,1.741,3.684,1.849,0.8735,1.964,0.1744,-0.1669,-0.0649,2.457,1.883,3.469,1.934,1.195,1.988,0.1697,-0.149,0.03256,3.0,2.0,5.0,0.0,0.0,0.0,0.0
1738831533328762054,2.81,1.777,3.768,1.757,0.799,1.902,0.1754,-0.1832,-0.06604,2.598,1.962,3.61,1.805,1.055,1.957,0.1743,-0.1697,0.03183,3.0,2.0,5.0,0.0,0.0,0.0,0.0
1738831533378762483,2.898,1.816,3.865,1.642,0.7104,1.839,0.1754,-0.1938,-0.06635,2.668,1.988,3.676,1.738,0.9883,1.906,0.1752,-0.1829,0.03064,3.0,2.0,5.0,0.0,0.0,0.0,0.0
1738831533428701877,2.977,1.849,3.951,1.54,0.636,1.743,0.1742,-0.2045,-0.0669,2.791,2.068,3.809,1.598,0.8594,1.8125,0.1747,-0.1964,0.02994,3.0,2.0,5.0,0.0,0.0,0.0,0.0
1738831533478765726,3.053,1.88,4.04,1.422,0.554,1.666,0.1721,-0.2095,-0.0666,2.826,2.068,3.836,1.551,0.8164,1.762,0.174,-0.2026,0.02948,3.0,2.0,5.0,0.0,0.0,0.0,0.0
1738831533528760433,3.123,1.907,4.125,1.318,0.4856,1.523,0.1672,-0.2173,-0.06696,2.93,2.148,3.957,1.41,0.6953,1.648,0.1708,-0.2095,0.02931,3.0,2.0,5.0,0.0,0.0,0.0,0.0
1738831533578761100,3.184,1.929,4.195,1.215,0.4202,1.424,0.1626,-0.2208,-0.0668,3.035,2.174,4.06,1.289,0.6016,1.484,0.1642,-0.2202,0.02841,3.0,2.0,5.0,0.0,0.0,0.0,0.0
1738831533628735542,3.24,1.947,4.258,1.118,0.3613,1.3,0.1572,-0.2201,-0.0663,3.07,2.201,4.117,1.211,0.543,1.391,0.1602,-0.2191,0.02861,3.0,2.0,5.0,0.0,0.0,0.0,0.0
1738831533678753376,3.295,1.965,4.324,1.006,0.294,1.212,0.152,-0.2153,-0.0653,3.105,2.201,4.133,1.164,0.508,1.324,0.1572,-0.2191,0.02849,3.0,2.0,5.0,0.0,0.0,0.0,0.0
1738831533728770732,3.342,1.977,4.38,0.9053,0.234,1.137,0.1455,-0.2084,-0.06433,3.176,2.254,4.223,1.023,0.4062,1.199,0.1499,-0.2122,0.02954,3.0,2.0,5.0,0.0,0.0,0.0,0.0
1738831533778755664,3.385,1.987,4.438,0.797,0.1697,1.078,0.1395,-0.2006,-0.06323,3.244,2.281,4.29,0.9062,0.3203,1.117,0.142,-0.2036,0.03036,3.0,2.0,5.0,0.0,0.0,0.0,0.0
1738831533828763246,3.422,1.994,4.49,0.71,0.1194,0.976,0.1346,-0.202,-0.0634,3.28,2.281,4.332,0.828,0.2656,1.0625,0.1377,-0.1989,0.03094,3.0,2.0,5.0,0.0,0.0,0.0,0.0
1738831533878754615,3.455,1.999,4.535,0.6064,0.06232,0.9116,0.1299,-0.2014,-0.0633,3.297,2.281,4.348,0.7812,0.2305,0.996,0.1345,-0.2006,0.03061,3.0,2.0,5.0,0.0,0.0,0.0,0.0
1738831533928748607,3.484,2.0,4.582,0.5015,0.005367,0.8794,0.1208,-0.1914,-0.06238,3.35,2.307,4.414,0.6484,0.1406,0.9023,0.1274,-0.1982,0.03078,3.0,2.0,5.0,0.0,0.0,0.0,0.0
1738831533978986501,3.506,2.0,4.625,0.41,-0.0432,0.851,0.11334,-0.1842,-0.06174,3.385,2.307,4.47,0.5234,0.0586,0.867,0.1161,-0.1859,0.0317,3.0,2.0,5.0,0.0,0.0,0.0,0.0
1738831534028764963,3.523,1.997,4.664,0.3237,-0.08673,0.812,0.1057,-0.1818,-0.06186,3.402,2.307,4.496,0.461,0.01953,0.84,0.1107,-0.1824,0.0318,3.0,2.0,5.0,0.0,0.0,0.0,0.0
1738831534078767776,3.54,1.991,4.707,0.2336,-0.1295,0.7666,0.09875,-0.1776,-0.06174,3.42,2.307,4.516,0.414,-0.007812,0.8125,0.10596,-0.1812,0.03152,3.0,2.0,5.0,0.0,0.0,0.0,0.0
1738831534128763675,3.547,1.984,4.742,0.16,-0.162,0.6895,0.09,-0.1735,-0.06213,3.438,2.281,4.57,0.2969,-0.0781,0.75,0.09607,-0.1757,0.03119,3.0,2.0,5.0,0.0,0.0,0.0,0.0
1738831534178746461,3.555,1.975,4.773,0.0801,-0.195,0.629,0.0819,-0.1644,-0.0619,3.438,2.281,4.598,0.2461,-0.10547,0.6914,0.0894,-0.1727,0.03076,3.0,2.0,5.0,0.0,0.0,0.0,0.0
1738831534228752613,3.557,1.965,4.805,0.01177,-0.2219,0.573,0.0746,-0.1553,-0.06168,3.455,2.281,4.637,0.1484,-0.1562,0.6133,0.0794,-0.1608,0.03078,3.0,2.0,5.0,0.0,0.0,0.0,0.0
1738831534278785228,3.555,1.952,4.832,-0.05997,-0.2491,0.5337,0.0679,-0.1444,-0.06116,3.455,2.254,4.652,0.10547,-0.1758,0.574,0.07477,-0.1554,0.03082,3.0,2.0,5.0,0.0,0.0,0.0,0.0
1738831534328757762,3.55,1.939,4.855,-0.1204,-0.271,0.5,0.05927,-0.1326,-0.06085,3.455,2.254,4.69,0.01172,-0.2227,0.5195,0.06525,-0.1405,0.03117,3.0,2.0,5.0,0.0,0.0,0.0,0.0
1738831534378737688,3.543,1.925,4.883,-0.1808,-0.2913,0.4778,0.0511,-0.1203,-0.06042,3.455,2.254,4.707,-0.02734,-0.2422,0.4922,0.05878,-0.1317,0.03125,3.0,2.0,5.0,0.0,0.0,0.0,0.0
1738831534428743362,3.533,1.911,4.906,-0.2311,-0.3064,0.4631,0.04245,-0.1099,-0.0602,3.455,2.227,4.734,-0.10156,-0.2734,0.4648,0.0484,-0.11664,0.0316,3.0,2.0,5.0,0.0,0.0,0.0,0.0
1738831534478719234,3.52,1.895,4.93,-0.2795,-0.3188,0.4446,0.03455,-0.1009,-0.0599,3.438,2.201,4.75,-0.1289,-0.2852,0.4531,0.04288,-0.1102,0.03162,3.0,2.0,5.0,0.0,0.0,0.0,0.0
1738831534528756618,3.504,1.879,4.95,-0.3193,-0.3262,0.4194,0.02612,-0.0935,-0.05978,3.438,2.174,4.773,-0.1914,-0.3086,0.4258,0.03275,-0.0989,0.03183,3.0,2.0,5.0,0.0,0.0,0.0,0.0
1738831534578739166,3.486,1.862,4.973,-0.358,-0.3306,0.3948,0.01857,-0.08466,-0.0595,3.42,2.174,4.793,-0.2227,-0.3203,0.4062,0.02565,-0.09283,0.03192,3.0,2.0,5.0,0.0,0.0,0.0,0.0
1738831534628764390,3.469,1.846,4.99,-0.3887,-0.3315,0.3652,0.0115,-0.0774,-0.0594,3.402,2.148,4.816,-0.2734,-0.332,0.3672,0.015465,-0.08124,0.03186,3.0,2.0,5.0,0.0,0.0,0.0,0.0
1738831534678739786,3.447,1.829,5.008,-0.418,-0.3296,0.3374,0.00532,-0.0689,-0.05914,3.402,2.121,4.83,-0.289,-0.336,0.3516,0.01181,-0.07745,0.03195,3.0,2.0,5.0,0.0,0.0,0.0,0.0
1738831534728752136,3.428,1.813,5.023,-0.4404,-0.3252,0.3066,-0.000806,-0.0614,-0.05896,3.385,2.094,4.848,-0.3281,-0.336,0.3125,0.003345,-0.0661,0.032,3.0,2.0,5.0,0.0,0.0,0.0,0.0
1738831534778749227,3.404,1.796,5.04,-0.461,-0.3179,0.277,-0.00623,-0.05267,-0.05872,3.367,2.094,4.86,-0.3438,-0.336,0.293,-0.000558,-0.06155,0.03214,3.0,2.0,5.0,0.0,0.0,0.0,0.0
1738831534828758716,3.38,1.781,5.05,-0.4756,-0.3093,0.2426,-0.011925,-0.04547,-0.05853,3.35,2.068,4.875,-0.371,-0.332,0.25,-0.00806,-0.04996,0.03223,3.0,2.0,5.0,0.0,0.0,0.0,0.0
1738831534878761529,3.357,1.766,5.062,-0.488,-0.297,0.2234,-0.01695,-0.0365,-0.05832,3.332,2.041,4.89,-0.3828,-0.3281,0.2266,-0.0117,-0.04547,0.03238,3.0,2.0,5.0,0.0,0.0,0.0,0.0
1738831534928750038,3.332,1.752,5.074,-0.4949,-0.2842,0.2152,-0.0212,-0.02608,-0.0582,3.297,2.016,4.902,-0.4023,-0.3125,0.1992,-0.01799,-0.03406,0.03244,3.0,2.0,5.0,0.0,0.0,0.0,0.0
1738831534978745698,3.307,1.737,5.082,-0.497,-0.269,0.198,-0.02481,-0.01785,-0.058,3.28,2.016,4.91,-0.4062,-0.3047,0.1914,-0.02148,-0.02538,0.03247,3.0,2.0,5.0,0.0,0.0,0.0,0.0
1738831535028745412,3.283,1.725,5.094,-0.4966,-0.254,0.1725,-0.02826,-0.01469,-0.0578,3.262,1.988,4.918,-0.414,-0.2852,0.168,-0.026,-0.01633,0.03268,3.0,2.0,5.0,0.0,0.0,0.0,0.0
1738831535078747034,3.258,1.712,5.1,-0.4944,-0.2357,0.1569,-0.03122,-0.00973,-0.0576,3.244,1.988,4.93,-0.414,-0.2773,0.1523,-0.02812,-0.01465,0.03284,3.0,2.0,5.0,0.0,0.0,0.0,0.0
1738831535128761768,3.234,1.701,5.11,-0.4895,-0.2179,0.1486,-0.03415,-0.003288,-0.05753,3.209,1.962,4.938,-0.414,-0.254,0.1328,-0.03192,-0.008286,0.03287,3.0,2.0,5.0,0.0,0.0,0.0,0.0
1738831535178761959,3.209,1.69,5.117,-0.481,-0.1978,0.1354,-0.03662,0.00201,-0.05737,3.193,1.962,4.945,-0.414,-0.2383,0.125,-0.03442,-0.002888,0.03296,3.0,2.0,5.0,0.0,0.0,0.0,0.0
1738831535228761434,3.186,1.682,5.12,-0.4717,-0.1788,0.11743,-0.03824,0.004715,-0.05722,3.176,1.936,4.953,-0.4023,-0.2148,0.1094,-0.03732,0.003294,0.03308,3.0,2.0,5.0,0.0,0.0,0.0,0.0
1738831535278737068,3.162,1.673,5.13,-0.46,-0.1578,0.1,-0.0394,0.0082,-0.0571,3.158,1.909,4.96,-0.3984,-0.2031,0.09766,-0.03827,0.00478,0.03314,3.0,2.0,5.0,0.0,0.0,0.0,0.0
1738831535328771352,3.14,1.665,5.133,-0.448,-0.1384,0.0824,-0.0401,0.01109,-0.05698,3.14,1.909,4.97,-0.3828,-0.1758,0.0742,-0.03973,0.00947,0.03305,3.0,2.0,5.0,0.0,0.0,0.0,0.0
1738831535378775835,3.117,1.659,5.137,-0.4333,-0.1171,0.0721,-0.04053,0.01494,-0.0569,3.123,1.909,4.973,-0.375,-0.1602,0.0586,-0.04022,0.01154,0.03302,3.0,2.0,5.0,0.0,0.0,0.0,0.0
1738831535428762435,3.094,1.653,5.14,-0.4165,-0.09595,0.065,-0.04074,0.02046,-0.0568,3.105,1.883,4.977,-0.3594,-0.1328,0.04688,-0.04065,0.01674,0.03323,3.0,2.0,5.0,0.0,0.0,0.0,0.0
1738831535478725671,3.074,1.649,5.14,-0.3987,-0.07654,0.06192,-0.04086,0.02461,-0.05673,3.088,1.883,4.984,-0.3516,-0.1211,0.04297,-0.04077,0.02002,0.03326,3.0,2.0,5.0,0.0,0.0,0.0,0.0
1738831535528764247,3.057,1.6455,5.145,-0.3792,-0.0573,0.05997,-0.041,0.02852,-0.05664,3.07,1.856,4.99,-0.3281,-0.09375,0.03906,-0.04092,0.02563,0.03308,3.0,2.0,5.0,0.0,0.0,0.0,0.0
1738831535578745841,3.037,1.644,5.15,-0.3567,-0.03714,0.05002,-0.04092,0.03099,-0.05652,3.053,1.856,4.99,-0.3125,-0.0781,0.03906,-0.04105,0.02858,0.03317,3.0,2.0,5.0,0.0,0.0,0.0,0.0
1738831535628734111,3.021,1.643,5.15,-0.3362,-0.01921,0.03528,-0.03983,0.02992,-0.05637,3.035,1.856,4.992,-0.2852,-0.05078,0.02344,-0.04074,0.03125,0.03348,3.0,2.0,5.0,0.0,0.0,0.0,0.0
1738831535678723812,3.004,1.642,5.152,-0.3145,-0.000311,0.02757,-0.03845,0.03017,-0.0563,3.018,1.856,5.0,-0.2734,-0.03906,0.01563,-0.03992,0.03038,0.0336,3.0,2.0,5.0,0.0,0.0,0.0,0.0
1738831535728750944,2.988,1.642,5.152,-0.2942,0.01624,0.02373,-0.03635,0.03108,-0.0563,3.018,1.856,5.0,-0.2461,-0.01563,0.003906,-0.0381,0.03078,0.0337,3.0,2.0,5.0,0.0,0.0,0.0,0.0
1738831535778750181,2.975,1.644,5.156,-0.272,0.0329,0.02077,-0.03424,0.03152,-0.0563,3.0,1.856,5.0,-0.2305,0.0,0.003906,-0.03625,0.03152,0.03378,3.0,2.0,5.0,0.0,0.0,0.0,0.0
1738831535828749895,2.963,1.6455,5.156,-0.2517,0.04703,0.01688,-0.03177,0.03156,-0.05624,2.982,1.856,5.004,-0.2031,0.01953,-0.0,-0.0333,0.03198,0.03384,3.0,2.0,5.0,0.0,0.0,0.0,0.0
1738831535878733634,2.95,1.648,5.156,-0.23,0.061,0.01516,-0.02957,0.03143,-0.05624,2.982,1.829,5.008,-0.1953,0.02734,-0.0,-0.032,0.0319,0.03384,3.0,2.0,5.0,0.0,0.0,0.0,0.0
1738831535928718090,2.94,1.651,5.156,-0.2104,0.073,0.01374,-0.02818,0.0304,-0.05624,2.965,1.829,5.01,-0.168,0.04688,-0.0,-0.02908,0.0315,0.0338,3.0,2.0,5.0,0.0,0.0,0.0,0.0
1738831535978715896,2.928,1.655,5.156,-0.1903,0.08514,0.01165,-0.02707,0.02885,-0.0562,2.965,1.829,5.01,-0.1562,0.0586,-0.0,-0.02823,0.03061,0.03384,3.0,2.0,5.0,0.0,0.0,0.0,0.0
1738831536028720855,2.92,1.66,5.156,-0.1725,0.0957,0.01092,-0.0253,0.02803,-0.05624,2.947,1.856,5.008,-0.1289,0.0742,-0.003906,-0.02663,0.02878,0.03397,3.0,2.0,5.0,0.0,0.0,0.0,0.0
1738831536078735589,2.912,1.665,5.16,-0.1537,0.1061,0.011024,-0.0235,0.02736,-0.05624,2.947,1.829,5.02,-0.1211,0.0781,-0.003906,-0.02542,0.02823,0.034,3.0,2.0,5.0,0.0,0.0,0.0,0.0
1738831536128706455,2.904,1.67,5.16,-0.1371,0.1147,0.0109,-0.02126,0.02579,-0.05627,2.93,1.856,5.02,-0.09766,0.09375,-0.003906,-0.02284,0.02716,0.03424,3.0,2.0,5.0,0.0,0.0,0.0,0.0
1738831536178733110,2.898,1.677,5.16,-0.1204,0.12274,0.01003,-0.0192,0.02399,-0.0563,2.93,1.856,5.02,-0.08594,0.10156,-0.003906,-0.02113,0.02592,0.03433,3.0,2.0,5.0,0.0,0.0,0.0,0.0
1738831536228722333,2.893,1.683,5.16,-0.10583,0.1294,0.00813,-0.01787,0.02278,-0.05637,2.93,1.856,5.02,-0.0664,0.1133,-0.003906,-0.01877,0.0238,0.03397,3.0,2.0,5.0,0.0,0.0,0.0,0.0
1738831536278733968,2.887,1.689,5.16,-0.0908,0.136,0.00712,-0.01678,0.02185,-0.05634,2.912,1.856,5.03,-0.0586,0.1172,-0.003906,-0.01782,0.02301,0.0338,3.0,2.0,5.0,0.0,0.0,0.0,0.0
1738831536328716993,2.883,1.696,5.16,-0.07764,0.1412,0.0061,-0.01504,0.0203,-0.05634,2.912,1.856,5.03,-0.04297,0.125,-0.003906,-0.01646,0.02177,0.03348,3.0,2.0,5.0,0.0,0.0,0.0,0.0
1738831536378723621,2.879,1.703,5.16,-0.06445,0.1461,0.00448,-0.01311,0.01843,-0.0563,2.912,1.856,5.03,-0.03125,0.1289,-0.003906,-0.015114,0.02054,0.0335,3.0,2.0,5.0,0.0,0.0,0.0,0.0
1738831536428742170,2.877,1.711,5.16,-0.05344,0.1493,0.00337,-0.00962,0.01625,-0.05624,2.912,1.883,5.03,-0.01563,0.1367,-0.007812,-0.01213,0.01799,0.03348,3.0,2.0,5.0,0.0,0.0,0.0,0.0
1738831536478689432,2.875,1.719,5.16,-0.04285,0.151,0.001452,-0.006264,0.01423,-0.05618,2.912,1.856,5.043,-0.01172,0.1367,-0.007812,-0.00983,0.01648,0.0335,3.0,2.0,5.0,0.0,0.0,0.0,0.0
1738831536528750419,2.873,1.726,5.16,-0.03403,0.1514,-0.000403,-0.004086,0.012886,-0.05615,2.912,1.883,5.043,0.0,0.1406,-0.007812,-0.005722,0.01399,0.03354,3.0,2.0,5.0,0.0,0.0,0.0,0.0
1738831536578762769,2.871,1.733,5.16,-0.02596,0.1509,-0.00816,-0.002588,0.01179,-0.05612,2.912,1.883,5.043,0.003906,0.1406,-0.007812,-0.00384,0.01293,0.03363,3.0,2.0,5.0,0.0,0.0,0.0,0.0
1738831536628749132,2.87,1.741,5.16,-0.01825,0.1498,-0.0222,-0.001583,0.0098,-0.05612,2.895,1.883,5.043,0.01172,0.1367,-0.01953,-0.00197,0.01117,0.0338,3.0,2.0,5.0,0.0,0.0,0.0,0.0
1738831536678737163,2.87,1.749,5.16,-0.01109,0.1483,-0.02817,-0.000958,0.00981,-0.0561,2.895,1.883,5.05,0.01563,0.1367,-0.02734,-0.0014715,0.00996,0.03384,3.0,2.0,5.0,0.0,0.0,0.0,0.0
1738831536728717565,2.87,1.756,5.156,-0.004436,0.1467,-0.02997,-0.000589,0.00943,-0.05606,2.895,1.883,5.05,0.02344,0.1367,-0.03516,-0.000698,0.00986,0.03348,3.0,2.0,5.0,0.0,0.0,0.0,0.0
1738831536778747797,2.87,1.763,5.156,0.001832,0.145,-0.0298,-0.000369,0.00871,-0.056,2.895,1.909,5.047,0.02734,0.1328,-0.03906,-0.0003629,0.00933,0.03323,3.0,2.0,5.0,0.0,0.0,0.0,0.0
1738831536828711748,2.87,1.7705,5.156,0.00821,0.1432,-0.0292,-0.000244,0.008,-0.0559,2.895,1.909,5.047,0.03516,0.1328,-0.03906,-0.0001209,0.00838,0.033,3.0,2.0,5.0,0.0,0.0,0.0,0.0
1738831536878713846,2.87,1.777,5.152,0.01414,0.1414,-0.02931,-0.000206,0.007244,-0.0558,2.895,1.909,5.055,0.03906,0.1289,-0.03516,-4.166e-05,0.00794,0.033,3.0,2.0,5.0,0.0,0.0,0.0,0.0
1738831536928706884,2.871,1.784,5.152,0.01921,0.1396,-0.02904,-0.00023,0.006603,-0.05563,2.895,1.909,5.05,0.04297,0.1289,-0.03516,2.84e-05,0.006992,0.0328,3.0,2.0,5.0,0.0,0.0,0.0,0.0
1738831536978726387,2.871,1.792,5.15,0.02443,0.138,-0.02806,-0.000295,0.00614,-0.0555,2.895,1.909,5.05,0.04688,0.125,-0.03516,1.985e-05,0.006474,0.0328,3.0,2.0,5.0,0.0,0.0,0.0,0.0
1738831537028728723,2.873,1.798,5.15,0.02876,0.1364,-0.02786,-0.000352,0.004627,-0.0554,2.895,1.936,5.047,0.0547,0.125,-0.03516,-7.915e-05,0.0057,0.0328,3.0,2.0,5.0,0.0,0.0,0.0,0.0
1738831537078711271,2.875,1.805,5.15,0.0325,0.1348,-0.02802,-0.00042,0.002995,-0.0552,2.895,1.936,5.06,0.0547,0.1211,-0.03516,-9.614e-05,0.004665,0.0328,3.0,2.0,5.0,0.0,0.0,0.0,0.0
1738831537128715038,2.875,1.812,5.145,0.03534,0.1334,-0.02866,-0.000478,0.00199,-0.05508,2.895,1.936,5.055,0.0586,0.1172,-0.03516,-0.00013,0.002592,0.0329,3.0,2.0,5.0,0.0,0.0,0.0,0.0
1738831537178723096,2.877,1.818,5.145,0.0379,0.132,-0.02956,-0.000506,0.001187,-0.05493,2.912,1.936,5.055,0.0586,0.1172,-0.03516,-0.0001413,0.001902,0.033,3.0,2.0,5.0,0.0,0.0,0.0,0.0
1738831537228712081,2.879,1.825,5.145,0.03998,0.1306,-0.02899,-0.00052,0.000917,-0.05484,2.912,1.936,5.05,0.0625,0.1133,-0.03516,-0.0001583,0.000866,0.03314,3.0,2.0,5.0,0.0,0.0,0.0,0.0
1738831537278706073,2.88,1.832,5.14,0.04214,0.1293,-0.02855,-0.000311,0.000749,-0.05472,2.912,1.936,5.055,0.0625,0.1133,-0.03516,-0.0001612,0.0006933,0.03314,3.0,2.0,5.0,0.0,0.0,0.0,0.0
1738831537328726053,2.885,1.838,5.14,0.04404,0.1276,-0.02847,0.000975,0.000557,-0.05463,2.912,1.936,5.055,0.0625,0.1094,-0.03125,0.0001812,0.000515,0.03333,3.0,2.0,5.0,0.0,0.0,0.0,0.0
1738831537378720998,2.887,1.845,5.14,0.0459,0.1252,-0.02876,0.002214,0.000166,-0.05457,2.912,1.962,5.055,0.0664,0.1094,-0.03125,0.001302,0.0004098,0.0335,3.0,2.0,5.0,0.0,0.0,0.0,0.0
1738831537428712606,2.889,1.851,5.137,0.04715,0.12256,-0.02888,0.003052,-0.0012,-0.0545,2.912,1.962,5.05,0.0664,0.10547,-0.03125,0.002672,-0.0003037,0.0335,3.0,2.0,5.0,0.0,0.0,0.0,0.0
1738831537478690862,2.89,1.856,5.137,0.04773,0.1197,-0.02933,0.003618,-0.002405,-0.05444,2.912,1.962,5.055,0.0664,0.10547,-0.03125,0.00326,-0.001264,0.03366,3.0,2.0,5.0,0.0,0.0,0.0,0.0
1738831537528720140,2.893,1.862,5.133,0.0478,0.11633,-0.03009,0.004005,-0.003326,-0.05438,2.912,1.962,5.05,0.0664,0.10156,-0.03125,0.003925,-0.002829,0.03384,3.0,2.0,5.0,0.0,0.0,0.0,0.0
1738831537578730583,2.896,1.868,5.133,0.04745,0.1129,-0.03076,0.00423,-0.00393,-0.05438,2.912,1.962,5.05,0.0664,0.09766,-0.03125,0.004257,-0.003525,0.034,3.0,2.0,5.0,0.0,0.0,0.0,0.0
1738831537628742933,2.898,1.873,5.133,0.04697,0.10974,-0.0308,0.004353,-0.004196,-0.05438,2.912,1.988,5.047,0.0664,0.09375,-0.03516,0.0045,-0.004307,0.03418,3.0,2.0,5.0,0.0,0.0,0.0,0.0
1738831537678704023,2.9,1.879,5.13,0.04636,0.10657,-0.03156,0.004417,-0.0044,-0.0544,2.912,1.988,5.05,0.0625,0.08984,-0.03516,0.004585,-0.004395,0.03418,3.0,2.0,5.0,0.0,0.0,0.0,0.0
1738831537728717803,2.902,1.884,5.13,0.0456,0.10315,-0.03232,0.004456,-0.004665,-0.05444,2.93,1.988,5.047,0.0625,0.08594,-0.03516,0.00458,-0.00474,0.03433,3.0,2.0,5.0,0.0,0.0,0.0,0.0
1738831537778730392,2.904,1.889,5.125,0.04483,0.1,-0.03247,0.00447,-0.004684,-0.0545,2.93,1.988,5.047,0.0625,0.08594,-0.03516,0.00475,-0.004917,0.03452,3.0,2.0,5.0,0.0,0.0,0.0,0.0
1738831537828715324,2.906,1.895,5.125,0.044,0.0966,-0.0326,0.004486,-0.004684,-0.05457,2.93,1.988,5.047,0.0586,0.0781,-0.03516,0.00475,-0.004917,0.03452,3.0,2.0,5.0,0.0,0.0,0.0,0.0
1738831537878708839,2.908,1.898,5.125,0.04327,0.09357,-0.03394,0.004505,-0.004753,-0.05466,2.93,1.988,5.047,0.0586,0.0781,-0.03516,0.00475,-0.004917,0.0347,3.0,2.0,5.0,0.0,0.0,0.0,0.0
1738831537928739786,2.912,1.903,5.12,0.04236,0.0902,-0.03497,0.00449,-0.004936,-0.05475,2.93,1.988,5.047,0.0586,0.0742,-0.03516,0.004833,-0.005005,0.0347,3.0,2.0,5.0,0.0,0.0,0.0,0.0
1738831537978724956,2.914,1.908,5.12,0.04147,0.0869,-0.03445,0.0047,-0.004723,-0.05487,2.93,1.988,5.043,0.0547,0.0703,-0.03516,0.00483,-0.005177,0.0347,3.0,2.0,5.0,0.0,0.0,0.0,0.0
1738831538028746843,2.916,1.912,5.117,0.04077,0.08356,-0.03287,0.006,-0.004505,-0.05496,2.93,2.016,5.043,0.0547,0.0664,-0.03516,0.00518,-0.005013,0.03485,3.0,2.0,5.0,0.0,0.0,0.0,0.0
1738831538078713178,2.918,1.916,5.117,0.0401,0.07965,-0.03284,0.007183,-0.004475,-0.05508,2.93,2.016,5.043,0.05078,0.0625,-0.03516,0.006046,-0.004852,0.03485,3.0,2.0,5.0,0.0,0.0,0.0,0.0
1738831538128717660,2.92,1.92,5.113,0.0393,0.0749,-0.0339,0.00811,-0.004723,-0.05527,2.93,2.016,5.043,0.05078,0.0586,-0.03125,0.0076,-0.00488,0.03485,3.0,2.0,5.0,0.0,0.0,0.0,0.0
1738831538178779602,2.922,1.924,5.113,0.03842,0.07025,-0.0353,0.008545,-0.004883,-0.0554,2.93,2.016,5.043,0.05078,0.0547,-0.03125,0.008286,-0.005066,0.03485,3.0,2.0,5.0,0.0,0.0,0.0,0.0
1738831538228741168,2.924,1.927,5.113,0.0375,0.0654,-0.03488,0.0076,-0.00472,-0.05554,2.93,2.016,5.04,0.04688,0.05078,-0.03516,0.00854,-0.00533,0.03494,3.0,2.0,5.0,0.0,0.0,0.0,0.0
1738831538278719186,2.926,1.93,5.11,0.03677,0.06143,-0.03516,0.00667,-0.004547,-0.05566,2.93,2.016,5.043,0.04688,0.04688,-0.03516,0.00785,-0.005146,0.03494,3.0,2.0,5.0,0.0,0.0,0.0,0.0
1738831538328723430,2.928,1.933,5.11,0.0361,0.0579,-0.03564,0.005966,-0.00459,-0.05585,2.93,2.016,5.04,0.04688,0.03906,-0.03516,0.00656,-0.005035,0.03503,3.0,2.0,5.0,0.0,0.0,0.0,0.0
1738831538378727674,2.93,1.936,5.105,0.0354,0.0544,-0.0363,0.005405,-0.004593,-0.05603,2.947,2.016,5.04,0.04297,0.03516,-0.03516,0.006042,-0.005028,0.03494,3.0,2.0,5.0,0.0,0.0,0.0,0.0
1738831538428733110,2.93,1.938,5.105,0.0347,0.0512,-0.0369,0.00505,-0.00455,-0.0562,2.947,2.016,5.04,0.04297,0.03125,-0.03516,0.005524,-0.005016,0.03494,3.0,2.0,5.0,0.0,0.0,0.0,0.0
1738831538478699922,2.932,1.941,5.1,0.03412,0.0484,-0.03763,0.004852,-0.00453,-0.05637,2.947,2.016,5.04,0.04297,0.03125,-0.03516,0.00527,-0.00493,0.03494,3.0,2.0,5.0,0.0,0.0,0.0,0.0
1738831538528745412,2.934,1.943,5.1,0.0335,0.0457,-0.0376,0.004726,-0.004513,-0.05652,2.947,2.016,5.04,0.03906,0.02734,-0.03516,0.005005,-0.00501,0.03485,3.0,2.0,5.0,0.0,0.0,0.0,0.0
1738831538578722476,2.936,1.945,5.098,0.03296,0.04285,-0.0363,0.004612,-0.004227,-0.0567,2.947,2.016,5.035,0.03906,0.02344,-0.03516,0.00492,-0.00492,0.03485,3.0,2.0,5.0,0.0,0.0,0.0,0.0
1738831538628736257,2.938,1.947,5.098,0.0325,0.0401,-0.03757,0.004555,-0.004353,-0.0569,2.947,2.016,5.035,0.03906,0.01953,-0.03125,0.00484,-0.00466,0.03485,3.0,2.0,5.0,0.0,0.0,0.0,0.0
1738831538678724765,2.94,1.949,5.094,0.03195,0.0376,-0.0379,0.004524,-0.004482,-0.05704,2.947,2.016,5.04,0.03906,0.01953,-0.03516,0.004753,-0.004745,0.03485,3.0,2.0,5.0,0.0,0.0,0.0,0.0
1738831538728738546,2.941,1.951,5.094,0.0314,0.03494,-0.0378,0.004517,-0.00435,-0.05722,2.947,2.016,5.035,0.03516,0.01563,-0.03516,0.00475,-0.004917,0.03485,3.0,2.0,5.0,0.0,0.0,0.0,0.0
1738831538778722763,2.941,1.953,5.09,0.03096,0.03256,-0.03772,0.004337,-0.004288,-0.05737,2.947,2.016,5.035,0.03516,0.01172,-0.03516,0.004665,-0.00483,0.0348,3.0,2.0,5.0,0.0,0.0,0.0,0.0
1738831538828766107,2.943,1.955,5.09,0.03052,0.03038,-0.03824,0.00299,-0.004303,-0.05756,2.947,2.016,5.03,0.03516,0.01172,-0.03516,0.004234,-0.004734,0.0347,3.0,2.0,5.0,0.0,0.0,0.0,0.0
1738831538878748178,2.945,1.956,5.086,0.03012,0.02898,-0.03802,0.001818,-0.00429,-0.0577,2.947,2.016,5.035,0.03516,0.007812,-0.03516,0.003372,-0.00472,0.0347,3.0,2.0,5.0,0.0,0.0,0.0,0.0
1738831538928755521,2.947,1.958,5.086,0.02977,0.02803,-0.03638,0.000879,-0.00413,-0.0579,2.947,2.016,5.03,0.03125,0.007812,-0.03516,0.001818,-0.004692,0.0347,3.0,2.0,5.0,0.0,0.0,0.0,0.0
1738831538978737831,2.947,1.959,5.082,0.0296,0.0275,-0.03357,0.000288,-0.003801,-0.05804,2.947,2.016,5.03,0.03125,0.003906,-0.03516,0.001215,-0.004597,0.0347,3.0,2.0,5.0,0.0,0.0,0.0,0.0
1738831539028782844,2.95,1.96,5.082,0.02954,0.02719,-0.03238,-0.000146,-0.003862,-0.05823,2.947,2.016,5.027,0.03125,0.003906,-0.03125,0.000358,-0.00424,0.0347,3.0,2.0,5.0,0.0,0.0,0.0,0.0
1738831539078735589,2.951,1.962,5.082,0.02939,0.02707,-0.03146,-0.0004,-0.00406,-0.05838,2.947,2.016,5.03,0.03125,0.003906,-0.02734,9.775e-05,-0.00432,0.0347,3.0,2.0,5.0,0.0,0.0,0.0,0.0
1738831539128763437,2.953,1.963,5.08,0.02917,0.02705,-0.0308,-0.000558,-0.004112,-0.05856,2.947,2.016,5.027,0.03125,0.003906,-0.02734,-0.0001655,-0.004574,0.0346,3.0,2.0,5.0,0.0,0.0,0.0,0.0
1738831539178755760,2.953,1.965,5.08,0.02898,0.0271,-0.02226,-0.000632,-0.003784,-0.05875,2.947,2.016,5.027,0.03125,0.003906,-0.02734,-0.0003378,-0.00457,0.03455,3.0,2.0,5.0,0.0,0.0,0.0,0.0
1738831539228717565,2.955,1.966,5.08,0.02936,0.02715,-0.009026,-0.000656,-0.00232,-0.0589,2.965,2.016,5.027,0.02734,0.003906,-0.01563,-0.0004108,-0.003792,0.03455,3.0,2.0,5.0,0.0,0.0,0.0,0.0
1738831539278710603,2.957,1.967,5.08,0.03001,0.02718,-0.004875,-0.000704,-0.003023,-0.05908,2.947,2.016,5.03,0.02734,0.003906,-0.007812,-0.000396,-0.002928,0.03452,3.0,2.0,5.0,0.0,0.0,0.0,0.0
1738831539328721046,2.959,1.969,5.08,0.03001,0.02727,-0.004383,-0.000755,-0.004173,-0.05923,2.965,2.016,5.03,0.02734,0.003906,-0.0,-0.000499,-0.003876,0.03455,3.0,2.0,5.0,0.0,0.0,0.0,0.0
1738831539378728628,2.959,1.97,5.074,0.02959,0.02739,-0.01436,-0.000773,-0.005184,-0.05942,2.965,2.016,5.03,0.02734,0.003906,-0.0,-0.0005136,-0.004738,0.03455,3.0,2.0,5.0,0.0,0.0,0.0,0.0
1738831539428729295,2.96,1.971,5.074,0.02858,0.02754,-0.0272,-0.000805,-0.006756,-0.0595,2.965,2.016,5.03,0.02734,0.003906,-0.01172,-0.0005383,-0.006294,0.03384,3.0,2.0,5.0,0.0,0.0,0.0,0.0
1738831539478709697,2.963,1.973,5.074,0.02702,0.02774,-0.03485,-0.000781,-0.00629,-0.05957,2.965,2.016,5.035,0.02734,0.003906,-0.01953,-0.00064,-0.00724,0.03366,3.0,2.0,5.0,0.0,0.0,0.0,0.0
1738831539528714895,2.965,1.974,5.07,0.02614,0.0279,-0.0381,-0.000743,-0.005047,-0.05963,2.965,2.016,5.035,0.02344,0.007812,-0.03125,-0.0005393,-0.006466,0.03323,3.0,2.0,5.0,0.0,0.0,0.0,0.0
1738831539578718662,2.965,1.976,5.07,0.02574,0.028,-0.03912,-0.000706,-0.00407,-0.05963,2.965,2.016,5.03,0.02344,0.007812,-0.03125,-0.000521,-0.005432,0.033,3.0,2.0,5.0,0.0,0.0,0.0,0.0
1738831539628684282,2.967,1.977,5.066,0.02577,0.02806,-0.03787,-0.000683,-0.003433,-0.05957,2.965,2.016,5.027,0.02344,0.007812,-0.03516,-0.000416,-0.00431,0.0328,3.0,2.0,5.0,0.0,0.0,0.0,0.0
1738831539678673505,2.969,1.979,5.066,0.02603,0.02809,-0.03677,-0.000619,-0.003155,-0.05954,2.965,2.016,5.03,0.02344,0.007812,-0.03125,-0.0004106,-0.003963,0.0329,3.0,2.0,5.0,0.0,0.0,0.0,0.0
1738831539728724718,2.969,1.9795,5.062,0.0263,0.02809,-0.03598,-0.000596,-0.00326,-0.0595,2.965,2.016,5.03,0.02344,0.007812,-0.03125,-0.0003204,-0.003708,0.03314,3.0,2.0,5.0,0.0,0.0,0.0,0.0
1738831539778735399,2.97,1.981,5.062,0.0265,0.02812,-0.03513,-0.000604,-0.003422,-0.0595,2.965,2.041,5.027,0.02344,0.007812,-0.03125,-0.0004084,-0.003792,0.03333,3.0,2.0,5.0,0.0,0.0,0.0,0.0
1738831539828720331,2.973,1.982,5.062,0.02663,0.02812,-0.03354,-0.000609,-0.003487,-0.0595,2.965,2.041,5.027,0.02344,0.007812,-0.02734,-0.0004117,-0.003963,0.0335,3.0,2.0,5.0,0.0,0.0,0.0,0.0
1738831539878722906,2.973,1.983,5.06,0.02675,0.02815,-0.0317,-0.000628,-0.003548,-0.05957,2.965,2.041,5.027,0.02344,0.007812,-0.02734,-0.0004117,-0.003963,0.0335,3.0,2.0,5.0,0.0,0.0,0.0,0.0
1738831539928716897,2.975,1.985,5.06,0.02684,0.0282,-0.03044,-0.000631,-0.003626,-0.0596,2.965,2.041,5.027,0.02344,0.007812,-0.02734,-0.000415,-0.004135,0.03366,3.0,2.0,5.0,0.0,0.0,0.0,0.0
1738831539978698015,2.977,1.986,5.055,0.02686,0.02823,-0.02234,-0.000626,-0.00349,-0.05966,2.965,2.041,5.027,0.02344,0.007812,-0.02344,-0.0004153,-0.004135,0.03384,3.0,2.0,5.0,0.0,0.0,0.0,0.0
1738831540028717041,2.977,1.988,5.055,0.0273,0.02824,-0.010414,-0.000597,-0.002243,-0.05975,2.965,2.041,5.023,0.02344,0.007812,-0.01563,-0.0004065,-0.003618,0.03384,3.0,2.0,5.0,0.0,0.0,0.0,0.0
1738831540078717947,2.979,1.989,5.055,0.02805,0.02817,-0.004807,-0.000435,-0.002764,-0.05984,2.965,2.041,5.027,0.02344,0.007812,-0.007812,-0.000392,-0.002756,0.03394,3.0,2.0,5.0,0.0,0.0,0.0,0.0
1738831540128726005,2.98,1.991,5.055,0.02821,0.02783,-0.002432,0.000789,-0.003723,-0.05994,2.965,2.041,5.027,0.02344,0.007812,-0.0,-6.163e-05,-0.003626,0.03403,3.0,2.0,5.0,0.0,0.0,0.0,0.0
1738831540178762435,2.98,1.992,5.055,0.028,0.02682,-0.000847,0.002073,-0.004215,-0.06006,2.982,2.041,5.027,0.02344,0.007812,-0.0,0.001135,-0.004337,0.034,3.0,2.0,5.0,0.0,0.0,0.0,0.0
1738831540228728055,2.982,1.993,5.055,0.0276,0.0254,5.6e-05,0.002974,-0.00444,-0.06015,2.982,2.041,5.027,0.02344,0.007812,-0.0,0.002594,-0.004963,0.03348,3.0,2.0,5.0,0.0,0.0,0.0,0.0
1738831540278718709,2.984,1.995,5.055,0.0271,0.02348,0.000229,0.003647,-0.004505,-0.06015,2.982,2.041,5.03,0.02344,0.007812,-0.0,0.00311,-0.004974,0.03333,3.0,2.0,5.0,0.0,0.0,0.0,0.0
1738831540328725099,2.986,1.996,5.055,0.02661,0.0215,-0.000106,0.004055,-0.004486,-0.06015,2.982,2.041,5.03,0.01953,0.003906,-0.0,0.003887,-0.00507,0.03296,3.0,2.0,5.0,0.0,0.0,0.0,0.0
1738831540378779649,2.986,1.997,5.055,0.0261,0.0192,-0.000867,0.00434,-0.004417,-0.0601,2.982,2.041,5.03,0.01953,0.003906,-0.0,0.004234,-0.005077,0.03262,3.0,2.0,5.0,0.0,0.0,0.0,0.0