time,x_sphinx,y_sphinx,z_sphinx,vx_sphinx,vy_sphinx,vz_sphinx,roll_sphinx,pitch_sphinx,yaw_sphinx,x_anafi,y_anafi,z_anafi,vx_anafi,vy_anafi,vz_anafi,roll_anafi,pitch_anafi,yaw_anafi,wp_x,wp_y,wp_z,wp_vx,wp_vy,wp_vz,wp_yaw
1738834746602126598,0.0339,-0.007835,0.973,-0.000665,-0.00535,0.001799,0.000219,-0.004406,0.00862,0.01123,-0.02673,0.996,0.0,0.0,-0.0,0.0002785,-0.004494,0.02979,0.0,0.0,1.0,0.0,0.0,0.0,0.0
1738834746652065277,0.03387,-0.007965,0.973,-0.000682,-0.00534,0.001769,0.000213,-0.00444,0.00859,0.01123,-0.02673,0.996,0.0,0.0,-0.0,0.0002754,-0.004665,0.02995,0.0,0.0,1.0,0.0,0.0,0.0,0.0
1738834746702121257,0.0338,-0.00841,0.9736,-0.000964,-0.005287,0.001623,0.000189,-0.004623,0.00849,0.01123,-0.02673,0.996,0.0,0.0,-0.0,0.0003605,-0.004753,0.02995,0.0,0.0,1.0,0.0,0.0,0.0,0.0
1738834746752096176,0.0338,-0.00841,0.9736,-0.000964,-0.005287,0.001623,0.000189,-0.004623,0.00847,0.01123,-0.02673,0.996,0.0,0.0,-0.0,0.0002725,-0.004837,0.03012,0.0,0.0,1.0,0.0,0.0,0.0,0.0
1738834746802129745,0.0337,-0.008934,0.9736,-0.00132,-0.005245,0.000176,0.000221,-0.00469,0.00829,0.01123,-0.02673,0.996,0.0,0.0,-0.0,0.0002725,-0.004837,0.03012,0.0,0.0,1.0,0.0,0.0,0.0,0.0
1738834746852074861,0.03366,-0.009,0.9736,-0.001369,-0.00524,-7.4e-05,0.000227,-0.0047,0.00829,0.01123,-0.02673,0.996,0.0,0.0,-0.0,0.000272,-0.004837,0.0303,0.0,0.0,1.0,0.0,0.0,0.0,0.0
1738834746902113676,0.03357,-0.009415,0.9736,-0.001689,-0.005245,-0.001302,0.000252,-0.004658,0.00812,0.01123,-0.02673,1.0,0.0,0.0,-0.0,0.000357,-0.004925,0.0303,0.0,0.0,1.0,0.0,0.0,0.0,0.0
1738834746952124118,0.03354,-0.00946,0.9736,-0.00176,-0.005245,-0.001478,0.00025,-0.004635,0.00808,0.01123,-0.02673,0.996,0.0,0.0,-0.0,0.000272,-0.004837,0.0303,0.0,0.0,1.0,0.0,0.0,0.0,0.0
1738834747002121925,0.0334,-0.00988,0.973,-0.001935,-0.005238,-0.000885,0.000235,-0.004436,0.00789,0.01123,-0.02673,0.996,0.0,0.0,-0.0,0.0003595,-0.004753,0.0303,0.0,0.0,1.0,0.0,0.0,0.0,0.0
1738834747052089691,0.03336,-0.00999,0.973,-0.001957,-0.005238,-0.000593,0.000235,-0.00438,0.00785,0.01123,-0.02673,0.996,0.0,0.0,-0.0,0.0003622,-0.00458,0.0303,0.0,0.0,1.0,0.0,0.0,0.0,0.0
1738834747102108001,0.03317,-0.010506,0.973,-0.001987,-0.005245,0.000232,0.000292,-0.004356,0.0076,0.01123,-0.02673,0.996,0.0,0.0,-0.0,0.0003622,-0.00458,0.03038,0.0,0.0,1.0,0.0,0.0,0.0,0.0
1738834747152088403,0.03317,-0.010506,0.973,-0.001987,-0.005245,0.000232,0.000292,-0.004356,0.0076,0.01123,-0.02673,1.0,0.0,0.0,-0.0,0.0003622,-0.00458,0.03038,0.0,0.0,1.0,0.0,0.0,0.0,0.0
1738834747202119827,0.03305,-0.0108,0.973,-0.002096,-0.00527,-0.000937,0.00032,-0.004528,0.007427,0.01123,-0.02673,1.0,0.0,0.0,-0.0,0.000447,-0.00467,0.03038,0.0,0.0,1.0,0.0,0.0,0.0,0.0
1738834747252074480,0.03293,-0.01112,0.973,-0.002228,-0.005306,-0.001658,0.000304,-0.004677,0.007313,0.01123,-0.02673,1.0,0.0,0.0,-0.0,0.0004458,-0.00484,0.02979,0.0,0.0,1.0,0.0,0.0,0.0,0.0
1738834747302134990,0.0328,-0.011375,0.973,-0.002405,-0.00535,-0.001569,0.000314,-0.00455,0.0072,0.01123,-0.02673,0.996,0.0,0.0,-0.0,0.0004463,-0.00484,0.0296,0.0,0.0,1.0,0.0,0.0,0.0,0.0
1738834747352087497,0.03265,-0.011635,0.973,-0.002499,-0.005394,-0.000895,0.000321,-0.004387,0.00718,0.01123,-0.02673,0.996,0.0,0.0,-0.0,0.0004501,-0.00467,0.02908,0.0,0.0,1.0,0.0,0.0,0.0,0.0
1738834747402123212,0.0326,-0.011894,0.973,-0.002514,-0.005413,-0.000561,0.000303,-0.00436,0.007168,0.01123,-0.02673,0.996,0.0,0.0,-0.0,0.000365,-0.00458,0.02908,0.0,0.0,1.0,0.0,0.0,0.0,0.0
1738834747452067375,0.0324,-0.01215,0.973,-0.002539,-0.005436,0.000621,0.000293,-0.00434,0.007164,0.01123,-0.02673,0.996,0.0,0.0,-0.0,0.0003645,-0.00458,0.02927,0.0,0.0,1.0,0.0,0.0,0.0,0.0
1738834747502104520,0.03232,-0.01241,0.973,-0.002523,-0.00545,0.001963,0.000305,-0.004215,0.00716,0.01123,-0.02673,0.996,0.0,0.0,-0.0,0.0004518,-0.004498,0.02943,0.0,0.0,1.0,0.0,0.0,0.0,0.0
1738834747552069425,0.03223,-0.01266,0.973,-0.002485,-0.00547,0.002611,0.000316,-0.004276,0.007133,0.01123,-0.02673,0.996,0.0,0.0,-0.0,0.0004513,-0.004498,0.0296,0.0,0.0,1.0,0.0,0.0,0.0,0.0
1738834747602120399,0.03207,-0.01296,0.973,-0.002514,-0.005505,0.002085,0.000316,-0.004456,0.0071,0.01123,-0.02673,0.996,0.0,0.0,-0.0,0.000364,-0.00458,0.02953,0.0,0.0,1.0,0.0,0.0,0.0,0.0
1738834747652092218,0.03183,-0.01347,0.9736,-0.002811,-0.00555,0.000481,0.000301,-0.00471,0.00706,0.01123,-0.02673,0.996,0.0,0.0,-0.0,0.00036,-0.004925,0.02908,0.0,0.0,1.0,0.0,0.0,0.0,0.0
1738834747702097177,0.03174,-0.01356,0.9736,-0.002934,-0.00557,0.000493,0.00031,-0.004673,0.00709,0.01123,-0.02673,0.996,0.0,0.0,-0.0,0.0003605,-0.004925,0.02892,0.0,0.0,1.0,0.0,0.0,0.0,0.0
1738834747752067089,0.03165,-0.0138,0.9736,-0.002996,-0.005585,0.000575,0.000322,-0.004604,0.007133,0.01123,-0.02673,0.996,0.0,-0.003906,-0.0,0.0003638,-0.004753,0.02858,0.0,0.0,1.0,0.0,0.0,0.0,0.0
1738834747802091360,0.03146,-0.01409,0.9736,-0.003122,-0.00564,0.00042,0.00034,-0.0045,0.007263,0.01123,-0.02673,0.996,0.0,0.0,-0.0,0.0003645,-0.004753,0.02823,0.0,0.0,1.0,0.0,0.0,0.0,0.0
1738834747852081298,0.03128,-0.01448,0.9736,-0.003225,-0.005688,0.00112,0.000347,-0.004436,0.007427,0.01123,-0.02673,0.996,0.0,-0.003906,-0.0,0.000452,-0.00467,0.02823,0.0,0.0,1.0,0.0,0.0,0.0,0.0
1738834747902094602,0.03117,-0.014755,0.9736,-0.003239,-0.005737,0.001203,0.000371,-0.004337,0.007538,0.01123,-0.02673,0.996,0.0,-0.003906,-0.0,0.0003667,-0.00458,0.0284,0.0,0.0,1.0,0.0,0.0,0.0,0.0
1738834747952171802,0.03105,-0.01489,0.9736,-0.003244,-0.005756,0.001123,0.000374,-0.004375,0.0076,0.01123,-0.02673,0.996,0.0,-0.003906,-0.0,0.0003657,-0.00458,0.02875,0.0,0.0,1.0,0.0,0.0,0.0,0.0
1738834748002148389,0.03088,-0.01527,0.9736,-0.003298,-0.005814,0.001441,0.000349,-0.00444,0.007717,0.01123,-0.02673,0.996,0.0,-0.003906,-0.0,0.0004504,-0.00467,0.02892,0.0,0.0,1.0,0.0,0.0,0.0,0.0
1738834748052083969,0.03061,-0.015564,0.9736,-0.003365,-0.005863,0.002321,0.000328,-0.0044,0.007748,0.01123,-0.02673,0.996,0.0,-0.003906,-0.0,0.000277,-0.004665,0.02927,0.0,0.0,1.0,0.0,0.0,0.0,0.0
1738834748102103948,0.03041,-0.016,0.974,-0.00339,-0.0059,0.00249,0.000356,-0.00439,0.00776,0.01123,-0.02673,0.996,0.0,-0.003906,-0.0,0.0003643,-0.00458,0.02943,0.0,0.0,1.0,0.0,0.0,0.0,0.0
1738834748152071952,0.03038,-0.01607,0.974,-0.003397,-0.00591,0.002424,0.00036,-0.004448,0.007755,0.01123,-0.02673,1.0,0.0,-0.003906,-0.0,0.0002763,-0.004665,0.0296,0.0,0.0,1.0,0.0,0.0,0.0,0.0
1738834748202126502,0.03014,-0.0165,0.974,-0.003593,-0.005985,0.000454,0.00039,-0.00469,0.007736,0.01123,-0.02673,1.0,0.0,-0.003906,-0.0,0.0003612,-0.004753,0.0296,0.0,0.0,1.0,0.0,0.0,0.0,0.0
1738834748252092123,0.0299,-0.01685,0.974,-0.003841,-0.006073,-0.00035,0.000418,-0.004757,0.007706,0.01123,-0.02673,1.0,0.0,-0.003906,-0.0,0.0003574,-0.0051,0.02917,0.0,0.0,1.0,0.0,0.0,0.0,0.0
1738834748302103042,0.0297,-0.0172,0.974,-0.00397,-0.00615,-0.00105,0.0004,-0.004517,0.007767,0.01123,-0.02673,1.0,0.0,-0.003906,-0.0,0.0003605,-0.004925,0.02892,0.0,0.0,1.0,0.0,0.0,0.0,0.0
1738834748352074861,0.02965,-0.01727,0.974,-0.003994,-0.006165,-0.001187,0.000394,-0.004513,0.00778,0.01123,-0.02673,0.996,0.0,-0.003906,-0.0,0.0003624,-0.004753,0.02908,0.0,0.0,1.0,0.0,0.0,0.0,0.0
1738834748402120351,0.02936,-0.01764,0.974,-0.004074,-0.00623,-5.9e-05,0.000371,-0.00435,0.0078,0.01123,-0.02673,0.996,0.0,-0.003906,-0.0,0.0003622,-0.004753,0.02927,0.0,0.0,1.0,0.0,0.0,0.0,0.0
1738834748452070474,0.02924,-0.01791,0.974,-0.00403,-0.006264,0.000106,0.000389,-0.0042,0.00782,0.01123,-0.02673,1.0,0.0,-0.003906,-0.0,0.0003667,-0.00441,0.02953,0.0,0.0,1.0,0.0,0.0,0.0,0.0
1738834748502097129,0.02884,-0.01852,0.974,-0.004025,-0.00638,0.001584,0.000411,-0.00432,0.007782,0.01123,-0.02673,0.996,0.0,-0.003906,-0.0,0.0003638,-0.00458,0.0296,0.0,0.0,1.0,0.0,0.0,0.0,0.0
1738834748552103996,0.02884,-0.01852,0.974,-0.004025,-0.006393,0.001584,0.000409,-0.004246,0.007782,0.01123,-0.02673,0.996,0.0,-0.003906,-0.0,0.0003633,-0.00458,0.02979,0.0,0.0,1.0,0.0,0.0,0.0,0.0
1738834748602152109,0.02863,-0.01886,0.974,-0.00392,-0.00646,0.00226,0.000405,-0.004166,0.007748,0.01123,-0.02673,0.996,0.0,-0.003906,-0.0,0.000366,-0.00441,0.02979,0.0,0.0,1.0,0.0,0.0,0.0,0.0
1738834748652152061,0.02843,-0.01927,0.974,-0.003897,-0.00653,0.002262,0.000386,-0.004368,0.007656,0.01123,-0.02673,0.996,0.0,-0.003906,-0.0,0.000363,-0.00458,0.02995,0.0,0.0,1.0,0.0,0.0,0.0,0.0
1738834748702168226,0.02815,-0.01967,0.9746,-0.00396,-0.006584,0.002008,0.000355,-0.004486,0.007557,0.01123,-0.02673,0.996,0.0,-0.003906,-0.0,0.000448,-0.00467,0.02995,0.0,0.0,1.0,0.0,0.0,0.0,0.0
1738834748752137660,0.02805,-0.01982,0.9746,-0.004,-0.0066,0.001853,0.000346,-0.00452,0.007523,0.01123,-0.02673,0.996,0.0,-0.003906,-0.0,0.00036,-0.004753,0.03012,0.0,0.0,1.0,0.0,0.0,0.0,0.0
1738834748802164793,0.02782,-0.02019,0.9746,-0.004128,-0.006634,0.001601,0.00035,-0.004574,0.007404,0.01123,-0.02673,0.996,0.0,-0.003906,-0.0,0.0003607,-0.004753,0.02986,0.0,0.0,1.0,0.0,0.0,0.0,0.0
1738834748852138757,0.02763,-0.0205,0.9746,-0.004215,-0.00667,0.001038,0.000348,-0.004555,0.007343,0.01123,-0.02673,1.0,0.0,-0.003906,-0.0,0.0003622,-0.004753,0.02927,0.0,0.0,1.0,0.0,0.0,0.0,0.0
1738834748902153253,0.02733,-0.02104,0.9746,-0.004406,-0.00672,-0.000816,0.00035,-0.004677,0.0073,0.01123,-0.02673,1.0,0.0,-0.003906,-0.0,0.000275,-0.004837,0.02908,0.0,0.0,1.0,0.0,0.0,0.0,0.0
1738834748952130794,0.02719,-0.02118,0.9746,-0.004517,-0.00675,-0.001585,0.000336,-0.0047,0.00733,0.01123,-0.02673,1.0,0.0,-0.003906,-0.0,0.0003607,-0.004925,0.02875,0.0,0.0,1.0,0.0,0.0,0.0,0.0
1738834749002107858,0.02693,-0.02156,0.9746,-0.004673,-0.00677,-0.002344,0.000321,-0.00461,0.007397,0.01123,-0.02673,1.0,0.0,-0.003906,-0.0,0.000276,-0.004837,0.02858,0.0,0.0,1.0,0.0,0.0,0.0,0.0
1738834749052087545,0.02673,-0.02184,0.9746,-0.004776,-0.006794,-0.002214,0.000341,-0.004498,0.007492,0.01123,-0.02673,1.0,0.0,-0.003906,-0.0,0.000364,-0.004753,0.0284,0.0,0.0,1.0,0.0,0.0,0.0,0.0
1738834749102133035,0.02635,-0.02238,0.974,-0.004772,-0.00684,-0.000965,0.000348,-0.004246,0.00765,0.01123,-0.02673,0.996,0.0,-0.003906,-0.0,0.0003662,-0.00458,0.02858,0.0,0.0,1.0,0.0,0.0,0.0,0.0
1738834749152088880,0.02626,-0.02252,0.974,-0.004745,-0.00685,-0.000251,0.000336,-0.00421,0.007698,0.01123,-0.02673,0.996,0.0,-0.003906,-0.0,0.0003679,-0.00441,0.02892,0.0,0.0,1.0,0.0,0.0,0.0,0.0
1738834749202147722,0.02602,-0.02287,0.974,-0.004673,-0.006866,6.6e-05,0.000322,-0.004265,0.007774,0.01123,-0.02673,0.996,0.0,-0.003906,-0.0,0.00028,-0.004494,0.02908,0.0,0.0,1.0,0.0,0.0,0.0,0.0
1738834749252099514,0.02557,-0.02353,0.974,-0.00476,-0.00692,-0.001674,0.000369,-0.004642,0.007812,0.01123,-0.02673,1.0,0.0,-0.003906,-0.0,0.000277,-0.004665,0.02927,0.0,0.0,1.0,0.0,0.0,0.0,0.0
1738834749302102565,0.02547,-0.02356,0.974,-0.00487,-0.006927,-0.001646,0.000355,-0.004642,0.007812,0.01123,-0.02673,1.0,0.0,-0.003906,-0.0,0.0003617,-0.004753,0.02943,0.0,0.0,1.0,0.0,0.0,0.0,0.0
1738834749352128028,0.02531,-0.0239,0.974,-0.004913,-0.00695,-0.001447,0.000344,-0.004585,0.007793,0.01123,-0.02673,0.996,0.0,-0.003906,-0.0,0.0002737,-0.004837,0.0296,0.0,0.0,1.0,0.0,0.0,0.0,0.0
1738834749402154445,0.02505,-0.02426,0.974,-0.004993,-0.00697,-0.000355,0.000338,-0.00444,0.00778,0.01123,-0.02673,0.996,0.0,-0.003906,-0.0,0.0002759,-0.004665,0.02979,0.0,0.0,1.0,0.0,0.0,0.0,0.0
1738834749452178239,0.02481,-0.0246,0.974,-0.004993,-0.006996,0.000513,0.000341,-0.00432,0.007732,0.01123,-0.02673,0.996,0.0,-0.003906,-0.0,0.0002782,-0.004494,0.02986,0.0,0.0,1.0,0.0,0.0,0.0,0.0
1738834749502149105,0.02454,-0.02498,0.974,-0.00498,-0.00702,0.001066,0.000343,-0.00436,0.007683,0.01123,-0.02673,0.996,0.0,-0.003906,-0.0,0.000278,-0.004494,0.02995,0.0,0.0,1.0,0.0,0.0,0.0,0.0
1738834749552100181,0.02432,-0.0253,0.974,-0.004982,-0.00704,0.00226,0.000331,-0.00435,0.007603,0.01123,-0.02673,0.996,0.0,-0.003906,-0.0,0.000363,-0.00458,0.02995,0.0,0.0,1.0,0.0,0.0,0.0,0.0
1738834749602118968,0.02405,-0.02568,0.974,-0.004974,-0.007053,0.002853,0.000307,-0.004368,0.007504,0.01123,-0.02673,0.996,0.0,-0.003906,-0.0,0.0003626,-0.00458,0.03012,0.0,0.0,1.0,0.0,0.0,0.0,0.0
1738834749652059078,0.02376,-0.02608,0.9746,-0.00504,-0.007057,0.002321,0.000287,-0.00458,0.007362,0.01123,-0.02673,1.0,0.0,-0.003906,-0.0,0.0002751,-0.004665,0.03004,0.0,0.0,1.0,0.0,0.0,0.0,0.0
1738834749702030658,0.02356,-0.02637,0.9746,-0.00513,-0.007057,0.000849,0.000294,-0.004738,0.00731,0.01123,-0.02673,0.996,0.0,-0.003906,-0.0,0.0002732,-0.004837,0.02979,0.0,0.0,1.0,0.0,0.0,0.0,0.0
1738834749752032279,0.0233,-0.0267,0.9746,-0.005318,-0.00707,0.000834,0.00032,-0.00469,0.007256,0.01123,-0.02673,1.0,0.0,-0.003906,-0.0,0.0003595,-0.004925,0.02927,0.0,0.0,1.0,0.0,0.0,0.0,0.0
1738834749802031755,0.02281,-0.02736,0.9746,-0.00552,-0.007095,0.000116,0.000304,-0.004578,0.007263,0.01123,-0.02673,1.0,0.0,-0.003906,-0.0,0.0003629,-0.004753,0.02892,0.0,0.0,1.0,0.0,0.0,0.0,0.0
1738834749852093935,0.02267,-0.02744,0.9746,-0.005543,-0.0071,0.000229,0.000293,-0.004543,0.007267,0.01123,-0.02673,0.996,0.0,-0.003906,-0.0,0.0003638,-0.004753,0.02858,0.0,0.0,1.0,0.0,0.0,0.0,0.0
1738834749902052402,0.02238,-0.02782,0.9746,-0.005615,-0.007114,0.00024,0.000321,-0.004463,0.007393,0.01123,-0.02673,1.0,0.0,-0.003906,-0.0,0.000279,-0.004665,0.0284,0.0,0.0,1.0,0.0,0.0,0.0,0.0
1738834749952046155,0.0222,-0.02812,0.9746,-0.00565,-0.007126,0.000158,0.000329,-0.004444,0.007465,0.01123,-0.02673,1.0,0.0,-0.003906,-0.0,0.0002782,-0.004665,0.02875,0.0,0.0,1.0,0.0,0.0,0.0,0.0
1738834750002027034,0.02179,-0.02872,0.9746,-0.005714,-0.00716,-0.000491,0.000336,-0.00447,0.007584,0.01123,-0.02673,1.0,0.0,-0.003906,-0.0,0.0003655,-0.00458,0.02892,0.0,0.0,1.0,0.0,0.0,0.0,0.0
1738834750052163839,0.02164,-0.02884,0.9746,-0.00573,-0.007168,-0.000862,0.000335,-0.00449,0.0076,-0.006256,-0.02673,1.0,0.0,-0.003906,-0.0,0.0003624,-0.004753,0.02908,0.0,0.0,1.0,0.0,0.0,0.0,0.0
1738834750102162837,0.02132,-0.02933,0.9746,-0.005833,-0.0072,-0.001578,0.000352,-0.004547,0.007626,-0.006256,-0.02673,1.0,0.0,-0.003906,-0.0,0.0003622,-0.004753,0.02927,3.0,2.0,5.0,0.0,0.0,0.0,0.0
1738834750152134656,0.02106,-0.02956,0.9746,-0.005882,-0.007225,-0.001262,0.000386,-0.004467,0.007633,-0.006256,-0.02673,1.0,0.0,-0.003906,-0.0,0.0004492,-0.00467,0.02943,3.0,2.0,5.0,0.0,0.0,0.0,0.0
1738834750202143430,0.0205,-0.03026,0.974,-0.005943,-0.007294,-0.002869,0.000355,-0.004555,0.00761,-0.006256,-0.02673,1.0,0.0,-0.003906,-0.0,0.0003638,-0.00458,0.0296,3.0,2.0,5.0,0.0,0.0,0.0,0.0
1738834750252149820,0.0205,-0.03026,0.974,-0.005943,-0.007294,-0.002869,0.000355,-0.004555,0.00761,-0.006256,-0.02673,1.0,0.0,-0.003906,-0.0,0.000361,-0.004753,0.02979,3.0,2.0,5.0,0.0,0.0,0.0,0.0
1738834750302142620,0.01988,-0.03099,0.974,-0.006203,-0.007275,0.007725,3.3e-05,-0.003735,0.00752,-0.006256,-0.02673,1.0,0.0,-0.003906,-0.0,0.0003612,-0.004753,0.0296,3.0,2.0,5.0,0.0,0.0,0.0,0.0
1738834750352129697,0.01988,-0.03099,0.974,-0.006203,-0.007275,0.007725,3.3e-05,-0.003735,0.00752,-0.006256,-0.02673,1.0,0.0,-0.003906,-0.0,2.86e-05,-0.003885,0.0297,3.0,2.0,5.0,0.0,0.0,0.0,0.0
1738834750402184724,0.01965,-0.0313,0.978,0.00998,0.001587,0.2112,-0.01646,0.05075,0.00727,-0.006256,-0.02673,1.0,0.0,0.0,0.0742,-0.00858,0.01498,0.0298,3.0,2.0,5.0,0.0,0.0,0.0,0.0
1738834750452172279,0.02104,-0.03044,0.991,0.06995,0.03732,0.4038,-0.06885,0.1451,0.006023,-0.006256,-0.02673,1.016,0.0547,0.02344,0.3477,-0.05386,0.1152,0.0289,3.0,2.0,5.0,0.0,0.0,0.0,0.0
1738834750502155065,0.02765,-0.02824,1.0205,0.2035,0.09406,0.6787,-0.1135,0.2256,0.003267,-0.006256,-0.02673,1.031,0.1211,0.0586,0.504,-0.085,0.1748,0.02776,3.0,2.0,5.0,0.0,0.0,0.0,0.0
1738834750552135467,0.04556,-0.01924,1.067,0.4673,0.1895,0.9844,-0.1671,0.2979,0.001832,0.01123,-0.02673,1.074,0.3633,0.1875,0.8438,-0.1538,0.2915,0.02605,3.0,2.0,5.0,0.0,0.0,0.0,0.0
1738834750602157592,0.0652,-0.00934,1.106,0.6416,0.3289,1.189,-0.1919,0.3518,0.003391,0.02872,-0.02673,1.113,0.5625,0.3047,1.066,-0.1841,0.339,0.0276,3.0,2.0,5.0,0.0,0.0,0.0,0.0
1738834750652153015,0.1069,0.01247,1.177,0.96,0.511,1.49,-0.2177,0.3918,0.005974,0.0637,-0.0002131,1.195,0.9414,0.535,1.4375,-0.2178,0.3914,0.03174,3.0,2.0,5.0,0.0,0.0,0.0,0.0
1738834750702052831,0.1765,0.05957,1.299,1.441,0.7983,1.908,-0.2393,0.4138,0.007374,0.0987,0.0263,1.25,1.168,0.6797,1.641,-0.2299,0.4062,0.03348,3.0,2.0,5.0,0.0,0.0,0.0,0.0
1738834750752033233,0.2365,0.0836,1.3545,1.633,0.916,2.07,-0.2441,0.419,0.007004,0.1686,0.05283,1.348,1.5625,0.9336,1.988,-0.2433,0.4177,0.0343,3.0,2.0,5.0,0.0,0.0,0.0,0.0
1738834750802030801,0.4214,0.1893,1.573,2.164,1.256,2.4,-0.2412,0.3777,0.0108,0.2385,0.10583,1.434,1.824,1.105,2.207,-0.2449,0.4106,0.0344,3.0,2.0,5.0,0.0,0.0,0.0,0.0
1738834750852021932,0.4214,0.1893,1.573,2.164,1.256,2.4,-0.2412,0.3777,0.0108,0.361,0.1854,1.586,2.145,1.328,2.387,-0.2401,0.3723,0.03952,3.0,2.0,5.0,0.0,0.0,0.0,0.0
1738834750902021884,0.5674,0.258,1.699,2.346,1.386,2.422,-0.2264,0.3262,0.01438,0.431,0.2119,1.66,2.25,1.41,2.41,-0.2322,0.343,0.04193,3.0,2.0,5.0,0.0,0.0,0.0,0.0
1738834750952106475,0.755,0.388,1.91,2.543,1.544,2.338,-0.191,0.2487,0.01286,0.571,0.2915,1.797,2.422,1.551,2.418,-0.21,0.2861,0.04245,3.0,2.0,5.0,0.0,0.0,0.0,0.0
1738834751002044439,0.8164,0.4128,1.966,2.568,1.577,2.305,-0.1764,0.2197,0.012436,0.658,0.371,1.891,2.496,1.613,2.352,-0.1907,0.2473,0.04117,3.0,2.0,5.0,0.0,0.0,0.0,0.0
1738834751052026271,0.9736,0.5225,2.104,2.643,1.651,2.273,-0.1414,0.1824,0.00977,0.833,0.477,2.043,2.582,1.699,2.285,-0.1534,0.1831,0.03824,3.0,2.0,5.0,0.0,0.0,0.0,0.0
1738834751102029323,1.124,0.616,2.203,2.707,1.698,2.275,-0.1059,0.1259,0.00542,0.9033,0.5303,2.11,2.617,1.734,2.273,-0.1326,0.1587,0.03595,3.0,2.0,5.0,0.0,0.0,0.0,0.0
1738834751152075529,1.2,0.6777,2.312,2.715,1.713,2.234,-0.0631,0.0781,0.004353,1.078,0.636,2.227,2.66,1.777,2.273,-0.08264,0.0935,0.0328,3.0,2.0,5.0,0.0,0.0,0.0,0.0
1738834751202100753,1.384,0.76,2.445,2.709,1.717,2.201,-0.03778,0.03485,0.00364,1.183,0.716,2.32,2.668,1.789,2.23,-0.0539,0.04846,0.03195,3.0,2.0,5.0,0.0,0.0,0.0,0.0
1738834751252172231,1.48,0.8423,2.516,2.672,1.707,2.207,-0.01487,-0.01894,0.003382,1.357,0.822,2.45,2.64,1.785,2.203,-0.01683,-0.01105,0.03134,3.0,2.0,5.0,0.0,0.0,0.0,0.0
1738834751302211999,1.587,0.91,2.613,2.63,1.688,2.22,0.015205,-0.05054,0.003124,1.463,0.8745,2.523,2.617,1.777,2.207,0.00468,-0.03763,0.03125,3.0,2.0,5.0,0.0,0.0,0.0,0.0
1738834751352111339,1.722,0.997,2.729,2.559,1.65,2.232,0.0418,-0.088,0.00252,1.62,0.981,2.645,2.54,1.73,2.23,0.04016,-0.08594,0.0306,3.0,2.0,5.0,0.0,0.0,0.0,0.0
1738834751402137517,1.959,1.15,2.941,2.379,1.547,2.209,0.08466,-0.154,0.001475,1.742,1.061,2.734,2.48,1.695,2.219,0.0599,-0.11646,0.03015,3.0,2.0,5.0,0.0,0.0,0.0,0.0
1738834751452114343,2.025,1.212,2.969,2.318,1.521,2.191,0.089,-0.1769,0.001355,1.9,1.166,2.879,2.355,1.617,2.203,0.0865,-0.1572,0.02933,3.0,2.0,5.0,0.0,0.0,0.0,0.0
1738834751502116441,2.09,1.235,3.092,2.213,1.472,2.176,0.1052,-0.1915,0.001091,1.987,1.22,2.945,2.293,1.578,2.184,0.0978,-0.1744,0.0291,3.0,2.0,5.0,0.0,0.0,0.0,0.0
1738834751552162647,2.193,1.304,3.168,2.133,1.4,2.152,0.11884,-0.2052,0.000887,2.127,1.325,3.066,2.145,1.484,2.156,0.11786,-0.2041,0.0285,3.0,2.0,5.0,0.0,0.0,0.0,0.0
1738834751602158784,2.387,1.432,3.371,1.885,1.248,2.045,0.1405,-0.2397,0.000168,2.232,1.405,3.16,2.04,1.414,2.102,0.1294,-0.2233,0.02795,3.0,2.0,5.0,0.0,0.0,0.0,0.0
1738834751652140855,2.395,1.451,3.379,1.874,1.242,2.04,0.1411,-0.2397,0.000163,2.355,1.484,3.277,1.898,1.324,2.05,0.1405,-0.24,0.0275,3.0,2.0,5.0,0.0,0.0,0.0,0.0
1738834751702134609,2.562,1.548,3.566,1.619,1.085,1.889,0.1534,-0.2593,-0.000255,2.424,1.537,3.352,1.816,1.27,1.988,0.1458,-0.2483,0.02704,3.0,2.0,5.0,0.0,0.0,0.0,0.0
1738834751752149820,2.576,1.569,3.574,1.569,1.055,1.842,0.154,-0.2603,-0.000184,2.53,1.591,3.457,1.648,1.156,1.898,0.1533,-0.2593,0.0266,3.0,2.0,5.0,0.0,0.0,0.0,0.0
1738834751802170276,2.66,1.606,3.682,1.49,0.985,1.768,0.1571,-0.266,-0.000778,2.6,1.644,3.531,1.555,1.098,1.805,0.1562,-0.2627,0.02621,3.0,2.0,5.0,0.0,0.0,0.0,0.0
1738834751852179765,2.748,1.674,3.764,1.325,0.8843,1.611,0.159,-0.265,-0.000561,2.705,1.724,3.645,1.391,0.9883,1.691,0.159,-0.2654,0.0259,3.0,2.0,5.0,0.0,0.0,0.0,0.0
1738834751902133464,2.822,1.722,3.86,1.196,0.7954,1.496,0.1576,-0.2666,-0.001225,2.74,1.75,3.695,1.32,0.9414,1.609,0.1587,-0.2642,0.02586,3.0,2.0,5.0,0.0,0.0,0.0,0.0
1738834751952106714,2.857,1.74,3.928,1.082,0.749,1.42,0.1559,-0.261,-0.001068,2.826,1.803,3.777,1.176,0.8477,1.453,0.1567,-0.2646,0.02522,3.0,2.0,5.0,0.0,0.0,0.0,0.0
1738834752002155780,2.92,1.799,4.023,0.9404,0.6597,1.277,0.1516,-0.2496,-0.000258,2.879,1.855,3.832,1.09,0.789,1.355,0.154,-0.257,0.02536,3.0,2.0,5.0,0.0,0.0,0.0,0.0
1738834752052038669,2.97,1.828,4.066,0.807,0.573,1.14,0.1469,-0.2367,0.000451,2.95,1.909,3.914,0.9414,0.6914,1.246,0.1497,-0.2432,0.02591,3.0,2.0,5.0,0.0,0.0,0.0,0.0
1738834752102068662,2.98,1.835,4.094,0.7915,0.563,1.108,0.1458,-0.2358,0.000134,2.984,1.909,3.95,0.883,0.6523,1.172,0.147,-0.2369,0.02579,3.0,2.0,5.0,0.0,0.0,0.0,0.0
1738834752152120590,3.02,1.862,4.15,0.682,0.4922,1.017,0.1415,-0.229,6.8e-05,3.037,1.962,4.008,0.758,0.5664,1.027,0.1416,-0.2297,0.02501,3.0,2.0,5.0,0.0,0.0,0.0,0.0
1738834752202135801,3.049,1.885,4.195,0.5786,0.424,0.975,0.1356,-0.2115,0.001278,3.055,1.988,4.05,0.672,0.508,0.9805,0.1368,-0.216,0.02571,3.0,2.0,5.0,0.0,0.0,0.0,0.0
1738834752252113819,3.084,1.906,4.26,0.4443,0.3496,0.898,0.1292,-0.1935,0.002157,3.107,2.016,4.11,0.547,0.418,0.9336,0.129,-0.1958,0.02695,3.0,2.0,5.0,0.0,0.0,0.0,0.0
1738834752302184820,3.102,1.928,4.31,0.3567,0.2725,0.81,0.1192,-0.1881,0.00141,3.125,2.016,4.133,0.5,0.3828,0.871,0.1247,-0.1915,0.02632,3.0,2.0,5.0,0.0,0.0,0.0,0.0
1738834752352144479,3.115,1.934,4.33,0.313,0.2435,0.7993,0.1163,-0.182,0.001679,3.14,2.041,4.176,0.3906,0.3047,0.789,0.11584,-0.1816,0.02582,3.0,2.0,5.0,0.0,0.0,0.0,0.0
1738834752402137756,3.137,1.952,4.406,0.1508,0.1294,0.7803,0.10394,-0.1504,0.003227,3.158,2.068,4.207,0.3203,0.254,0.785,0.11053,-0.1664,0.02661,3.0,2.0,5.0,0.0,0.0,0.0,0.0
1738834752452134609,3.139,1.955,4.43,0.12494,0.12177,0.7544,0.09863,-0.1487,0.00306,3.176,2.068,4.25,0.2227,0.1797,0.7656,0.10284,-0.1493,0.02724,3.0,2.0,5.0,0.0,0.0,0.0,0.0
1738834752502155303,3.145,1.957,4.445,0.0843,0.0821,0.7163,0.095,-0.1447,0.00265,3.176,2.068,4.266,0.1836,0.1523,0.7266,0.09784,-0.146,0.02655,3.0,2.0,5.0,0.0,0.0,0.0,0.0
1738834752552140474,3.146,1.96,4.484,0.01442,0.03467,0.703,0.0872,-0.1345,0.002846,3.193,2.068,4.305,0.09375,0.08594,0.676,0.0868,-0.1339,0.0263,3.0,2.0,5.0,0.0,0.0,0.0,0.0
1738834752602148294,3.145,1.961,4.527,-0.0686,-0.0238,0.7324,0.0765,-0.1118,0.003738,3.193,2.068,4.33,0.0547,0.0547,0.6875,0.0817,-0.123,0.02681,3.0,2.0,5.0,0.0,0.0,0.0,0.0
1738834752652146577,3.14,1.959,4.562,-0.0993,-0.05353,0.7056,0.0687,-0.1036,0.003813,3.193,2.068,4.37,-0.01563,0.0,0.6953,0.0706,-0.1046,0.02727,3.0,2.0,5.0,0.0,0.0,0.0,0.0
1738834752702157735,3.133,1.954,4.605,-0.1616,-0.08765,0.6636,0.0567,-0.0964,0.003565,3.193,2.068,4.383,-0.04297,-0.01953,0.664,0.0645,-0.10144,0.0269,3.0,2.0,5.0,0.0,0.0,0.0,0.0
1738834752752124309,3.125,1.95,4.62,-0.1826,-0.1006,0.6675,0.05276,-0.0905,0.003725,3.176,2.068,4.42,-0.10156,-0.0547,0.629,0.05255,-0.0902,0.02693,3.0,2.0,5.0,0.0,0.0,0.0,0.0
1738834752802172899,3.117,1.946,4.656,-0.2219,-0.1252,0.688,0.043,-0.0722,0.004154,3.176,2.068,4.45,-0.1328,-0.0781,0.6445,0.045,-0.0762,0.02724,3.0,2.0,5.0,0.0,0.0,0.0,0.0
1738834752852158308,3.102,1.938,4.703,-0.257,-0.1475,0.653,0.03412,-0.05994,0.004368,3.158,2.068,4.49,-0.1719,-0.10547,0.6406,0.0345,-0.061,0.02754,3.0,2.0,5.0,0.0,0.0,0.0,0.0
1738834752902133941,3.088,1.927,4.742,-0.2847,-0.1608,0.61,0.02107,-0.0535,0.00437,3.158,2.041,4.5,-0.1875,-0.1133,0.6055,0.02899,-0.0587,0.02739,3.0,2.0,5.0,0.0,0.0,0.0,0.0
1738834752952125072,3.066,1.918,4.77,-0.3005,-0.167,0.6016,0.0141,-0.03802,0.004555,3.14,2.041,4.543,-0.2188,-0.1289,0.5625,0.01817,-0.0474,0.02737,3.0,2.0,5.0,0.0,0.0,0.0,0.0
1738834753002139806,3.049,1.91,4.8,-0.3098,-0.1718,0.583,0.01121,-0.02719,0.0048,3.125,2.041,4.562,-0.2305,-0.1328,0.5586,0.014,-0.0368,0.02745,3.0,2.0,5.0,0.0,0.0,0.0,0.0
1738834753052151918,3.041,1.903,4.824,-0.3167,-0.1731,0.5347,0.005314,-0.02272,0.004974,3.107,2.016,4.598,-0.2461,-0.1406,0.539,0.00796,-0.02376,0.02762,3.0,2.0,5.0,0.0,0.0,0.0,0.0
1738834753102149009,3.031,1.897,4.844,-0.3193,-0.1732,0.512,0.003374,-0.02174,0.005043,3.107,2.016,4.61,-0.2461,-0.1406,0.5,0.005306,-0.02226,0.02757,3.0,2.0,5.0,0.0,0.0,0.0,0.0
1738834753152120351,3.01,1.884,4.88,-0.3232,-0.1708,0.4763,-0.001719,-0.009926,0.005325,3.09,2.016,4.64,-0.254,-0.1406,0.4453,0.000562,-0.01564,0.02745,3.0,2.0,5.0,0.0,0.0,0.0,0.0
1738834753202139377,3.0,1.881,4.89,-0.3223,-0.1694,0.4749,-0.004295,-0.004993,0.0054,3.072,1.988,4.66,-0.2578,-0.1406,0.4336,-0.002949,-0.007298,0.02754,3.0,2.0,5.0,0.0,0.0,0.0,0.0
1738834753252134084,2.969,1.867,4.926,-0.3127,-0.1605,0.4153,-0.00988,0.004395,0.005714,3.055,1.988,4.688,-0.25,-0.1367,0.4062,-0.007996,0.002615,0.0277,3.0,2.0,5.0,0.0,0.0,0.0,0.0
1738834753302128076,2.965,1.863,4.934,-0.3086,-0.1565,0.3958,-0.012634,0.00525,0.00584,3.037,1.988,4.7,-0.2461,-0.1328,0.375,-0.01038,0.004375,0.0277,3.0,2.0,5.0,0.0,0.0,0.0,0.0
1738834753352153539,2.953,1.857,4.953,-0.3013,-0.1499,0.3772,-0.014854,0.01095,0.00599,3.02,1.962,4.727,-0.2383,-0.125,0.336,-0.01462,0.01031,0.02773,3.0,2.0,5.0,0.0,0.0,0.0,0.0
1738834753402170419,2.928,1.845,4.984,-0.278,-0.1329,0.3574,-0.0177,0.02037,0.006176,3.02,1.962,4.742,-0.2305,-0.1172,0.3203,-0.01627,0.01602,0.02785,3.0,2.0,5.0,0.0,0.0,0.0,0.0
1738834753452147483,2.92,1.842,4.992,-0.271,-0.1282,0.3289,-0.0183,0.02264,0.00633,3.002,1.962,4.76,-0.2109,-0.10547,0.2969,-0.01817,0.02219,0.02786,3.0,2.0,5.0,0.0,0.0,0.0,0.0
1738834753502131700,2.91,1.837,5.004,-0.26,-0.1209,0.3064,-0.01892,0.02328,0.006454,2.984,1.936,4.773,-0.1992,-0.09766,0.2695,-0.01877,0.0228,0.02785,3.0,2.0,5.0,0.0,0.0,0.0,0.0
1738834753552136898,2.893,1.829,5.027,-0.2429,-0.1054,0.283,-0.01984,0.02817,0.006634,2.967,1.936,4.797,-0.1836,-0.08594,0.2422,-0.01958,0.0261,0.0279,3.0,2.0,5.0,0.0,0.0,0.0,0.0
1738834753602127790,2.887,1.826,5.035,-0.2255,-0.099,0.2788,-0.02115,0.03001,0.00674,2.967,1.936,4.805,-0.168,-0.0781,0.2344,-0.02066,0.02913,0.02785,3.0,2.0,5.0,0.0,0.0,0.0,0.0
1738834753652031898,2.875,1.821,5.047,-0.2073,-0.088,0.256,-0.02234,0.0316,0.006924,2.95,1.936,4.824,-0.1445,-0.0664,0.2109,-0.02235,0.03122,0.02823,3.0,2.0,5.0,0.0,0.0,0.0,0.0
1738834753702024459,2.86,1.814,5.066,-0.1775,-0.0683,0.1907,-0.0219,0.02759,0.007248,2.95,1.909,4.83,-0.1328,-0.0586,0.1836,-0.0223,0.02907,0.02834,3.0,2.0,5.0,0.0,0.0,0.0,0.0
1738834753752018690,2.854,1.813,5.07,-0.172,-0.06198,0.1853,-0.02168,0.02863,0.007282,2.932,1.909,4.848,-0.1133,-0.04297,0.1445,-0.02162,0.0282,0.02827,3.0,2.0,5.0,0.0,0.0,0.0,0.0
1738834753802027463,2.848,1.811,5.08,-0.1514,-0.05396,0.1747,-0.02113,0.03162,0.00739,2.932,1.909,4.85,-0.10156,-0.03516,0.1328,-0.02124,0.03044,0.02843,3.0,2.0,5.0,0.0,0.0,0.0,0.0
1738834753852030754,2.842,1.809,5.086,-0.1333,-0.04373,0.1581,-0.02061,0.03293,0.007465,2.932,1.909,4.863,-0.0781,-0.02344,0.1133,-0.02043,0.0326,0.0285,3.0,2.0,5.0,0.0,0.0,0.0,0.0
1738834753902025699,2.832,1.806,5.094,-0.1124,-0.02817,0.1203,-0.01831,0.0287,0.007675,2.932,1.909,4.867,-0.0664,-0.01563,0.09375,-0.01959,0.0305,0.02863,3.0,2.0,5.0,0.0,0.0,0.0,0.0
1738834753952016592,2.828,1.805,5.098,-0.0959,-0.0244,0.1236,-0.01744,0.02928,0.007744,2.914,1.909,4.883,-0.04688,-0.003906,0.0781,-0.01772,0.02858,0.02893,3.0,2.0,5.0,0.0,0.0,0.0,0.0
1738834754002017498,2.824,1.804,5.105,-0.08307,-0.01502,0.1267,-0.0167,0.02983,0.007736,2.914,1.909,4.887,-0.03516,0.0,0.08203,-0.01675,0.02951,0.02893,3.0,2.0,5.0,0.0,0.0,0.0,0.0
1738834754052017450,2.82,1.804,5.113,-0.05936,-0.003345,0.11224,-0.01582,0.02603,0.007835,2.914,1.909,4.895,-0.01172,0.007812,0.0781,-0.01584,0.02716,0.02914,3.0,2.0,5.0,0.0,0.0,0.0,0.0
1738834754102022171,2.818,1.804,5.117,-0.05145,0.000991,0.10535,-0.01566,0.02275,0.00788,2.914,1.909,4.9,-0.003906,0.01172,0.0703,-0.01563,0.02414,0.02899,3.0,2.0,5.0,0.0,0.0,0.0,0.0
1738834754152019500,2.816,1.804,5.12,-0.03833,0.00887,0.0972,-0.01525,0.01985,0.00795,2.896,1.882,4.918,0.007812,0.02344,0.0586,-0.015,0.01947,0.02885,3.0,2.0,5.0,0.0,0.0,0.0,0.0
1738834754202018260,2.814,1.805,5.13,-0.02309,0.01831,0.0907,-0.01371,0.0168,0.00802,2.896,1.882,4.918,0.01172,0.02734,0.0547,-0.01408,0.01782,0.02888,3.0,2.0,5.0,0.0,0.0,0.0,0.0
1738834754252017259,2.812,1.805,5.133,-0.0154,0.0231,0.07697,-0.012596,0.01418,0.008064,2.896,1.909,4.92,0.02344,0.03516,0.04297,-0.01222,0.014336,0.02892,3.0,2.0,5.0,0.0,0.0,0.0,0.0
1738834754302018165,2.812,1.807,5.137,-0.00845,0.02798,0.06165,-0.01166,0.00974,0.008156,2.896,1.909,4.926,0.03125,0.03906,0.03125,-0.01157,0.011734,0.02902,3.0,2.0,5.0,0.0,0.0,0.0,0.0
1738834754352020502,2.812,1.808,5.137,-0.002653,0.03262,0.05838,-0.01106,0.0089,0.008224,2.896,1.882,4.938,0.03516,0.04297,0.01953,-0.01076,0.008446,0.0288,3.0,2.0,5.0,0.0,0.0,0.0,0.0
1738834754402023077,2.812,1.81,5.14,0.00385,0.0386,0.0551,-0.01065,0.00841,0.0083,2.896,1.909,4.94,0.03906,0.04688,0.01953,-0.010414,0.008095,0.0287,3.0,2.0,5.0,0.0,0.0,0.0,0.0
1738834754452019691,2.812,1.8125,5.145,0.01253,0.04474,0.04068,-0.00959,0.007347,0.00842,2.896,1.909,4.94,0.04688,0.05078,0.01172,-0.00983,0.007133,0.02846,3.0,2.0,5.0,0.0,0.0,0.0,0.0
1738834754502022981,2.814,1.815,5.145,0.01799,0.0493,0.02878,-0.00785,0.00542,0.00862,2.896,1.909,4.945,0.04688,0.0547,-0.0,-0.00907,0.005825,0.02838,3.0,2.0,5.0,0.0,0.0,0.0,0.0
1738834754552020311,2.814,1.818,5.15,0.0235,0.0528,0.03934,-0.00666,0.00659,0.00874,2.896,1.909,4.953,0.05078,0.0586,-0.0,-0.00718,0.005108,0.02838,3.0,2.0,5.0,0.0,0.0,0.0,0.0
1738834754602029323,2.814,1.818,5.15,0.02391,0.053,0.03983,-0.006588,0.006603,0.00876,2.896,1.909,4.953,0.0547,0.0586,0.003906,-0.00639,0.006046,0.02838,3.0,2.0,5.0,0.0,0.0,0.0,0.0
1738834754652022361,2.816,1.823,5.152,0.03096,0.05673,0.02763,-0.004925,0.003025,0.009,2.896,1.909,4.957,0.0586,0.0625,0.003906,-0.005207,0.00413,0.0284,3.0,2.0,5.0,0.0,0.0,0.0,0.0
1738834754702023983,2.818,1.826,5.152,0.03345,0.05817,0.02255,-0.003334,0.000721,0.00912,2.896,1.909,4.957,0.0625,0.0625,-0.0,-0.004288,0.00196,0.0284,3.0,2.0,5.0,0.0,0.0,0.0,0.0
1738834754752030134,2.82,1.829,5.152,0.03513,0.05862,0.0131,-0.002232,0.000483,0.00925,2.896,1.909,4.97,0.0625,0.0625,-0.01172,-0.002247,-0.0001405,0.02858,3.0,2.0,5.0,0.0,0.0,0.0,0.0
1738834754802018642,2.822,1.832,5.152,0.03824,0.05902,0.00954,-0.001072,0.000834,0.00942,2.896,1.909,4.97,0.0625,0.0625,-0.01563,-0.001469,-6.52e-05,0.02875,3.0,2.0,5.0,0.0,0.0,0.0,0.0
1738834754852020978,2.824,1.835,5.152,0.0398,0.0589,0.007565,-0.000539,0.000112,0.00947,2.896,1.909,4.97,0.0625,0.0625,-0.01563,-0.0003428,0.0001776,0.02892,3.0,2.0,5.0,0.0,0.0,0.0,0.0
1738834754902016162,2.826,1.838,5.156,0.0409,0.05847,0.00541,-0.000348,-0.000902,0.00957,2.896,1.909,4.97,0.0625,0.0625,-0.01563,-0.0001801,-0.0005155,0.02892,3.0,2.0,5.0,0.0,0.0,0.0,0.0
1738834754952013731,2.828,1.839,5.156,0.0413,0.0583,0.003885,-0.000189,-0.001648,0.00959,2.896,1.909,4.98,0.0625,0.0625,-0.01953,0.0002251,-0.002335,0.02908,3.0,2.0,5.0,0.0,0.0,0.0,0.0
1738834755002026557,2.83,1.843,5.156,0.0419,0.05774,0.000444,-2.7e-05,-0.002806,0.009674,2.914,1.909,4.98,0.0625,0.0586,-0.01953,0.0002997,-0.003113,0.02927,3.0,2.0,5.0,0.0,0.0,0.0,0.0
1738834755052026271,2.832,1.845,5.156,0.04202,0.05695,-0.001194,1.6e-05,-0.003489,0.00972,2.914,1.909,4.98,0.0625,0.0586,-0.01953,0.0004594,-0.00398,0.02943,3.0,2.0,5.0,0.0,0.0,0.0,0.0
1738834755102025747,2.834,1.85,5.156,0.04184,0.05624,-0.00218,4.6e-05,-0.003822,0.009735,2.914,1.909,4.98,0.0625,0.0586,-0.01953,0.000454,-0.004322,0.0296,3.0,2.0,5.0,0.0,0.0,0.0,0.0
1738834755152013778,2.836,1.854,5.156,0.04166,0.05576,-0.00217,4.8e-05,-0.003925,0.00971,2.914,1.909,4.996,0.0586,0.0547,-0.01953,0.000536,-0.004585,0.02979,3.0,2.0,5.0,0.0,0.0,0.0,0.0
1738834755202022552,2.838,1.854,5.156,0.0415,0.05545,-0.003304,4.5e-05,-0.004,0.00971,2.914,1.936,4.992,0.0586,0.0547,-0.01953,0.000448,-0.00467,0.02995,3.0,2.0,5.0,0.0,0.0,0.0,0.0
1738834755252021312,2.842,1.858,5.152,0.0408,0.0544,-0.004955,4e-06,-0.004353,0.00965,2.914,1.936,4.996,0.0586,0.0547,-0.01953,0.0004427,-0.005013,0.03004,3.0,2.0,5.0,0.0,0.0,0.0,0.0
1738834755302018404,2.842,1.859,5.152,0.0405,0.0542,-0.005898,-6e-06,-0.00437,0.009605,2.914,1.936,4.996,0.0547,0.05078,-0.01953,0.0005274,-0.0051,0.03012,3.0,2.0,5.0,0.0,0.0,0.0,0.0
1738834755352014064,2.844,1.861,5.152,0.04013,0.05356,-0.00708,-3.1e-05,-0.004387,0.009544,2.914,1.936,5.008,0.0547,0.05078,-0.02344,0.0004394,-0.005188,0.0303,3.0,2.0,5.0,0.0,0.0,0.0,0.0
1738834755402010679,2.848,1.865,5.152,0.03952,0.05295,-0.006832,-6.8e-05,-0.004246,0.00942,2.914,1.936,5.004,0.0547,0.05078,-0.02344,0.0003543,-0.0051,0.0303,3.0,2.0,5.0,0.0,0.0,0.0,0.0
1738834755452078819,2.848,1.867,5.152,0.03934,0.0527,-0.007153,-7e-05,-0.004173,0.00936,2.914,1.936,5.008,0.05078,0.04688,-0.01953,0.000442,-0.005013,0.0303,3.0,2.0,5.0,0.0,0.0,0.0,0.0
1738834755502149105,2.852,1.871,5.152,0.03857,0.05188,-0.01015,-0.000138,-0.00449,0.00916,2.914,1.936,5.008,0.05078,0.04688,-0.01953,0.0004392,-0.005188,0.03038,3.0,2.0,5.0,0.0,0.0,0.0,0.0
1738834755552105903,2.854,1.873,5.152,0.03818,0.0517,-0.010475,-0.000153,-0.004467,0.00908,2.914,1.936,5.02,0.04688,0.04688,-0.01953,0.0003514,-0.005272,0.03047,3.0,2.0,5.0,0.0,0.0,0.0,0.0
1738834755602070569,2.854,1.875,5.152,0.0378,0.05127,-0.01169,-0.000164,-0.00439,0.00901,2.914,1.936,5.02,0.04688,0.04297,-0.01953,0.0003514,-0.005272,0.03047,3.0,2.0,5.0,0.0,0.0,0.0,0.0
1738834755652072906,2.857,1.879,5.15,0.03714,0.05054,-0.012245,-0.000261,-0.00425,0.00879,2.914,1.936,5.02,0.04688,0.04297,-0.02344,0.0002663,-0.005184,0.03047,3.0,2.0,5.0,0.0,0.0,0.0,0.0
1738834755702060461,2.857,1.881,5.15,0.03693,0.0503,-0.012024,-0.00028,-0.00412,0.00869,2.932,1.936,5.02,0.04297,0.04297,-0.01953,0.0002663,-0.005184,0.03047,3.0,2.0,5.0,0.0,0.0,0.0,0.0
1738834755752125501,2.86,1.882,5.15,0.03677,0.0501,-0.011635,-0.000284,-0.004047,0.00861,2.914,1.936,5.027,0.04297,0.04297,-0.01953,0.0002716,-0.004837,0.03047,3.0,2.0,5.0,0.0,0.0,0.0,0.0
1738834755802094221,2.863,1.887,5.15,0.03635,0.04938,-0.009125,-0.000307,-0.003836,0.00829,2.914,1.936,5.027,0.04297,0.04297,-0.01953,0.0002716,-0.004837,0.03047,3.0,2.0,5.0,0.0,0.0,0.0,0.0
1738834755852110862,2.863,1.889,5.15,0.0362,0.04913,-0.010124,-0.000307,-0.003994,0.008194,2.932,1.936,5.027,0.03906,0.03906,-0.01563,0.0002742,-0.004665,0.03047,3.0,2.0,5.0,0.0,0.0,0.0,0.0
1738834755902114629,2.865,1.891,5.15,0.03595,0.04886,-0.01075,-0.000321,-0.004196,0.00809,2.932,1.936,5.027,0.03906,0.03906,-0.01563,0.0002716,-0.004837,0.03047,3.0,2.0,5.0,0.0,0.0,0.0,0.0
1738834755952129840,2.867,1.892,5.15,0.0358,0.0487,-0.01084,-0.00034,-0.00421,0.007996,2.932,1.936,5.035,0.03906,0.03906,-0.01563,0.0001813,-0.005096,0.03047,3.0,2.0,5.0,0.0,0.0,0.0,0.0
1738834756002091407,2.87,1.8955,5.15,0.03546,0.04828,-0.011444,-0.000354,-0.004116,0.0078,2.932,1.936,5.035,0.03516,0.03906,-0.01563,0.0001813,-0.005096,0.03047,3.0,2.0,5.0,0.0,0.0,0.0,0.0
1738834756052092790,2.87,1.896,5.15,0.0352,0.0481,-0.011925,-0.000382,-0.004112,0.0077,2.932,1.936,5.035,0.03516,0.03516,-0.01563,9.63e-05,-0.00501,0.03047,3.0,2.0,5.0,0.0,0.0,0.0,0.0
1738834756102086305,2.871,1.899,5.145,0.03485,0.0478,-0.0129,-0.000381,-0.00415,0.00756,2.932,1.936,5.035,0.03516,0.03516,-0.01563,0.0001813,-0.005096,0.03047,3.0,2.0,5.0,0.0,0.0,0.0,0.0
1738834756152120590,2.873,1.901,5.145,0.03458,0.0475,-0.012985,-0.000373,-0.00404,0.007378,2.932,1.936,5.04,0.03516,0.03516,-0.01563,0.0001839,-0.004925,0.03047,3.0,2.0,5.0,0.0,0.0,0.0,0.0
1738834756202119112,2.875,1.905,5.145,0.03433,0.0471,-0.01307,-0.00036,-0.003885,0.00718,2.932,1.962,5.04,0.03125,0.03516,-0.01563,9.894e-05,-0.004837,0.03047,3.0,2.0,5.0,0.0,0.0,0.0,0.0
1738834756252113342,2.879,1.908,5.145,0.03412,0.04675,-0.01382,-0.000371,-0.003902,0.007008,2.932,1.962,5.04,0.03125,0.03516,-0.01563,0.0001868,-0.00475,0.03038,3.0,2.0,5.0,0.0,0.0,0.0,0.0
1738834756302051782,2.879,1.908,5.145,0.03406,0.04663,-0.013916,-0.000384,-0.003906,0.006947,2.932,1.962,5.04,0.03125,0.03516,-0.01563,9.92e-05,-0.004837,0.03038,3.0,2.0,5.0,0.0,0.0,0.0,0.0
1738834756352029085,2.88,1.911,5.14,0.03384,0.04636,-0.014854,-0.000419,-0.003925,0.006767,2.932,1.962,5.043,0.03125,0.03516,-0.01563,9.92e-05,-0.004837,0.03038,3.0,2.0,5.0,0.0,0.0,0.0,0.0
1738834756402023315,2.883,1.915,5.14,0.0336,0.04587,-0.01343,-0.000473,-0.003647,0.00645,2.932,1.962,5.043,0.03125,0.03125,-0.01563,9.94e-05,-0.004837,0.0303,3.0,2.0,5.0,0.0,0.0,0.0,0.0
1738834756452021598,2.885,1.916,5.14,0.0336,0.04578,-0.013016,-0.000484,-0.003647,0.00642,2.932,1.962,5.04,0.02734,0.03125,-0.01172,1.7e-05,-0.004574,0.0303,3.0,2.0,5.0,0.0,0.0,0.0,0.0
1738834756502029657,2.887,1.918,5.14,0.03357,0.04556,-0.01186,-0.000481,-0.003538,0.006275,2.932,1.962,5.04,0.02734,0.03125,-0.01172,1.7e-05,-0.004574,0.0303,3.0,2.0,5.0,0.0,0.0,0.0,0.0
1738834756552028894,2.887,1.92,5.14,0.0336,0.04544,-0.01121,-0.000488,-0.003536,0.006104,2.932,1.962,5.043,0.02734,0.03125,-0.007812,0.0001046,-0.00449,0.0303,3.0,2.0,5.0,0.0,0.0,0.0,0.0
1738834756602030992,2.889,1.924,5.14,0.03354,0.04517,-0.01167,-0.000519,-0.003689,0.005882,2.932,1.962,5.043,0.02734,0.03125,-0.007812,1.72e-05,-0.004578,0.03021,3.0,2.0,5.0,0.0,0.0,0.0,0.0
1738834756652020454,2.89,1.926,5.137,0.03342,0.04498,-0.01271,-0.000554,-0.003843,0.005672,2.932,1.962,5.043,0.02734,0.03125,-0.007812,1.52e-05,-0.00475,0.02995,3.0,2.0,5.0,0.0,0.0,0.0,0.0
1738834756702033996,2.893,1.928,5.137,0.0333,0.0448,-0.01287,-0.000553,-0.003883,0.005608,2.932,1.962,5.043,0.02734,0.03125,-0.007812,-7.16e-05,-0.004833,0.0296,3.0,2.0,5.0,0.0,0.0,0.0,0.0
1738834756752029657,2.895,1.93,5.137,0.03317,0.04453,-0.01291,-0.000535,-0.00372,0.005505,2.932,1.962,5.047,0.02344,0.03125,-0.007812,-7.033e-05,-0.004833,0.0291,3.0,2.0,5.0,0.0,0.0,0.0,0.0
1738834756802043199,2.896,1.932,5.137,0.03308,0.04443,-0.0131,-0.000509,-0.003693,0.005505,2.932,1.962,5.047,0.02344,0.02734,-0.007812,-6.7e-05,-0.00466,0.02875,3.0,2.0,5.0,0.0,0.0,0.0,0.0
1738834756852050542,2.898,1.935,5.137,0.033,0.0442,-0.013466,-0.00051,-0.003696,0.00553,2.932,1.962,5.047,0.02344,0.02734,-0.007812,-6.616e-05,-0.00466,0.0284,3.0,2.0,5.0,0.0,0.0,0.0,0.0
1738834756902035951,2.9,1.937,5.137,0.03293,0.04398,-0.01342,-0.000516,-0.003672,0.005592,2.95,1.962,5.047,0.02344,0.02734,-0.007812,-6.58e-05,-0.00466,0.02823,3.0,2.0,5.0,0.0,0.0,0.0,0.0
1738834756952036142,2.902,1.939,5.133,0.03305,0.0438,-0.01251,-0.000503,-0.002575,0.005753,2.95,1.962,5.05,0.02344,0.02734,-0.007812,2.42e-05,-0.004402,0.02823,3.0,2.0,5.0,0.0,0.0,0.0,0.0
1738834757002035140,2.902,1.941,5.133,0.0339,0.04364,-0.01192,-0.000485,-0.00144,0.0058,2.95,1.962,5.05,0.02344,0.02734,-0.007812,-4.905e-05,-0.003452,0.0284,3.0,2.0,5.0,0.0,0.0,0.0,0.0
1738834757052049636,2.904,1.943,5.133,0.0349,0.04346,-0.01046,-0.000475,-0.00023,0.00589,2.95,1.962,5.047,0.02344,0.02734,-0.007812,-2.235e-05,-0.001554,0.02875,3.0,2.0,5.0,0.0,0.0,0.0,0.0
1738834757102029323,2.906,1.944,5.133,0.03586,0.04337,-0.00952,-0.000476,0.000234,0.005898,2.95,1.962,5.047,0.02344,0.02734,-0.003906,-1.49e-05,-0.001036,0.02875,3.0,2.0,5.0,0.0,0.0,0.0,0.0
1738834757152038574,2.908,1.947,5.133,0.03812,0.04315,-0.01575,-0.000511,0.000444,0.00592,2.95,1.962,5.05,0.02734,0.02734,-0.007812,-9.25e-05,-0.0004303,0.02875,3.0,2.0,5.0,0.0,0.0,0.0,0.0
1738834757202042102,2.91,1.95,5.13,0.0396,0.0429,-0.02914,-0.000562,-0.002613,0.00599,2.95,1.962,5.05,0.02734,0.02734,-0.01953,-0.00012,-0.002329,0.02892,3.0,2.0,5.0,0.0,0.0,0.0,0.0
1738834757252048969,2.912,1.953,5.13,0.04056,0.04272,-0.014854,-0.000501,-0.000969,0.00602,2.95,1.988,5.047,0.02734,0.02734,-0.01953,-0.0001353,-0.003365,0.0291,3.0,2.0,5.0,0.0,0.0,0.0,0.0
1738834757302034854,2.914,1.953,5.13,0.04056,0.04272,-0.01419,-0.000495,-0.00087,0.006016,2.95,1.988,5.047,0.02734,0.02734,-0.01172,-3.284e-05,-0.002245,0.02927,3.0,2.0,5.0,0.0,0.0,0.0,0.0
1738834757352076292,2.916,1.955,5.13,0.04202,0.04248,-0.01843,-0.000488,-0.0014,0.00601,2.95,1.988,5.05,0.02734,0.02734,-0.007812,-3.284e-05,-0.002245,0.02927,3.0,2.0,5.0,0.0,0.0,0.0,0.0
1738834757402121067,2.918,1.958,5.13,0.0423,0.04233,-0.02673,-0.000542,-0.00408,0.00601,2.95,1.988,5.05,0.03125,0.02734,-0.01563,2.444e-05,-0.00423,0.02927,3.0,2.0,5.0,0.0,0.0,0.0,0.0
1738834757452137470,2.92,1.96,5.125,0.04178,0.0422,-0.02158,-0.000532,-0.00335,0.00598,2.95,1.988,5.047,0.02734,0.02344,-0.01953,1.52e-05,-0.00492,0.02892,3.0,2.0,5.0,0.0,0.0,0.0,0.0
1738834757502126932,2.922,1.962,5.125,0.04227,0.04205,-0.01094,-0.000477,-0.00203,0.00601,2.95,1.988,5.047,0.02734,0.02344,-0.01172,-5.275e-05,-0.003626,0.0291,3.0,2.0,5.0,0.0,0.0,0.0,0.0
1738834757552145957,2.924,1.964,5.125,0.04276,0.04187,-0.01539,-0.000469,-0.002323,0.005997,2.95,1.988,5.05,0.03125,0.02344,-0.007812,-4.8e-05,-0.00328,0.02927,3.0,2.0,5.0,0.0,0.0,0.0,0.0
1738834757602132558,2.926,1.966,5.125,0.04254,0.0417,-0.02657,-0.000556,-0.00446,0.005966,2.95,1.988,5.05,0.03125,0.02344,-0.01563,1.22e-05,-0.005093,0.0291,3.0,2.0,5.0,0.0,0.0,0.0,0.0
1738834757652138948,2.93,1.969,5.12,0.0419,0.04153,-0.01756,-0.00058,-0.00407,0.006012,2.967,1.988,5.047,0.02734,0.02344,-0.01563,-7.445e-05,-0.00518,0.02875,3.0,2.0,5.0,0.0,0.0,0.0,0.0
1738834757702156305,2.932,1.972,5.12,0.04242,0.04135,-0.01001,-0.000499,-0.002054,0.00605,2.967,1.988,5.047,0.02734,0.02344,-0.01172,-5.49e-05,-0.003798,0.02892,3.0,2.0,5.0,0.0,0.0,0.0,0.0
1738834757752126216,2.932,1.974,5.12,0.04272,0.0412,-0.01903,-0.00053,-0.003819,0.00606,2.967,1.988,5.05,0.02734,0.02344,-0.007812,-5.025e-05,-0.003452,0.0291,3.0,2.0,5.0,0.0,0.0,0.0,0.0
1738834757802065372,2.936,1.975,5.12,0.0425,0.04114,-0.02661,-0.000562,-0.00466,0.006077,2.967,1.988,5.05,0.02734,0.02344,-0.01563,1.02e-05,-0.00527,0.02892,3.0,2.0,5.0,0.0,0.0,0.0,0.0
1738834757852141857,2.938,1.978,5.117,0.0415,0.04095,-0.01695,-0.000504,-0.002922,0.00613,2.967,1.988,5.047,0.02734,0.02344,-0.01563,-7.65e-05,-0.005352,0.02858,3.0,2.0,5.0,0.0,0.0,0.0,0.0
1738834757902036428,2.938,1.979,5.117,0.04163,0.04086,-0.01261,-0.000484,-0.002474,0.00614,2.967,1.988,5.047,0.02734,0.02344,-0.01172,3.046e-05,-0.003885,0.02875,3.0,2.0,5.0,0.0,0.0,0.0,0.0
1738834757952030897,2.941,1.98,5.117,0.0423,0.0407,-0.01488,-0.000482,-0.002502,0.006172,2.967,1.988,5.05,0.02734,0.02344,-0.007812,-4.995e-05,-0.003452,0.02892,3.0,2.0,5.0,0.0,0.0,0.0,0.0
1738834758002028465,2.943,1.982,5.117,0.04205,0.04053,-0.02643,-0.000554,-0.004833,0.00624,2.967,1.988,5.05,0.02734,0.02344,-0.01563,1.02e-05,-0.00527,0.02892,3.0,2.0,5.0,0.0,0.0,0.0,0.0
1738834758052029371,2.945,1.984,5.113,0.04135,0.04044,-0.02287,-0.000597,-0.00452,0.00626,2.967,1.988,5.047,0.02734,0.02344,-0.01563,-0.0001615,-0.005264,0.02858,3.0,2.0,5.0,0.0,0.0,0.0,0.0
1738834758102040529,2.947,1.986,5.113,0.04138,0.04034,-0.01061,-0.000557,-0.002165,0.006344,2.967,1.988,5.047,0.02734,0.02344,-0.007812,-5.46e-05,-0.003798,0.02875,3.0,2.0,5.0,0.0,0.0,0.0,0.0
1738834758152031183,2.95,1.988,5.113,0.04214,0.04022,-0.01206,-0.000561,-0.002253,0.006374,2.967,1.988,5.047,0.02734,0.02344,-0.007812,-4.77e-05,-0.00328,0.0291,3.0,2.0,5.0,0.0,0.0,0.0,0.0
1738834758202029228,2.951,1.99,5.113,0.04202,0.0401,-0.02211,-0.000639,-0.004616,0.00644,2.967,1.988,5.047,0.02734,0.02344,-0.01172,-7.236e-05,-0.005005,0.02892,3.0,2.0,5.0,0.0,0.0,0.0,0.0
1738834758252031087,2.953,1.992,5.113,0.0414,0.04004,-0.01796,-0.000648,-0.004364,0.00646,2.984,1.988,5.047,0.02734,0.01953,-0.01172,-0.0001595,-0.005093,0.02875,3.0,2.0,5.0,0.0,0.0,0.0,0.0
1738834758302027225,2.955,1.994,5.11,0.0415,0.03995,-0.00586,-0.00057,-0.002186,0.006527,2.984,1.988,5.047,0.02734,0.01953,-0.003906,-0.0001374,-0.003538,0.02892,3.0,2.0,5.0,0.0,0.0,0.0,0.0
1738834758352038145,2.957,1.996,5.11,0.04218,0.03986,-0.00931,-0.000571,-0.002502,0.00655,2.984,2.016,5.05,0.02734,0.02344,-0.0,-0.0001353,-0.003365,0.0291,3.0,2.0,5.0,0.0,0.0,0.0,0.0
1738834758402044534,2.959,1.999,5.11,0.0418,0.03973,-0.02296,-0.000648,-0.005135,0.00662,2.984,2.016,5.05,0.02734,0.01953,-0.01172,-7.534e-05,-0.00518,0.0291,3.0,2.0,5.0,0.0,0.0,0.0,0.0
1738834758452059984,2.96,2.0,5.11,0.041,0.03967,-0.0215,-0.000677,-0.004974,0.00664,2.984,2.016,5.047,0.02734,0.01953,-0.01563,-0.0001664,-0.005608,0.02858,3.0,2.0,5.0,0.0,0.0,0.0,0.0
1738834758502051115,2.965,2.004,5.11,0.04114,0.03958,-0.01028,-0.000591,-0.002283,0.00675,2.984,2.016,5.047,0.02344,0.01953,-0.007812,-0.0001471,-0.004227,0.02875,3.0,2.0,5.0,0.0,0.0,0.0,0.0
1738834758552053689,2.965,2.004,5.105,0.04135,0.0395,-0.01414,-0.000503,-0.00276,0.006767,2.984,2.016,5.05,0.02734,0.01953,-0.007812,3.48e-05,-0.00354,0.0291,3.0,2.0,5.0,0.0,0.0,0.0,0.0
1738834758602032423,2.967,2.006,5.105,0.0412,0.0391,-0.02678,0.000693,-0.004627,0.006794,2.984,2.016,5.05,0.02734,0.01953,-0.01563,0.0009604,-0.005196,0.02908,3.0,2.0,5.0,0.0,0.0,0.0,0.0
1738834758652042865,2.97,2.008,5.105,0.04022,0.038,-0.02197,0.002258,-0.00409,0.006855,2.984,2.016,5.047,0.02344,0.01953,-0.01953,0.0026,-0.005302,0.02873,3.0,2.0,5.0,0.0,0.0,0.0,0.0
1738834758702117681,2.97,2.01,5.105,0.04034,0.03644,-0.01354,0.002968,-0.002216,0.00692,2.984,2.016,5.047,0.02344,0.01953,-0.01172,0.003227,-0.003672,0.02892,3.0,2.0,5.0,0.0,0.0,0.0,0.0
1738834758752066850,2.975,2.012,5.1,0.04123,0.03442,-0.01526,0.003675,-0.00214,0.006947,2.984,2.016,5.05,0.02734,0.01563,-0.007812,0.004013,-0.00308,0.02908,3.0,2.0,5.0,0.0,0.0,0.0,0.0
1738834758802027463,2.977,2.014,5.1,0.04123,0.03217,-0.02602,0.004047,-0.00454,0.006985,2.984,2.016,5.05,0.02734,0.01563,-0.01563,0.00442,-0.004726,0.02925,3.0,2.0,5.0,0.0,0.0,0.0,0.0
1738834758852025270,2.979,2.016,5.1,0.04044,0.02911,-0.01826,0.00436,-0.003736,0.00702,3.002,2.016,5.047,0.02734,0.01172,-0.01563,0.00476,-0.005077,0.02908,3.0,2.0,5.0,0.0,0.0,0.0,0.0
1738834758902018547,2.98,2.016,5.1,0.0406,0.02754,-0.01136,0.004513,-0.002285,0.007076,3.002,2.016,5.047,0.02344,0.01172,-0.007812,0.004868,-0.003782,0.02908,3.0,2.0,5.0,0.0,0.0,0.0,0.0
1738834758952027320,2.982,2.018,5.098,0.04144,0.02483,-0.01602,0.00442,-0.002304,0.00708,3.002,2.016,5.05,0.02734,0.007812,-0.003906,0.00487,-0.003265,0.02925,3.0,2.0,5.0,0.0,0.0,0.0,0.0
1738834759002020359,2.984,2.02,5.098,0.04135,0.02248,-0.02463,0.003275,-0.004658,0.00708,3.002,2.016,5.047,0.02734,0.007812,-0.01172,0.004158,-0.00481,0.02925,3.0,2.0,5.0,0.0,0.0,0.0,0.0