time,x_sphinx,y_sphinx,z_sphinx,vx_sphinx,vy_sphinx,vz_sphinx,roll_sphinx,pitch_sphinx,yaw_sphinx,x_anafi,y_anafi,z_anafi,vx_anafi,vy_anafi,vz_anafi,roll_anafi,pitch_anafi,yaw_anafi,wp_x,wp_y,wp_z,wp_vx,wp_vy,wp_vz,wp_yaw
1738831311368122100,233.1,0.03052,6.98,5.01,0.00396,-0.000779,-0.010124,0.1572,-0.06256,231.9,0.03156,6.992,5.004,0.01563,-0.0,-0.01067,0.1576,0.03372,239.0,0.0,7.0,5.0,0.0,0.0,0.0
1738831311418070554,233.4,0.03076,6.98,5.01,0.00534,-0.000741,-0.010155,0.1553,-0.0627,232.1,0.0316,6.992,5.004,0.01563,-0.0,-0.0106,0.1572,0.03363,239.0,0.0,7.0,5.0,0.0,0.0,0.0
1738831311468089103,233.6,0.03104,6.98,5.01,0.00667,-0.000642,-0.0102,0.1537,-0.0627,232.4,0.0316,6.996,5.004,0.01953,-0.0,-0.010635,0.1549,0.03363,239.5,0.0,7.0,5.0,0.0,0.0,0.0
1738831311518073320,233.9,0.03143,6.98,5.008,0.00815,-0.000595,-0.01023,0.1526,-0.06274,232.6,0.0316,6.996,5.004,0.01953,-0.0,-0.01067,0.1537,0.0334,239.5,0.0,7.0,5.0,0.0,0.0,0.0
1738831311568109989,234.1,0.03186,6.98,5.008,0.00954,-0.000964,-0.01026,0.152,-0.06274,232.9,0.03162,6.996,5.004,0.01953,-0.0,-0.01073,0.1523,0.03302,240.0,0.0,7.0,5.0,0.0,0.0,0.0
1738831311618067741,234.4,0.03235,6.98,5.008,0.01093,-0.0012,-0.01031,0.1527,-0.06274,233.1,0.03162,6.996,5.0,0.02344,-0.0,-0.01066,0.1517,0.03287,240.0,0.0,7.0,5.0,0.0,0.0,0.0
1738831311668091058,234.6,0.03296,6.98,5.004,0.0124,-0.001461,-0.0103,0.1537,-0.0626,233.4,0.03162,6.996,5.0,0.02344,-0.0,-0.01076,0.1527,0.0325,240.5,0.0,7.0,5.0,0.0,0.0,0.0
1738831311718071222,234.9,0.03363,6.98,5.004,0.01383,-0.001594,-0.010315,0.1545,-0.06256,233.6,0.03165,6.996,5.0,0.02344,-0.0,-0.01085,0.1534,0.03232,240.5,0.0,7.0,5.0,0.0,0.0,0.0
1738831311768088579,235.1,0.03433,6.98,5.004,0.01512,-0.001436,-0.01032,0.1549,-0.0624,233.9,0.03165,6.996,4.996,0.02734,-0.0,-0.010864,0.1543,0.03198,241.0,0.0,7.0,5.0,0.0,0.0,0.0
1738831311818072080,235.4,0.03516,6.98,5.004,0.01654,-0.000823,-0.01033,0.1539,-0.06226,234.1,0.03165,6.996,4.996,0.02734,-0.0,-0.01085,0.1547,0.03207,241.0,0.0,7.0,5.0,0.0,0.0,0.0
1738831311868189334,235.6,0.03592,6.98,5.004,0.01776,-0.0005,-0.010345,0.153,-0.0621,234.4,0.03168,6.992,4.996,0.02734,-0.0,-0.01078,0.1536,0.03207,241.5,0.0,7.0,5.0,0.0,0.0,0.0
1738831311918205738,235.9,0.03687,6.98,5.004,0.01923,-0.000499,-0.01034,0.1521,-0.06192,234.6,0.03168,6.996,4.996,0.02734,-0.0,-0.01081,0.1527,0.0319,241.5,0.0,7.0,5.0,0.0,0.0,0.0
1738831311968181133,236.1,0.0379,6.98,5.0,0.02072,-0.000471,-0.010345,0.1514,-0.06174,235.0,0.0582,6.996,4.996,0.03125,-0.0,-0.010826,0.1516,0.03183,242.0,0.0,7.0,5.0,0.0,0.0,0.0
1738831312018105506,236.4,0.03903,6.98,5.0,0.0222,-0.000255,-0.010315,0.1511,-0.06152,235.1,0.05823,6.996,4.992,0.03125,-0.0,-0.01084,0.1514,0.03174,242.0,0.0,7.0,5.0,0.0,0.0,0.0
1738831312068084001,236.6,0.04013,6.98,4.996,0.02353,0.000228,-0.01014,0.1509,-0.0613,235.4,0.05823,6.992,4.992,0.03125,-0.0,-0.01076,0.1509,0.03174,242.5,0.0,7.0,5.0,0.0,0.0,0.0
1738831312118077278,236.9,0.04138,6.98,4.996,0.0246,0.000652,-0.008766,0.1509,-0.0611,235.6,0.05823,6.992,4.99,0.03516,-0.0,-0.01059,0.1508,0.03174,242.5,0.0,7.0,5.0,0.0,0.0,0.0
1738831312168076992,237.1,0.04248,6.98,4.992,0.02498,0.000879,-0.007835,0.1509,-0.06094,235.9,0.05826,6.992,4.99,0.03516,-0.0,-0.00912,0.1506,0.03177,243.0,0.0,7.0,5.0,0.0,0.0,0.0
1738831312218093633,237.4,0.0438,6.98,4.992,0.02525,0.000725,-0.008194,0.1521,-0.06067,236.1,0.05826,6.992,4.99,0.03516,-0.0,-0.00834,0.1506,0.03174,243.0,0.0,7.0,5.0,0.0,0.0,0.0
1738831312268645048,237.6,0.045,6.98,4.992,0.02568,0.000656,-0.00861,0.1533,-0.06046,236.4,0.05826,6.992,4.984,0.03516,-0.0,-0.00874,0.1521,0.0318,243.5,0.0,7.0,5.0,0.0,0.0,0.0
1738831312318083524,237.9,0.04636,6.98,4.992,0.02603,0.000804,-0.007782,0.1543,-0.06018,236.6,0.0583,6.992,4.984,0.03516,-0.0,-0.00908,0.153,0.03177,243.5,0.0,7.0,5.0,0.0,0.0,0.0
1738831312368110179,238.1,0.0477,6.98,4.992,0.02591,0.000872,-0.0069,0.1549,-0.05997,237.0,0.0583,6.992,4.984,0.03516,-0.0,-0.007996,0.1542,0.0321,244.0,0.0,7.0,5.0,0.0,0.0,0.0
1738831312418073654,238.4,0.04895,6.98,4.992,0.02545,0.001261,-0.006275,0.1553,-0.0598,237.1,0.0583,6.992,4.984,0.03516,-0.0,-0.007534,0.1547,0.0324,244.0,0.0,7.0,5.0,0.0,0.0,0.0
1738831312468099594,238.6,0.05023,6.98,4.992,0.02467,0.001809,-0.005783,0.1556,-0.05966,237.4,0.05832,6.992,4.984,0.03516,-0.0,-0.006634,0.1552,0.03275,244.5,0.0,7.0,5.0,0.0,0.0,0.0
1738831312518072843,238.9,0.0514,6.98,4.992,0.02377,0.00199,-0.00549,0.1556,-0.05957,237.6,0.05832,6.992,4.984,0.03516,-0.0,-0.006264,0.1553,0.03302,244.5,0.0,7.0,5.0,0.0,0.0,0.0
1738831312568113088,239.1,0.0526,6.98,4.992,0.02269,0.001875,-0.005276,0.1558,-0.0595,238.0,0.05835,6.992,4.984,0.03125,-0.0,-0.00589,0.1555,0.03333,245.0,0.0,7.0,5.0,0.0,0.0,0.0
1738831312618087768,239.4,0.05368,6.98,4.992,0.02162,0.001866,-0.00515,0.1558,-0.05945,238.1,0.05835,6.992,4.984,0.03125,-0.0,-0.005703,0.1555,0.0335,245.0,0.0,7.0,5.0,0.0,0.0,0.0
1738831312668124437,239.6,0.0547,6.98,4.996,0.02051,0.001619,-0.005035,0.1556,-0.0594,238.4,0.05835,6.992,4.99,0.03125,-0.0,-0.0056,0.1555,0.0337,245.5,0.0,7.0,5.0,0.0,0.0,0.0
1738831312718090534,239.9,0.05573,6.98,4.996,0.0193,0.001249,-0.004944,0.1543,-0.05942,238.6,0.05838,6.992,4.99,0.03125,-0.0,-0.0055,0.1555,0.03387,245.5,0.0,7.0,5.0,0.0,0.0,0.0
1738831312768123388,240.1,0.0566,6.98,4.992,0.0182,0.001095,-0.004906,0.1531,-0.05942,239.0,0.05838,6.992,4.99,0.02734,-0.0,-0.005352,0.1537,0.03397,246.0,0.0,7.0,5.0,0.0,0.0,0.0
1738831312818088769,240.4,0.05753,6.98,4.992,0.01704,0.000696,-0.004894,0.1521,-0.05945,239.1,0.05838,6.996,4.99,0.02734,-0.0,-0.005363,0.1531,0.03397,246.0,0.0,7.0,5.0,0.0,0.0,0.0
1738831312868174552,240.6,0.05832,6.98,4.992,0.01599,0.000335,-0.00485,0.1516,-0.05945,239.4,0.0584,6.996,4.984,0.02734,-0.0,-0.00532,0.1517,0.03363,246.5,0.0,7.0,5.0,0.0,0.0,0.0
1738831312918133974,240.9,0.05914,6.98,4.99,0.01485,5.2e-05,-0.004852,0.1526,-0.0594,239.6,0.0584,6.996,4.984,0.02344,-0.0,-0.00526,0.1515,0.03336,246.5,0.0,7.0,5.0,0.0,0.0,0.0
1738831312968142986,241.1,0.0598,6.98,4.99,0.01379,-0.000363,-0.00487,0.1536,-0.05933,239.9,0.0584,6.996,4.984,0.02344,-0.0,-0.005264,0.1525,0.0331,247.0,0.0,7.0,5.0,0.0,0.0,0.0
1738831313018125534,241.4,0.0605,6.98,4.99,0.012634,-0.000667,-0.00487,0.1544,-0.05927,240.1,0.05844,6.996,4.98,0.02344,-0.0,-0.005344,0.1533,0.03302,247.0,0.0,7.0,5.0,0.0,0.0,0.0
1738831313068123102,241.6,0.0611,6.98,4.99,0.01156,-0.000721,-0.004883,0.155,-0.0592,240.4,0.05844,6.996,4.98,0.01953,-0.0,-0.005295,0.1543,0.03345,247.5,0.0,7.0,5.0,0.0,0.0,0.0
1738831313118107080,241.9,0.06165,6.98,4.99,0.01041,-0.000704,-0.00489,0.1554,-0.0592,240.6,0.05844,6.996,4.98,0.01953,-0.0,-0.00536,0.1548,0.0336,247.5,0.0,7.0,5.0,0.0,0.0,0.0
1738831313168111801,242.1,0.06216,6.98,4.99,0.009254,-0.000514,-0.004864,0.1558,-0.05917,240.9,0.05847,6.996,4.984,0.01953,-0.0,-0.00526,0.1553,0.0337,248.0,0.0,7.0,5.0,0.0,0.0,0.0
1738831313218093156,242.4,0.06256,6.98,4.992,0.00817,-0.000278,-0.00487,0.1572,-0.0592,241.1,0.05847,6.996,4.984,0.01953,-0.0,-0.00533,0.1555,0.03387,248.0,0.0,7.0,5.0,0.0,0.0,0.0
1738831313268121242,242.6,0.0629,6.98,4.992,0.007057,-0.000405,-0.00484,0.1583,-0.0592,241.4,0.0585,6.992,4.984,0.01563,-0.0,-0.00529,0.1572,0.03397,248.5,0.0,7.0,5.0,0.0,0.0,0.0
1738831313318076610,242.9,0.0633,6.98,4.992,0.00584,-0.000454,-0.004826,0.158,-0.05927,241.6,0.0585,6.996,4.984,0.01563,-0.0,-0.00528,0.1581,0.03397,248.5,0.0,7.0,5.0,0.0,0.0,0.0
1738831313368069648,243.1,0.06354,6.98,4.996,0.00464,-0.000566,-0.004803,0.1573,-0.0593,241.9,0.0585,6.996,4.99,0.01563,-0.0,-0.00519,0.1576,0.03406,249.0,0.0,7.0,5.0,0.0,0.0,0.0
1738831313418057203,243.4,0.0637,6.98,4.996,0.003569,-0.000427,-0.004826,0.1569,-0.05933,242.1,0.05853,6.996,4.99,0.01563,-0.0,-0.005203,0.1572,0.03397,249.0,0.0,7.0,5.0,0.0,0.0,0.0
1738831313468061685,243.6,0.0639,6.98,4.996,0.002522,-0.000329,-0.00484,0.1565,-0.0594,242.4,0.05853,6.996,4.992,0.01172,-0.0,-0.005207,0.1566,0.03406,249.5,0.0,7.0,5.0,0.0,0.0,0.0
1738831313518066644,243.9,0.06396,6.98,5.0,0.001414,-0.000281,-0.004856,0.1562,-0.05945,242.6,0.05853,6.996,4.992,0.01172,-0.0,-0.005207,0.1562,0.03415,249.5,0.0,7.0,5.0,0.0,0.0,0.0
1738831313568064928,244.1,0.064,6.98,5.0,0.000334,-0.000714,-0.004864,0.156,-0.0595,242.9,0.05856,6.996,4.992,0.01172,-0.0,-0.0053,0.156,0.03415,250.0,0.0,7.0,5.0,0.0,0.0,0.0
1738831313618057727,244.4,0.064,6.98,5.0,-0.000655,-0.000852,-0.004833,0.156,-0.05957,243.1,0.05856,6.996,4.992,0.01172,-0.0,-0.005302,0.1559,0.03415,250.0,0.0,7.0,5.0,0.0,0.0,0.0
1738831313668067216,244.6,0.06396,6.98,5.0,-0.001655,-0.000682,-0.00482,0.156,-0.05963,243.4,0.05856,6.996,4.992,0.007812,-0.0,-0.00521,0.1558,0.03424,250.5,0.0,7.0,5.0,0.0,0.0,0.0
1738831313718059062,244.9,0.06384,6.98,5.0,-0.00272,-0.000448,-0.00482,0.1559,-0.0597,243.6,0.0586,6.996,4.996,0.007812,-0.0,-0.00521,0.1558,0.03424,250.5,0.0,7.0,5.0,0.0,0.0,0.0
1738831313768080711,245.1,0.0637,6.98,5.0,-0.003702,-0.000181,-0.004814,0.1559,-0.0598,243.9,0.0586,6.992,4.996,0.007812,-0.0,-0.005203,0.1558,0.0343,251.0,0.0,7.0,5.0,0.0,0.0,0.0
1738831313818069458,245.4,0.0635,6.98,5.0,-0.004765,-4.5e-05,-0.004795,0.1559,-0.05988,244.1,0.0586,6.992,4.996,0.007812,-0.0,-0.005203,0.1558,0.0343,251.0,0.0,7.0,5.0,0.0,0.0,0.0
1738831313868078708,245.6,0.06323,6.98,5.0,-0.00573,0.000114,-0.004833,0.1559,-0.06,244.4,0.05862,6.992,4.996,0.003906,-0.0,-0.005116,0.1556,0.03433,251.5,0.0,7.0,5.0,0.0,0.0,0.0
1738831313918066501,245.9,0.0629,6.98,5.0,-0.006756,0.000155,-0.004868,0.1559,-0.0601,244.6,0.05862,6.992,4.996,0.003906,-0.0,-0.0052,0.1555,0.0344,251.5,0.0,7.0,5.0,0.0,0.0,0.0
1738831313968141317,246.1,0.06256,6.98,5.004,-0.00769,9.6e-05,-0.00486,0.1558,-0.06018,244.9,0.05865,6.992,4.996,0.003906,-0.0,-0.005283,0.1556,0.0344,252.0,0.0,7.0,5.0,0.0,0.0,0.0
1738831314018071889,246.4,0.06213,6.98,5.004,-0.00869,3.6e-05,-0.004856,0.1558,-0.0603,245.1,0.05865,6.992,4.996,0.003906,-0.0,-0.005283,0.1556,0.0344,252.0,0.0,7.0,5.0,0.0,0.0,0.0
1738831314068075180,246.6,0.0617,6.98,5.004,-0.00961,-0.000151,-0.00486,0.1558,-0.0604,245.4,0.05865,6.996,5.0,0.0,-0.0,-0.0052,0.1555,0.0344,252.5,0.0,7.0,5.0,0.0,0.0,0.0
1738831314118062019,246.9,0.06116,6.98,5.004,-0.01061,-0.000361,-0.00485,0.1558,-0.06052,245.6,0.0587,6.996,5.0,0.0,-0.0,-0.0052,0.1555,0.0344,252.5,0.0,7.0,5.0,0.0,0.0,0.0
1738831314168075084,247.1,0.06064,6.98,5.004,-0.01153,-0.000465,-0.00485,0.1558,-0.0606,245.9,0.0587,6.996,5.0,0.0,-0.0,-0.0052,0.1555,0.0344,253.0,0.0,7.0,5.0,0.0,0.0,0.0
1738831314218073606,247.4,0.06,6.98,5.004,-0.012505,-0.000462,-0.004883,0.1559,-0.0607,246.1,0.0587,6.996,5.0,0.0,-0.0,-0.005283,0.1556,0.0344,253.0,0.0,7.0,5.0,0.0,0.0,0.0
1738831314268073797,247.6,0.05933,6.98,5.004,-0.01342,-0.000555,-0.005116,0.1559,-0.06085,246.4,0.05872,6.996,5.0,0.0,-0.0,-0.005283,0.1556,0.0344,253.5,0.0,7.0,5.0,0.0,0.0,0.0
1738831314318077087,247.9,0.0587,6.98,5.004,-0.01392,-0.000738,-0.006367,0.1559,-0.06094,246.6,0.05872,6.996,5.0,0.0,-0.0,-0.00546,0.1556,0.0344,253.5,0.0,7.0,5.0,0.0,0.0,0.0
1738831314368080615,248.1,0.058,6.98,5.004,-0.013824,-0.000862,-0.007576,0.1559,-0.06107,246.9,0.05875,6.996,5.0,0.0,-0.0,-0.00702,0.1556,0.03436,254.0,0.0,7.0,5.0,0.0,0.0,0.0
1738831314418074369,248.4,0.0573,6.98,5.004,-0.013176,-0.001036,-0.00853,0.1559,-0.06122,247.1,0.05875,6.996,5.0,0.0,-0.0,-0.00788,0.1556,0.03436,254.0,0.0,7.0,5.0,0.0,0.0,0.0
1738831314468080043,248.6,0.05664,6.98,5.004,-0.01214,-0.001188,-0.00917,0.1559,-0.0613,247.4,0.05875,6.996,5.0,0.0,-0.0,-0.0091,0.1558,0.03427,254.5,0.0,7.0,5.0,0.0,0.0,0.0
1738831314518064737,248.9,0.0561,6.98,5.008,-0.01096,-0.001028,-0.00956,0.156,-0.06143,247.6,0.05878,6.996,5.0,0.0,-0.0,-0.009445,0.1558,0.03433,254.5,0.0,7.0,5.0,0.0,0.0,0.0
1738831314568078041,249.1,0.0556,6.98,5.008,-0.00967,-0.00081,-0.0098,0.156,-0.06155,247.9,0.05878,6.996,5.0,0.0,-0.0,-0.009964,0.1558,0.0343,255.0,0.0,7.0,5.0,0.0,0.0,0.0
1738831314618058443,249.4,0.05515,6.98,5.008,-0.00818,-0.000689,-0.00993,0.156,-0.06165,248.1,0.05878,6.996,5.0,0.0,-0.0,-0.01023,0.1558,0.03418,255.0,0.0,7.0,5.0,0.0,0.0,0.0
1738831314668063163,249.6,0.05475,6.98,5.008,-0.006668,-0.000765,-0.01002,0.156,-0.06174,248.4,0.0588,6.996,5.0,0.003906,-0.0,-0.01041,0.1558,0.03418,255.5,0.0,7.0,5.0,0.0,0.0,0.0
1738831314718053817,249.9,0.05447,6.98,5.008,-0.005245,-0.000864,-0.01011,0.156,-0.06183,248.6,0.0588,6.996,5.0,0.003906,-0.0,-0.010414,0.1559,0.0341,255.5,0.0,7.0,5.0,0.0,0.0,0.0
1738831314768049240,250.1,0.05426,6.98,5.008,-0.003826,-0.00075,-0.01015,0.156,-0.06195,248.9,0.05884,6.996,5.0,0.007812,-0.0,-0.010506,0.1558,0.0341,256.0,0.0,7.0,5.0,0.0,0.0,0.0
1738831314818052768,250.4,0.05408,6.98,5.008,-0.00228,-0.000408,-0.0102,0.156,-0.06204,249.1,0.05884,6.992,5.004,0.007812,-0.0,-0.010506,0.1558,0.0341,256.0,0.0,7.0,5.0,0.0,0.0,0.0
1738831314868061065,250.6,0.05402,6.98,5.008,-0.000863,-0.000436,-0.01024,0.156,-0.06213,249.4,0.05884,6.996,5.004,0.007812,-0.0,-0.01059,0.1559,0.03406,256.5,0.0,7.0,5.0,0.0,0.0,0.0
1738831314918066024,250.9,0.05402,6.98,5.01,0.000682,-0.000324,-0.01031,0.156,-0.06223,249.6,0.05887,6.992,5.004,0.007812,-0.0,-0.01059,0.1559,0.03406,256.5,0.0,7.0,5.0,0.0,0.0,0.0
1738831314968102455,251.1,0.05408,6.98,5.01,0.002085,-0.000111,-0.01019,0.156,-0.06232,249.9,0.05887,6.992,5.004,0.01172,-0.0,-0.01068,0.1558,0.03397,257.0,0.0,7.0,5.0,0.0,0.0,0.0
1738831315018088340,251.4,0.05423,6.98,5.01,0.003216,3.6e-05,-0.00888,0.1559,-0.0624,250.1,0.05887,6.992,5.004,0.01172,-0.0,-0.01068,0.1558,0.03397,257.0,0.0,7.0,5.0,0.0,0.0,0.0
1738831315068067550,251.6,0.05438,6.98,5.01,0.003658,-0.000191,-0.00772,0.1559,-0.0625,250.4,0.0589,6.996,5.004,0.01563,-0.0,-0.00903,0.1558,0.03403,257.5,0.0,7.0,5.0,0.0,0.0,0.0
1738831315118056297,251.9,0.05457,6.98,5.01,0.003588,-0.000361,-0.0068,0.1559,-0.0626,250.6,0.0589,6.996,5.004,0.01563,-0.0,-0.00826,0.1556,0.034,257.5,0.0,7.0,5.0,0.0,0.0,0.0
1738831315168055772,252.1,0.05475,6.98,5.01,0.003174,-0.000418,-0.006207,0.1559,-0.0627,250.9,0.05893,6.996,5.004,0.01563,-0.0,-0.007046,0.1556,0.034,258.0,0.0,7.0,5.0,0.0,0.0,0.0
1738831315218056440,252.4,0.0549,6.977,5.01,0.002457,-0.000323,-0.00579,0.1559,-0.0628,251.1,0.05893,6.996,5.004,0.01563,-0.0,-0.0067,0.1556,0.03403,258.0,0.0,7.0,5.0,0.0,0.0,0.0
1738831315268099784,252.6,0.055,6.977,5.01,0.001648,-0.000409,-0.005566,0.1558,-0.0629,251.4,0.05893,6.996,5.004,0.01172,-0.0,-0.006184,0.1556,0.03397,258.5,0.0,7.0,5.0,0.0,0.0,0.0
1738831315318105459,252.9,0.05505,6.977,5.01,0.000707,-0.000257,-0.005405,0.1544,-0.06305,251.6,0.05896,6.996,5.004,0.01172,-0.0,-0.005924,0.1555,0.034,258.5,0.0,7.0,5.0,0.0,0.0,0.0
1738831315368087291,253.0,0.05505,6.977,5.01,0.000114,8e-06,-0.005356,0.1536,-0.0631,251.9,0.05896,6.992,5.004,0.01172,-0.0,-0.005795,0.154,0.03375,259.0,0.0,7.0,5.0,0.0,0.0,0.0
1738831315418084144,253.4,0.05502,6.977,5.01,-0.001067,0.000242,-0.0053,0.1537,-0.0632,252.1,0.05896,6.992,5.004,0.01172,-0.0,-0.00574,0.1532,0.0335,259.0,0.0,7.0,5.0,0.0,0.0,0.0
1738831315468091249,253.6,0.05496,6.977,5.008,-0.001986,-3.5e-05,-0.005276,0.1542,-0.0632,252.4,0.059,6.996,5.004,0.007812,-0.0,-0.0056,0.1536,0.033,259.5,0.0,7.0,5.0,0.0,0.0,0.0
1738831315518088102,253.8,0.05487,6.977,5.008,-0.002815,-0.000281,-0.005276,0.1537,-0.0632,252.6,0.059,6.996,5.004,0.007812,-0.0,-0.005608,0.1539,0.0328,259.5,0.0,7.0,5.0,0.0,0.0,0.0
1738831315568105220,254.1,0.05463,6.977,5.008,-0.003956,-0.000164,-0.00531,0.1526,-0.06305,252.9,0.059,6.996,5.004,0.007812,-0.0,-0.005566,0.153,0.03247,260.0,0.0,7.0,5.0,0.0,0.0,0.0
1738831315618065595,254.4,0.0544,6.977,5.004,-0.004787,0.000192,-0.005318,0.1533,-0.0629,253.1,0.05902,6.992,5.0,0.007812,-0.0,-0.00567,0.1523,0.03238,260.0,0.0,7.0,5.0,0.0,0.0,0.0
1738831315668098211,254.6,0.05417,6.977,5.004,-0.005608,0.000427,-0.00535,0.154,-0.0628,253.4,0.05902,6.992,5.0,0.003906,-0.0,-0.005672,0.1532,0.0321,260.5,0.0,7.0,5.0,0.0,0.0,0.0
1738831315718072175,254.9,0.0539,6.977,5.004,-0.006435,0.000398,-0.00535,0.1547,-0.0626,253.6,0.05905,6.992,5.0,0.003906,-0.0,-0.005753,0.1538,0.0321,260.5,0.0,7.0,5.0,0.0,0.0,0.0
1738831315768094539,255.1,0.05353,6.977,5.004,-0.007286,0.000456,-0.00551,0.1552,-0.06247,253.9,0.05905,6.992,5.0,0.003906,-0.0,-0.005672,0.1547,0.03186,261.0,0.0,7.0,5.0,0.0,0.0,0.0
1738831315818078041,255.4,0.05316,6.98,5.004,-0.007748,0.000543,-0.006706,0.1554,-0.06232,254.1,0.05905,6.992,5.0,0.003906,-0.0,-0.00574,0.1549,0.032,261.0,0.0,7.0,5.0,0.0,0.0,0.0
1738831315868117332,255.6,0.05276,6.98,5.004,-0.00758,0.000625,-0.00799,0.1556,-0.06216,254.4,0.05908,6.992,5.0,0.0,-0.0,-0.00743,0.1553,0.0325,261.5,0.0,7.0,5.0,0.0,0.0,0.0
1738831315918084383,255.9,0.0524,6.98,5.004,-0.00693,0.000835,-0.00887,0.1558,-0.06204,254.6,0.05908,6.992,5.0,0.003906,-0.0,-0.00827,0.1554,0.03278,261.5,0.0,7.0,5.0,0.0,0.0,0.0
1738831315968111276,256.0,0.05206,6.98,5.004,-0.005833,0.001019,-0.00952,0.1558,-0.06198,254.9,0.0591,6.992,5.0,0.003906,-0.0,-0.00938,0.1555,0.03305,262.0,0.0,7.0,5.0,0.0,0.0,0.0
1738831316018085956,256.2,0.05182,6.98,5.004,-0.00458,0.000954,-0.00988,0.1545,-0.06192,255.1,0.0591,6.992,5.0,0.003906,-0.0,-0.00989,0.1555,0.03317,262.0,0.0,7.0,5.0,0.0,0.0,0.0
1738831316068103313,256.5,0.05164,6.98,5.004,-0.003046,0.0009,-0.01012,0.1532,-0.0619,255.4,0.0591,6.992,5.0,0.003906,-0.0,-0.010254,0.154,0.03323,262.5,0.0,7.0,5.0,0.0,0.0,0.0
1738831316118074417,256.8,0.0515,6.98,5.004,-0.001526,0.000569,-0.01023,0.1522,-0.06183,255.6,0.05914,6.996,5.0,0.007812,-0.0,-0.01046,0.153,0.03296,262.5,0.0,7.0,5.0,0.0,0.0,0.0
1738831316168097019,257.0,0.05148,6.98,5.004,0.000169,0.000453,-0.010284,0.1516,-0.06177,255.9,0.05914,6.992,4.996,0.007812,-0.0,-0.01059,0.1519,0.03268,263.0,0.0,7.0,5.0,0.0,0.0,0.0
1738831316218046188,257.2,0.05154,6.98,5.0,0.001751,0.000351,-0.0103,0.1512,-0.06165,256.0,0.05914,6.996,4.996,0.007812,-0.0,-0.0106,0.1515,0.03262,263.0,0.0,7.0,5.0,0.0,0.0,0.0
1738831316268110513,257.5,0.05167,6.98,5.0,0.003452,0.00027,-0.010216,0.151,-0.0615,256.5,0.05917,6.996,4.992,0.01172,-0.0,-0.01062,0.151,0.03244,263.5,0.0,7.0,5.0,0.0,0.0,0.0
1738831316318079710,257.8,0.05188,6.98,4.996,0.00471,2.6e-05,-0.00903,0.1509,-0.06137,256.5,0.05917,6.996,4.992,0.01172,-0.0,-0.01062,0.1508,0.03244,263.5,0.0,7.0,5.0,0.0,0.0,0.0
1738831316368095636,258.0,0.05212,6.98,4.996,0.005444,-0.000415,-0.007774,0.1508,-0.0612,257.0,0.0592,6.996,4.99,0.01172,-0.0,-0.00891,0.1506,0.03223,264.0,0.0,7.0,5.0,0.0,0.0,0.0
1738831316418038368,258.2,0.0524,6.98,4.992,0.00563,-0.000327,-0.006916,0.1508,-0.061,257.0,0.0592,6.996,4.99,0.01563,-0.0,-0.00822,0.1506,0.0323,264.0,0.0,7.0,5.0,0.0,0.0,0.0
1738831316468105792,258.5,0.05267,6.98,4.992,0.005486,-0.00022,-0.006332,0.1508,-0.06085,257.5,0.0592,6.996,4.984,0.01172,-0.0,-0.00709,0.1505,0.0323,264.5,0.0,7.0,5.0,0.0,0.0,0.0
1738831316518083333,258.8,0.05295,6.98,4.99,0.00506,0.000107,-0.005913,0.1521,-0.06064,257.5,0.05923,6.996,4.984,0.01172,-0.0,-0.006573,0.1506,0.03223,264.5,0.0,7.0,5.0,0.0,0.0,0.0
1738831316568098068,259.0,0.05316,6.98,4.99,0.004486,0.000195,-0.00566,0.1533,-0.0605,258.0,0.05923,6.996,4.984,0.01172,-0.0,-0.006207,0.1522,0.03217,265.0,0.0,7.0,5.0,0.0,0.0,0.0
1738831316618080854,259.2,0.05338,6.98,4.99,0.003729,0.000272,-0.005466,0.1543,-0.06024,258.0,0.05923,6.996,4.984,0.01172,-0.0,-0.006023,0.1531,0.0321,265.0,0.0,7.0,5.0,0.0,0.0,0.0
1738831316668102741,259.5,0.05356,6.98,4.99,0.0029,0.000376,-0.00534,0.1549,-0.06003,258.5,0.05927,6.992,4.98,0.01172,-0.0,-0.005806,0.1543,0.03244,265.5,0.0,7.0,5.0,0.0,0.0,0.0
1738831316718079805,259.8,0.05368,6.98,4.99,0.002092,0.000239,-0.005283,0.1553,-0.0599,258.5,0.05927,6.996,4.98,0.01172,-0.0,-0.00569,0.1547,0.0327,265.5,0.0,7.0,5.0,0.0,0.0,0.0
1738831316768102645,260.0,0.05377,6.98,4.99,0.001209,0.000152,-0.005245,0.1555,-0.05978,259.0,0.0593,6.996,4.984,0.007812,-0.0,-0.00557,0.1552,0.03308,266.0,0.0,7.0,5.0,0.0,0.0,0.0
1738831316818080425,260.2,0.0538,6.98,4.99,0.000368,0.0003,-0.005173,0.1556,-0.0597,259.0,0.0593,6.992,4.984,0.007812,-0.0,-0.005554,0.1553,0.03323,266.0,0.0,7.0,5.0,0.0,0.0,0.0
1738831316868105173,260.5,0.0538,6.98,4.992,-0.000556,0.000564,-0.005116,0.1558,-0.05966,259.5,0.0593,6.992,4.984,0.007812,-0.0,-0.00544,0.1555,0.0335,266.5,0.0,7.0,5.0,0.0,0.0,0.0
1738831316918095111,260.8,0.05374,6.98,4.992,-0.001428,0.000919,-0.005093,0.1559,-0.05963,259.5,0.05933,6.992,4.984,0.007812,-0.0,-0.00543,0.1555,0.0337,266.5,0.0,7.0,5.0,0.0,0.0,0.0
1738831316968108177,261.0,0.05365,6.98,4.992,-0.002367,0.001242,-0.00505,0.1559,-0.0596,260.0,0.05933,6.992,4.984,0.003906,-0.0,-0.005325,0.1556,0.03387,267.0,0.0,7.0,5.0,0.0,0.0,0.0
1738831317018154382,261.2,0.05353,6.98,4.992,-0.003237,0.001283,-0.00504,0.1559,-0.05963,260.0,0.05933,6.992,4.99,0.003906,-0.0,-0.005325,0.1556,0.03387,267.0,0.0,7.0,5.0,0.0,0.0,0.0
1738831317068139791,261.5,0.0533,6.98,4.992,-0.00418,0.001093,-0.00503,0.1558,-0.05963,260.5,0.05936,6.992,4.99,0.003906,-0.0,-0.00531,0.1556,0.03406,267.5,0.0,7.0,5.0,0.0,0.0,0.0
1738831317118148565,261.8,0.0531,6.98,4.992,-0.005028,0.000793,-0.005047,0.1558,-0.05966,260.8,0.05936,6.992,4.99,0.003906,-0.0,-0.005394,0.1555,0.03412,267.5,0.0,7.0,5.0,0.0,0.0,0.0
1738831317168120384,262.0,0.05283,6.98,4.992,-0.00594,0.000406,-0.00506,0.1558,-0.05972,261.0,0.0594,6.996,4.99,0.003906,-0.0,-0.005386,0.1555,0.0342,268.0,0.0,7.0,5.0,0.0,0.0,0.0
1738831317218148946,262.2,0.05252,6.98,4.996,-0.006775,0.000184,-0.005024,0.1558,-0.05978,261.0,0.0594,6.996,4.99,0.0,-0.0,-0.005386,0.1555,0.0342,268.0,0.0,7.0,5.0,0.0,0.0,0.0
1738831317268131256,262.5,0.05212,6.98,4.996,-0.00766,0.000102,-0.00515,0.1559,-0.05988,261.5,0.0594,6.996,4.99,0.0,-0.0,-0.00529,0.1556,0.0343,268.5,0.0,7.0,5.0,0.0,0.0,0.0
1738831317318142175,262.8,0.05176,6.98,4.996,-0.00816,6e-06,-0.006348,0.1559,-0.05994,261.8,0.05942,6.996,4.99,0.0,-0.0,-0.00546,0.1556,0.0344,268.5,0.0,7.0,5.0,0.0,0.0,0.0
1738831317368118047,263.0,0.05133,6.98,4.996,-0.00806,-0.000295,-0.007633,0.1559,-0.06003,262.0,0.05942,6.996,4.992,0.0,-0.0,-0.00702,0.1556,0.03436,269.0,0.0,7.0,5.0,0.0,0.0,0.0
1738831317418164014,263.2,0.05096,6.98,4.996,-0.00747,-0.000478,-0.008514,0.1559,-0.06012,262.0,0.05945,6.996,4.992,0.0,-0.0,-0.00788,0.1556,0.03436,269.0,0.0,7.0,5.0,0.0,0.0,0.0
1738831317468129873,263.5,0.0506,6.98,4.996,-0.00644,-0.000583,-0.00919,0.156,-0.0602,262.5,0.05945,6.996,4.992,0.0,-0.0,-0.00892,0.1558,0.03436,269.5,0.0,7.0,5.0,0.0,0.0,0.0
1738831317518140554,263.8,0.0503,6.98,4.996,-0.00526,-0.000601,-0.00959,0.156,-0.0603,262.5,0.05945,6.996,4.992,0.0,-0.0,-0.00944,0.1558,0.03442,269.5,0.0,7.0,5.0,0.0,0.0,0.0
1738831317568120479,264.0,0.05008,6.98,5.0,-0.003824,-0.000553,-0.00986,0.156,-0.06042,263.0,0.05948,6.996,4.992,0.003906,-0.0,-0.009964,0.1558,0.03436,270.0,0.0,7.0,5.0,0.0,0.0,0.0
1738831317618156194,264.2,0.04993,6.98,5.0,-0.002432,-0.000683,-0.01,0.156,-0.06052,263.0,0.05948,6.996,4.992,0.003906,-0.0,-0.01013,0.1558,0.03436,270.0,0.0,7.0,5.0,0.0,0.0,0.0
1738831317668116331,264.5,0.04984,6.98,5.0,-0.001006,-0.00063,-0.0101,0.156,-0.0606,263.5,0.0595,6.996,4.992,0.003906,-0.0,-0.01031,0.1558,0.03436,270.5,0.0,7.0,5.0,0.0,0.0,0.0
1738831317718140125,264.8,0.04984,6.98,5.0,0.000564,-0.000561,-0.010155,0.156,-0.0607,263.5,0.0595,6.996,4.992,0.007812,-0.0,-0.0104,0.1556,0.03433,270.5,0.0,7.0,5.0,0.0,0.0,0.0
1738831317768113613,265.0,0.0499,6.98,5.0,0.002007,-0.000625,-0.01019,0.1559,-0.06082,264.0,0.0595,6.996,4.996,0.007812,-0.0,-0.01049,0.1558,0.03424,271.0,0.0,7.0,5.0,0.0,0.0,0.0
1738831317818143844,265.2,0.05005,6.98,5.0,0.003567,-0.000794,-0.01024,0.1559,-0.06088,264.0,0.05954,6.996,4.996,0.007812,-0.0,-0.01049,0.1558,0.03424,271.0,0.0,7.0,5.0,0.0,0.0,0.0
1738831317868138790,265.5,0.05023,6.98,5.0,0.00497,-0.000968,-0.0101,0.1559,-0.06097,264.5,0.05954,6.996,4.996,0.01172,-0.0,-0.01058,0.1556,0.03424,271.5,0.0,7.0,5.0,0.0,0.0,0.0
1738831317918167352,265.8,0.05054,6.98,5.004,0.006104,-0.000768,-0.00879,0.1559,-0.06107,264.5,0.05957,6.996,4.996,0.01172,-0.0,-0.01032,0.1555,0.03427,271.5,0.0,7.0,5.0,0.0,0.0,0.0
1738831317968156814,266.0,0.05084,6.98,5.004,0.006546,-0.000718,-0.007637,0.1559,-0.06116,265.0,0.05957,6.996,4.996,0.01172,-0.0,-0.00876,0.1558,0.0342,272.0,0.0,7.0,5.0,0.0,0.0,0.0
1738831318018175125,266.2,0.05118,6.98,5.004,0.006477,-0.000878,-0.00671,0.1559,-0.06128,265.0,0.05957,6.996,4.996,0.01563,-0.0,-0.00798,0.1556,0.03427,272.0,0.0,7.0,5.0,0.0,0.0,0.0
1738831318068182706,266.5,0.05148,6.98,5.004,0.006054,-0.000905,-0.006126,0.1559,-0.0614,265.5,0.0596,6.996,4.996,0.01172,-0.0,-0.006767,0.1556,0.03427,272.5,0.0,7.0,5.0,0.0,0.0,0.0
1738831318118189334,266.8,0.0518,6.98,5.004,0.00535,-0.000824,-0.005722,0.1559,-0.0615,265.5,0.0596,6.996,4.996,0.01172,-0.0,-0.006416,0.1556,0.0343,272.5,0.0,7.0,5.0,0.0,0.0,0.0
1738831318168208599,267.0,0.05203,6.98,5.004,0.004482,-0.000747,-0.00552,0.1559,-0.06158,266.0,0.05963,6.996,4.996,0.01172,-0.0,-0.00599,0.1556,0.03424,273.0,0.0,7.0,5.0,0.0,0.0,0.0
1738831318218214035,267.2,0.05222,6.98,5.004,0.003622,-0.000546,-0.005413,0.1559,-0.0617,266.0,0.05963,6.996,4.996,0.01172,-0.0,-0.005814,0.1556,0.03427,273.0,0.0,7.0,5.0,0.0,0.0,0.0
1738831318268186092,267.5,0.05237,6.98,5.004,0.002712,-0.000406,-0.005325,0.1559,-0.0618,266.5,0.05963,6.996,5.0,0.01172,-0.0,-0.00564,0.1556,0.03427,273.5,0.0,7.0,5.0,0.0,0.0,0.0
1738831318318185567,267.8,0.0525,6.98,5.004,0.001704,-0.000348,-0.00529,0.1559,-0.06195,266.8,0.05966,6.996,5.0,0.007812,-0.0,-0.00555,0.1558,0.0343,273.5,0.0,7.0,5.0,0.0,0.0,0.0
1738831318368206262,268.0,0.05255,6.98,5.004,0.000684,-0.000451,-0.005287,0.1558,-0.06207,267.0,0.05966,6.996,5.0,0.007812,-0.0,-0.00555,0.1558,0.0343,274.0,0.0,7.0,5.0,0.0,0.0,0.0
1738831318418178796,268.2,0.05258,6.98,5.004,-0.000223,-0.00032,-0.005283,0.1544,-0.06216,267.0,0.05966,6.996,5.0,0.007812,-0.0,-0.00556,0.1555,0.0342,274.0,0.0,7.0,5.0,0.0,0.0,0.0
1738831318468160867,268.5,0.05252,6.98,5.004,-0.001087,-0.000101,-0.005306,0.1533,-0.0623,267.5,0.0597,6.996,5.0,0.003906,-0.0,-0.00551,0.1539,0.03412,274.5,0.0,7.0,5.0,0.0,0.0,0.0
1738831318518177986,268.8,0.05246,6.98,5.004,-0.00197,-0.000198,-0.005344,0.1523,-0.06235,267.8,0.0597,6.996,5.0,0.003906,-0.0,-0.005554,0.1531,0.0337,274.5,0.0,7.0,5.0,0.0,0.0,0.0
1738831318568161964,269.0,0.05234,6.977,5.004,-0.002806,-0.000521,-0.00535,0.1516,-0.06235,268.0,0.05972,6.996,4.996,0.003906,-0.0,-0.005604,0.1519,0.03333,275.0,0.0,7.0,5.0,0.0,0.0,0.0
1738831318618180036,269.2,0.0522,6.977,5.0,-0.003553,-0.000566,-0.005344,0.1512,-0.06232,268.0,0.05972,6.996,4.996,0.003906,-0.0,-0.005623,0.1515,0.03317,275.0,0.0,7.0,5.0,0.0,0.0,0.0
1738831318668160200,269.5,0.052,6.977,5.0,-0.004242,-0.000469,-0.005524,0.1511,-0.0623,268.5,0.05975,6.996,4.992,0.0,-0.0,-0.005566,0.1509,0.0329,275.5,0.0,7.0,5.0,0.0,0.0,0.0
1738831318718150377,269.8,0.05176,6.977,4.996,-0.004616,-0.000204,-0.00687,0.1523,-0.06226,268.5,0.05975,6.996,4.992,0.0,-0.0,-0.005745,0.1509,0.0328,275.5,0.0,7.0,5.0,0.0,0.0,0.0
1738831318768165111,270.0,0.05154,6.977,4.996,-0.004395,0.000106,-0.00803,0.1536,-0.06216,269.0,0.05975,6.992,4.992,0.0,-0.0,-0.00747,0.1525,0.0326,276.0,0.0,7.0,5.0,0.0,0.0,0.0
1738831318818166017,270.2,0.05133,6.977,4.996,-0.003641,0.000452,-0.00898,0.1545,-0.06204,269.0,0.05978,6.992,4.99,0.0,-0.0,-0.00825,0.1533,0.03244,276.0,0.0,7.0,5.0,0.0,0.0,0.0
1738831318868165731,270.5,0.05118,6.977,4.996,-0.002602,0.000494,-0.0096,0.155,-0.0619,269.5,0.05978,6.992,4.99,0.0,-0.0,-0.00937,0.1544,0.03226,276.5,0.0,7.0,5.0,0.0,0.0,0.0
1738831318918170452,270.8,0.0511,6.977,4.996,-0.001216,0.000341,-0.01005,0.1554,-0.06174,269.5,0.05978,6.992,4.99,0.003906,-0.0,-0.00995,0.1549,0.03247,276.5,0.0,7.0,5.0,0.0,0.0,0.0
1738831318968180656,271.0,0.05106,6.977,4.996,0.000202,0.00023,-0.01029,0.1556,-0.06165,270.0,0.0598,6.992,4.99,0.003906,-0.0,-0.01035,0.1553,0.03278,277.0,0.0,7.0,5.0,0.0,0.0,0.0
1738831319018167972,271.2,0.05112,6.98,4.996,0.001827,0.000176,-0.010445,0.1558,-0.06152,270.0,0.0598,6.996,4.99,0.003906,-0.0,-0.0106,0.1554,0.03296,277.0,0.0,7.0,5.0,0.0,0.0,0.0
1738831319068172693,271.5,0.05124,6.98,4.996,0.003363,0.000241,-0.01051,0.1559,-0.06146,270.5,0.05984,6.99,4.992,0.007812,-0.0,-0.01075,0.1555,0.0332,277.5,0.0,7.0,5.0,0.0,0.0,0.0
1738831319118169546,271.8,0.05145,6.98,5.0,0.005035,0.000431,-0.01055,0.1559,-0.06143,270.5,0.05984,6.99,4.992,0.007812,-0.0,-0.010826,0.1556,0.03326,277.5,0.0,7.0,5.0,0.0,0.0,0.0
1738831319168181657,272.0,0.05173,6.98,5.0,0.00656,0.000527,-0.010544,0.156,-0.0614,271.0,0.05988,6.99,4.992,0.01172,-0.0,-0.01073,0.1558,0.03345,278.0,0.0,7.0,5.0,0.0,0.0,0.0
1738831319218172311,272.2,0.05212,6.98,5.0,0.0082,0.000605,-0.01054,0.156,-0.0614,271.0,0.05988,6.99,4.992,0.01172,-0.0,-0.01072,0.1558,0.03354,278.0,0.0,7.0,5.0,0.0,0.0,0.0
1738831319268176078,272.5,0.05255,6.98,5.0,0.00967,0.000629,-0.0104,0.156,-0.0614,271.5,0.05988,6.99,4.992,0.01172,-0.0,-0.01071,0.1558,0.03363,278.5,0.0,7.0,5.0,0.0,0.0,0.0
1738831319318178892,272.8,0.05307,6.98,5.0,0.010864,0.000691,-0.00908,0.156,-0.06143,271.5,0.0599,6.99,4.992,0.01563,-0.0,-0.010704,0.1558,0.03372,278.5,0.0,7.0,5.0,0.0,0.0,0.0
1738831319368177890,273.0,0.05362,6.98,5.0,0.01135,0.000587,-0.0079,0.156,-0.06146,272.0,0.0599,6.99,4.992,0.01563,-0.0,-0.00897,0.1558,0.03375,279.0,0.0,7.0,5.0,0.0,0.0,0.0
1738831319418167829,273.2,0.0542,6.98,5.004,0.011345,0.000426,-0.00697,0.156,-0.0615,272.0,0.0599,6.99,4.996,0.01563,-0.0,-0.00819,0.1558,0.0338,279.0,0.0,7.0,5.0,0.0,0.0,0.0
1738831319468183040,273.5,0.05475,6.98,5.004,0.01097,0.000377,-0.006374,0.1558,-0.06152,272.5,0.05994,6.99,4.996,0.01563,-0.0,-0.007053,0.1556,0.0339,279.5,0.0,7.0,5.0,0.0,0.0,0.0
1738831319518175125,273.8,0.0553,6.98,5.004,0.01034,0.000668,-0.00593,0.1545,-0.06155,272.8,0.05994,6.99,4.996,0.01563,-0.0,-0.006535,0.1555,0.03397,279.5,0.0,7.0,5.0,0.0,0.0,0.0
1738831319568248033,274.0,0.0558,6.98,5.004,0.00963,0.000979,-0.0057,0.1533,-0.06165,273.0,0.05997,6.99,4.996,0.01563,-0.0,-0.006134,0.1538,0.0339,280.0,0.0,7.0,5.0,0.0,0.0,0.0
1738831319618167400,274.2,0.05627,6.98,5.0,0.0088,0.000982,-0.005543,0.1523,-0.06165,273.0,0.05997,6.99,4.996,0.01563,-0.0,-0.005905,0.1531,0.03366,280.0,0.0,7.0,5.0,0.0,0.0,0.0
1738831319668182611,274.5,0.05667,6.98,5.0,0.00802,0.00076,-0.005478,0.1517,-0.06165,273.5,0.06,6.992,4.992,0.01172,-0.0,-0.005775,0.1519,0.03333,280.5,0.0,7.0,5.0,0.0,0.0,0.0
1738831319718177080,274.8,0.05707,6.98,4.996,0.00716,0.000327,-0.00547,0.1527,-0.06158,273.5,0.06,6.992,4.992,0.01172,-0.0,-0.005707,0.1516,0.03314,280.5,0.0,7.0,5.0,0.0,0.0,0.0
1738831319768168210,275.0,0.05737,6.98,4.996,0.006344,0.000143,-0.005466,0.1537,-0.06152,273.8,0.06,6.992,4.992,0.01172,-0.0,-0.005714,0.152,0.033,281.0,0.0,7.0,5.0,0.0,0.0,0.0
1738831319818161964,275.2,0.05768,6.98,4.996,0.005447,0.00023,-0.005478,0.1545,-0.06143,274.0,0.06003,6.992,4.99,0.01172,-0.0,-0.00563,0.1534,0.03265,281.0,0.0,7.0,5.0,0.0,0.0,0.0
1738831319868160009,275.5,0.05792,6.98,4.996,0.004616,0.000227,-0.005455,0.155,-0.06134,274.5,0.06003,6.992,4.99,0.007812,-0.0,-0.00569,0.1545,0.0327,281.5,0.0,7.0,5.0,0.0,0.0,0.0
1738831319918171167,275.8,0.05814,6.98,4.996,0.003733,0.000389,-0.00545,0.154,-0.06125,274.5,0.06006,6.992,4.99,0.007812,-0.0,-0.00567,0.1547,0.033,281.5,0.0,7.0,5.0,0.0,0.0,0.0
1738831319968189477,276.0,0.05832,6.98,4.996,0.002958,0.000767,-0.005466,0.1532,-0.06116,274.8,0.06006,6.99,4.99,0.007812,-0.0,-0.00567,0.1543,0.03308,282.0,0.0,7.0,5.0,0.0,0.0,0.0
1738831320018169403,276.2,0.05844,6.98,4.996,0.002155,0.000847,-0.005478,0.1537,-0.0611,275.0,0.06006,6.992,4.99,0.007812,-0.0,-0.005703,0.153,0.0329,282.0,0.0,7.0,5.0,0.0,0.0,0.0
1738831320068171739,276.5,0.05853,6.98,4.996,0.001404,0.000554,-0.005486,0.1543,-0.06097,275.5,0.0601,6.992,4.99,0.003906,-0.0,-0.005714,0.1537,0.03262,282.5,0.0,7.0,5.0,0.0,0.0,0.0
1738831320118170976,276.8,0.05856,6.98,4.996,0.000601,0.000304,-0.005486,0.1549,-0.06085,275.5,0.0601,6.992,4.99,0.003906,-0.0,-0.005703,0.154,0.0327,282.5,0.0,7.0,5.0,0.0,0.0,0.0
1738831320168178081,277.0,0.0586,6.98,4.996,-0.000138,1.9e-05,-0.00549,0.1553,-0.0608,276.0,0.06012,6.992,4.99,0.003906,-0.0,-0.005665,0.1547,0.03308,283.0,0.0,7.0,5.0,0.0,0.0,0.0
1738831320218155145,277.2,0.05856,6.98,4.996,-0.000936,6.8e-05,-0.0055,0.1556,-0.06073,276.0,0.06012,6.992,4.99,0.003906,-0.0,-0.005642,0.155,0.03323,283.0,0.0,7.0,5.0,0.0,0.0,0.0
1738831320268179416,277.5,0.0585,6.98,4.996,-0.001631,-2.8e-05,-0.00565,0.1559,-0.06067,276.5,0.06012,6.992,4.99,0.003906,-0.0,-0.00562,0.1554,0.0335,283.5,0.0,7.0,5.0,0.0,0.0,0.0
1738831320318168878,277.8,0.0584,6.98,4.996,-0.002024,6.1e-05,-0.006935,0.156,-0.0607,276.5,0.06015,6.992,4.99,0.003906,-0.0,-0.005863,0.1555,0.03366,283.5,0.0,7.0,5.0,0.0,0.0,0.0
1738831320368182897,278.0,0.0583,6.98,4.996,-0.001805,1.9e-05,-0.00807,0.156,-0.06067,277.0,0.06015,6.992,4.99,0.0,-0.0,-0.007416,0.1556,0.03372,284.0,0.0,7.0,5.0,0.0,0.0,0.0
1738831320418178081,278.2,0.05823,6.98,4.996,-0.001043,-4e-05,-0.00898,0.1561,-0.0607,277.0,0.06018,6.992,4.99,0.003906,-0.0,-0.00819,0.1558,0.0338,284.0,0.0,7.0,5.0,0.0,0.0,0.0
1738831320468183517,278.5,0.0582,6.98,5.0,-8e-06,8.7e-05,-0.009575,0.1561,-0.06073,277.5,0.06018,6.99,4.992,0.003906,-0.0,-0.009384,0.1558,0.034,284.5,0.0,7.0,5.0,0.0,0.0,0.0
1738831320518168687,278.8,0.05823,6.98,5.0,0.001366,0.000354,-0.00999,0.1561,-0.06076,277.8,0.06018,6.99,4.992,0.003906,-0.0,-0.009735,0.1558,0.03397,284.5,0.0,7.0,5.0,0.0,0.0,0.0
1738831320568174123,279.0,0.05835,6.98,5.0,0.002762,0.000342,-0.01022,0.1561,-0.06082,278.0,0.0602,6.992,4.992,0.003906,-0.0,-0.01024,0.1558,0.0341,285.0,0.0,7.0,5.0,0.0,0.0,0.0
1738831320618171930,279.2,0.0585,6.98,5.0,0.004227,0.00033,-0.01037,0.156,-0.06088,278.0,0.0602,6.992,4.992,0.007812,-0.0,-0.010414,0.1559,0.0341,285.0,0.0,7.0,5.0,0.0,0.0,0.0
1738831320668183326,279.5,0.05878,6.98,5.0,0.00586,2.3e-05,-0.010475,0.156,-0.06097,278.5,0.06024,6.992,4.992,0.007812,-0.0,-0.010506,0.1558,0.0341,285.5,0.0,7.0,5.0,0.0,0.0,0.0
1738831320718164682,279.8,0.05908,6.98,5.0,0.00738,-0.000249,-0.01052,0.156,-0.06104,278.5,0.06024,6.992,4.992,0.01172,-0.0,-0.01068,0.1558,0.03406,285.5,0.0,7.0,5.0,0.0,0.0,0.0
1738831320768187999,280.0,0.05948,6.98,5.004,0.00887,-0.000402,-0.01043,0.156,-0.06107,279.0,0.06027,6.992,4.992,0.01172,-0.0,-0.01068,0.1558,0.03406,286.0,0.0,7.0,5.0,0.0,0.0,0.0
1738831320818170785,280.2,0.06003,6.98,5.004,0.01021,-0.000452,-0.00908,0.1559,-0.06116,279.0,0.06027,6.992,4.996,0.01172,-0.0,-0.01059,0.1556,0.03406,286.0,0.0,7.0,5.0,0.0,0.0,0.0
1738831320868184089,280.5,0.06052,6.98,5.004,0.010735,-0.000478,-0.00791,0.1558,-0.06122,279.5,0.06027,6.992,4.996,0.01563,-0.0,-0.00894,0.1558,0.03412,286.5,0.0,7.0,5.0,0.0,0.0,0.0
1738831320918160676,280.8,0.06104,6.98,5.004,0.01077,-0.000275,-0.007034,0.1547,-0.0613,279.5,0.0603,6.992,4.996,0.01563,-0.0,-0.00807,0.1555,0.03418,286.5,0.0,7.0,5.0,0.0,0.0,0.0
1738831320968182325,281.0,0.06158,6.98,5.004,0.01047,0.000424,-0.00639,0.1534,-0.06137,280.0,0.0603,6.99,4.996,0.01563,-0.0,-0.006977,0.1538,0.03418,287.0,0.0,7.0,5.0,0.0,0.0,0.0
1738831321018173217,281.2,0.06213,6.98,5.004,0.00992,0.000608,-0.005993,0.1538,-0.06146,280.0,0.06033,6.992,4.996,0.01563,-0.0,-0.006573,0.1532,0.03397,287.0,0.0,7.0,5.0,0.0,0.0,0.0
1738831321068129539,281.5,0.06256,6.98,5.0,0.00924,0.000374,-0.005775,0.1544,-0.06152,280.5,0.06033,6.992,4.992,0.01172,-0.0,-0.00608,0.1538,0.03348,287.5,0.0,7.0,5.0,0.0,0.0,0.0
1738831321118146657,281.8,0.06305,6.98,5.0,0.00841,0.000117,-0.005627,0.1549,-0.06146,280.5,0.06033,6.992,4.992,0.01172,-0.0,-0.005913,0.154,0.0333,287.5,0.0,7.0,5.0,0.0,0.0,0.0
1738831321168193578,282.0,0.0634,6.98,5.0,0.007595,-3.8e-05,-0.00556,0.1553,-0.0615,281.0,0.06036,6.992,4.992,0.01172,-0.0,-0.0058,0.1547,0.03357,288.0,0.0,7.0,5.0,0.0,0.0,0.0
1738831321218162536,282.2,0.0638,6.98,5.0,0.006687,-0.000192,-0.005535,0.1555,-0.0615,281.0,0.06036,6.992,4.992,0.01172,-0.0,-0.0057,0.1549,0.03366,288.0,0.0,7.0,5.0,0.0,0.0,0.0
1738831321268133401,282.5,0.0641,6.98,5.0,0.005844,-7.8e-05,-0.005535,0.1558,-0.06152,281.5,0.0604,6.992,4.992,0.007812,-0.0,-0.00568,0.1553,0.03384,288.5,0.0,7.0,5.0,0.0,0.0,0.0
1738831321318161249,282.8,0.06433,6.98,5.004,0.005005,-1.6e-05,-0.005512,0.1559,-0.06152,281.5,0.0604,6.992,4.996,0.007812,-0.0,-0.005676,0.1555,0.03384,288.5,0.0,7.0,5.0,0.0,0.0,0.0
1738831321368165731,283.0,0.0646,6.98,5.004,0.004093,-7e-06,-0.005524,0.1559,-0.0616,281.8,0.0604,6.992,4.996,0.007812,-0.0,-0.005676,0.1555,0.03384,289.0,0.0,7.0,5.0,0.0,0.0,0.0
1738831321418176174,283.2,0.06476,6.98,5.004,0.003183,8e-06,-0.005505,0.1559,-0.06168,282.0,0.06042,6.992,4.996,0.007812,-0.0,-0.00566,0.1556,0.03403,289.0,0.0,7.0,5.0,0.0,0.0,0.0
1738831321468178749,283.5,0.06494,6.98,5.004,0.00235,-3e-06,-0.005493,0.1559,-0.06174,282.5,0.06042,6.992,4.996,0.007812,-0.0,-0.00566,0.1556,0.03403,289.5,0.0,7.0,5.0,0.0,0.0,0.0
1738831321518172264,283.8,0.065,6.98,5.004,0.001512,-6.6e-05,-0.005497,0.1559,-0.0618,282.8,0.06046,6.992,4.996,0.003906,-0.0,-0.005653,0.1556,0.03412,289.5,0.0,7.0,5.0,0.0,0.0,0.0
1738831321568196296,284.0,0.06506,6.98,5.004,0.000614,-1.1e-05,-0.005478,0.1559,-0.0619,282.8,0.06046,6.992,4.996,0.003906,-0.0,-0.005653,0.1556,0.03412,290.0,0.0,7.0,5.0,0.0,0.0,0.0
1738831321618176460,284.2,0.06506,6.98,5.004,-0.000286,0.000108,-0.005486,0.156,-0.06198,283.0,0.0605,6.99,4.996,0.003906,-0.0,-0.005646,0.1556,0.03418,290.0,0.0,7.0,5.0,0.0,0.0,0.0
1738831321668181180,284.5,0.06506,6.98,5.004,-0.001112,1.7e-05,-0.005478,0.1559,-0.06204,283.5,0.0605,6.992,4.996,0.003906,-0.0,-0.005558,0.1558,0.0342,290.5,0.0,7.0,5.0,0.0,0.0,0.0
1738831321718190193,284.8,0.06494,6.98,5.004,-0.00191,7.7e-05,-0.005497,0.1547,-0.06216,283.5,0.0605,6.992,4.996,0.003906,-0.0,-0.00556,0.1555,0.0342,290.5,0.0,7.0,5.0,0.0,0.0,0.0
1738831321768172502,285.0,0.0648,6.98,5.004,-0.002726,0.000214,-0.005512,0.1534,-0.0623,283.8,0.06052,6.992,4.996,0.0,-0.0,-0.005657,0.1549,0.0342,291.0,0.0,7.0,5.0,0.0,0.0,0.0
1738831321818164587,285.2,0.0647,6.98,5.004,-0.00349,0.00043,-0.00553,0.1525,-0.06235,284.0,0.06052,6.992,4.996,0.0,-0.0,-0.005627,0.1532,0.03384,291.0,0.0,7.0,5.0,0.0,0.0,0.0
1738831321868168592,285.5,0.0645,6.98,5.0,-0.004128,0.000462,-0.00571,0.1519,-0.06238,284.5,0.06055,6.992,4.996,0.0,-0.0,-0.005592,0.152,0.03342,291.5,0.0,7.0,5.0,0.0,0.0,0.0
1738831321918168783,285.8,0.0643,6.98,5.0,-0.004417,0.00027,-0.00693,0.1515,-0.06238,284.5,0.06055,6.992,4.992,0.0,-0.0,-0.005795,0.1515,0.03314,291.5,0.0,7.0,5.0,0.0,0.0,0.0
1738831321968318700,286.0,0.0641,6.98,5.0,-0.00406,-9.6e-05,-0.00823,0.1512,-0.06232,285.0,0.06058,6.992,4.992,0.0,-0.0,-0.007557,0.151,0.03284,292.0,0.0,7.0,5.0,0.0,0.0,0.0
1738831322018177986,286.2,0.0639,6.98,4.996,-0.003235,-0.000335,-0.00912,0.1523,-0.06226,285.0,0.06058,6.992,4.99,0.0,-0.0,-0.00835,0.1509,0.03278,292.0,0.0,7.0,5.0,0.0,0.0,0.0
1738831322068183660,286.5,0.0637,6.98,4.996,-0.001995,-0.000724,-0.009766,0.1537,-0.06213,285.5,0.06058,6.992,4.99,0.0,-0.0,-0.00946,0.1525,0.03262,292.5,0.0,7.0,5.0,0.0,0.0,0.0
1738831322118175029,286.8,0.06366,6.98,4.996,-0.000639,-0.001006,-0.01018,0.1544,-0.062,285.5,0.0606,6.992,4.99,0.0,-0.0,-0.009796,0.1533,0.0325,292.5,0.0,7.0,5.0,0.0,0.0,0.0
1738831322168212890,287.0,0.0637,6.98,4.996,0.000968,-0.000989,-0.01046,0.1552,-0.0619,285.8,0.0606,6.992,4.99,0.0,-0.0,-0.01015,0.1538,0.03238,293.0,0.0,7.0,5.0,0.0,0.0,0.0
1738831322218183517,287.2,0.0638,6.98,4.996,0.002531,-0.000815,-0.0106,0.1556,-0.06174,286.0,0.06064,6.992,4.99,0.003906,-0.0,-0.01055,0.1548,0.0325,293.0,0.0,7.0,5.0,0.0,0.0,0.0
1738831322268176078,287.5,0.0639,6.98,4.996,0.003733,-0.000629,-0.01067,0.1559,-0.06168,286.5,0.06064,6.992,4.99,0.003906,-0.0,-0.01077,0.1554,0.03293,293.5,0.0,7.0,5.0,0.0,0.0,0.0
1738831322318162441,287.8,0.0642,6.98,4.996,0.00589,-0.000538,-0.01078,0.156,-0.06155,286.5,0.06064,6.992,4.99,0.007812,-0.0,-0.010765,0.1555,0.03293,293.5,0.0,7.0,5.0,0.0,0.0,0.0
1738831322368163824,288.0,0.0646,6.98,5.0,0.007645,-0.000335,-0.01079,0.1561,-0.06146,286.8,0.06067,6.992,4.99,0.007812,-0.0,-0.01084,0.1556,0.0331,294.0,0.0,7.0,5.0,0.0,0.0,0.0
1738831322418153285,288.2,0.06494,6.98,5.0,0.009254,-0.00016,-0.0108,0.1561,-0.0614,287.0,0.06067,6.992,4.99,0.007812,-0.0,-0.01091,0.1558,0.03336,294.0,0.0,7.0,5.0,0.0,0.0,0.0
1738831322468160152,288.5,0.0655,6.98,5.0,0.010994,-0.000321,-0.01078,0.1561,-0.06134,287.5,0.0607,6.992,4.99,0.01172,-0.0,-0.01098,0.1559,0.0335,294.5,0.0,7.0,5.0,0.0,0.0,0.0
1738831322518156051,288.8,0.06604,6.98,5.0,0.01256,-0.000177,-0.01076,0.1561,-0.06137,287.5,0.0607,6.992,4.99,0.01172,-0.0,-0.010895,0.1558,0.03354,294.5,0.0,7.0,5.0,0.0,0.0,0.0
1738831322568190574,289.0,0.0668,6.98,5.0,0.01419,0.000245,-0.010605,0.1562,-0.0614,287.8,0.0607,6.99,4.992,0.01563,-0.0,-0.01089,0.1558,0.0336,295.0,0.0,7.0,5.0,0.0,0.0,0.0
1738831322618169307,289.2,0.06744,6.98,5.004,0.01536,0.000662,-0.00938,0.1562,-0.0614,288.0,0.06073,6.99,4.992,0.01563,-0.0,-0.010704,0.1559,0.03372,295.0,0.0,7.0,5.0,0.0,0.0,0.0
1738831322668327331,289.5,0.0683,6.98,5.004,0.01595,0.000961,-0.00809,0.1562,-0.06143,288.5,0.06076,6.99,4.992,0.01563,-0.0,-0.00905,0.156,0.03384,295.5,0.0,7.0,5.0,0.0,0.0,0.0
1738831322718166589,289.8,0.06903,6.98,5.004,0.01598,0.00111,-0.007225,0.1562,-0.06143,288.5,0.06076,6.99,4.992,0.01563,-0.0,-0.00827,0.1559,0.0338,295.5,0.0,7.0,5.0,0.0,0.0,0.0
1738831322768162965,290.0,0.0699,6.98,5.004,0.01564,0.000981,-0.006584,0.1562,-0.0615,288.8,0.06076,6.99,4.992,0.01953,-0.0,-0.00757,0.1559,0.03397,296.0,0.0,7.0,5.0,0.0,0.0,0.0
1738831322818156957,290.2,0.0706,6.98,5.004,0.01507,0.000847,-0.00621,0.1573,-0.06152,289.0,0.0608,6.99,4.992,0.01563,-0.0,-0.006695,0.1559,0.03403,296.0,0.0,7.0,5.0,0.0,0.0,0.0
1738831322868154287,290.5,0.07135,6.98,5.008,0.01425,0.000459,-0.005924,0.1586,-0.06158,289.5,0.0608,6.99,4.996,0.01563,-0.0,-0.00624,0.1575,0.03397,296.5,0.0,7.0,5.0,0.0,0.0,0.0
1738831322918145895,290.8,0.072,6.98,5.008,0.01337,0.00037,-0.00576,0.1582,-0.06165,289.5,0.06082,6.99,4.996,0.01563,-0.0,-0.006054,0.1582,0.034,296.5,0.0,7.0,5.0,0.0,0.0,0.0
1738831322968144416,291.0,0.0727,6.98,5.008,0.01238,0.00056,-0.00567,0.1576,-0.06168,289.8,0.06082,6.99,4.996,0.01563,-0.0,-0.00588,0.1582,0.034,297.0,0.0,7.0,5.0,0.0,0.0,0.0
1738831323018073081,291.2,0.0733,6.98,5.01,0.01147,0.000566,-0.005592,0.1572,-0.06174,290.0,0.06085,6.99,5.0,0.01563,-0.0,-0.00572,0.1573,0.03403,297.0,0.0,7.0,5.0,0.0,0.0,0.0
1738831323068064689,291.5,0.07385,6.98,5.01,0.01047,0.00062,-0.005566,0.1566,-0.0618,290.5,0.06085,6.99,5.0,0.01172,-0.0,-0.005642,0.1567,0.03403,297.5,0.0,7.0,5.0,0.0,0.0,0.0
1738831323118056535,291.8,0.07434,6.98,5.01,0.00957,0.000685,-0.005547,0.1552,-0.06186,290.5,0.06085,6.99,5.0,0.01172,-0.0,-0.00565,0.1561,0.03403,297.5,0.0,7.0,5.0,0.0,0.0,0.0
1738831323168063640,292.0,0.0748,6.98,5.01,0.00865,0.000751,-0.005554,0.1536,-0.06192,290.8,0.06088,6.99,5.0,0.01172,-0.0,-0.00566,0.1555,0.03403,298.0,0.0,7.0,5.0,0.0,0.0,0.0
1738831323218065738,292.2,0.0752,6.98,5.008,0.00785,0.000719,-0.005573,0.1526,-0.06198,291.0,0.06088,6.992,5.0,0.01172,-0.0,-0.005703,0.1534,0.03394,298.0,0.0,7.0,5.0,0.0,0.0,0.0
1738831323268265008,292.5,0.07556,6.98,5.008,0.00703,0.000772,-0.005585,0.152,-0.062,291.5,0.0609,6.992,5.0,0.007812,-0.0,-0.00568,0.1521,0.03342,298.5,0.0,7.0,5.0,0.0,0.0,0.0
1738831323318166255,292.8,0.0759,6.98,5.008,0.006294,0.000627,-0.005608,0.1515,-0.06198,291.5,0.0609,6.992,4.996,0.007812,-0.0,-0.0057,0.1516,0.03323,298.5,0.0,7.0,5.0,0.0,0.0,0.0
1738831323368153333,292.8,0.0759,6.98,5.008,0.00618,0.000593,-0.005608,0.1515,-0.06198,291.8,0.0609,6.992,4.996,0.007812,-0.0,-0.005714,0.1512,0.03314,299.0,0.0,7.0,5.0,0.0,0.0,0.0
1738831323418119430,293.2,0.0764,6.98,5.004,0.0049,0.000679,-0.00564,0.1523,-0.0619,292.0,0.06094,6.992,4.996,0.007812,-0.0,-0.00574,0.151,0.0328,299.0,0.0,7.0,5.0,0.0,0.0,0.0
1738831323468127965,293.5,0.07666,6.98,5.0,0.004063,0.000274,-0.00565,0.1536,-0.06177,292.2,0.06094,6.992,4.992,0.007812,-0.0,-0.005737,0.1517,0.0327,299.5,0.0,7.0,5.0,0.0,0.0,0.0
1738831323518139362,293.8,0.07684,6.98,5.0,0.003365,0.000492,-0.005703,0.1532,-0.06165,292.5,0.08746,6.992,4.992,0.003906,-0.0,-0.005814,0.1532,0.03253,299.5,0.0,7.0,5.0,0.0,0.0,0.0
1738831323568091392,294.0,0.077,6.98,5.0,0.002674,0.000838,-0.005737,0.1526,-0.06152,292.8,0.08746,6.992,4.992,0.003906,-0.0,-0.005733,0.1532,0.03247,300.0,0.0,7.0,5.0,0.0,0.0,0.0
1738831323618090391,294.2,0.07715,6.98,5.0,0.00207,0.000966,-0.005753,0.152,-0.06134,293.0,0.0875,6.992,4.992,0.003906,-0.0,-0.005856,0.1522,0.0322,300.0,0.0,7.0,5.0,0.0,0.0,0.0
1738831323668174743,294.5,0.0772,6.98,4.996,0.001511,0.000957,-0.005764,0.1516,-0.0612,293.5,0.0875,6.992,4.99,0.003906,-0.0,-0.005867,0.1515,0.0322,300.5,0.0,7.0,5.0,0.0,0.0,0.0
