time,x_sphinx,y_sphinx,z_sphinx,vx_sphinx,vy_sphinx,vz_sphinx,roll_sphinx,pitch_sphinx,yaw_sphinx,x_anafi,y_anafi,z_anafi,vx_anafi,vy_anafi,vz_anafi,roll_anafi,pitch_anafi,yaw_anafi,wp_x,wp_y,wp_z,wp_vx,wp_vy,wp_vz,wp_yaw
1738841587927173376,125.94,0.0653,6.977,4.027,-0.01191,-0.001078,-0.0114,0.1299,-0.11694,124.94,0.081,7.0,4.01,0.003906,-0.0,-0.01144,0.1298,-0.0375,130.4,0.0,7.0,4.0,0.0,0.0,0.0
1738841587977100610,126.2,0.0645,6.977,4.035,-0.0128,-0.001042,-0.01033,0.1257,-0.11694,125.2,0.081,7.0,4.023,0.003906,-0.0,-0.01169,0.1295,-0.03754,130.4,0.0,7.0,4.0,0.0,0.0,0.0
1738841588027156829,126.4,0.06384,6.977,4.04,-0.013824,0.000375,-0.00938,0.1213,-0.117,125.3,0.081,6.996,4.027,0.003906,-0.0,-0.01095,0.1267,-0.03754,130.8,0.0,7.0,4.0,0.0,0.0,0.0
1738841588077096700,126.5,0.06335,6.977,4.04,-0.01399,0.000817,-0.009346,0.1185,-0.117,125.56,0.081,6.996,4.035,0.003906,-0.0,-0.00953,0.1209,-0.03732,130.8,0.0,7.0,4.0,0.0,0.0,0.0
1738841588127180099,126.75,0.06256,6.977,4.043,-0.01509,0.001506,-0.01007,0.1149,-0.117,125.7,0.081,6.996,4.035,0.003906,-0.0,-0.00964,0.11835,-0.03723,131.2,0.0,7.0,4.0,0.0,0.0,0.0
1738841588177102804,127.0,0.0616,6.977,4.04,-0.015434,0.001742,-0.009476,0.1111,-0.1171,126.0,0.081,6.996,4.035,0.0,-0.0,-0.010414,0.11334,-0.03726,131.2,0.0,7.0,4.0,0.0,0.0,0.0
1738841588227162837,127.1,0.06107,6.977,4.035,-0.01599,0.001778,-0.00881,0.10956,-0.1171,126.1,0.081,6.996,4.035,0.0,-0.0,-0.01003,0.11127,-0.0373,131.6,0.0,7.0,4.0,0.0,0.0,0.0
1738841588277083873,127.2,0.0606,6.977,4.035,-0.01617,0.001622,-0.00867,0.1092,-0.1171,126.4,0.081,7.0,4.03,0.0,-0.0,-0.00895,0.1092,-0.03723,131.6,0.0,7.0,4.0,0.0,0.0,0.0
1738841588327144384,127.44,0.05957,6.977,4.03,-0.01665,0.001329,-0.00946,0.1082,-0.1172,126.5,0.05447,7.0,4.027,0.0,-0.0,-0.0092,0.1086,-0.03723,132.0,0.0,7.0,4.0,0.0,0.0,0.0
1738841588377120018,127.6,0.0589,6.977,4.027,-0.01663,0.001511,-0.01025,0.1079,-0.1172,126.75,0.0545,6.996,4.023,0.0,-0.0,-0.0103,0.1078,-0.03714,132.0,0.0,7.0,4.0,0.0,0.0,0.0
1738841588427173614,128.0,0.0576,6.977,4.023,-0.01605,0.001442,-0.01104,0.10767,-0.1174,126.94,0.0545,7.0,4.02,0.0,-0.0,-0.01082,0.1076,-0.03708,132.4,0.0,7.0,4.0,0.0,0.0,0.0
1738841588477082014,128.0,0.05713,6.977,4.023,-0.01585,0.001431,-0.011154,0.1076,-0.1174,127.2,0.0545,7.0,4.016,0.0,-0.0,-0.0115,0.1074,-0.03693,132.4,0.0,7.0,4.0,0.0,0.0,0.0
1738841588527172803,128.4,0.05615,6.977,4.016,-0.01479,0.001383,-0.011475,0.10754,-0.1175,127.3,0.0545,7.0,4.016,0.0,-0.0,-0.01158,0.1073,-0.03693,132.8,0.0,7.0,4.0,0.0,0.0,0.0
1738841588577131748,128.5,0.0557,6.977,4.016,-0.01449,0.001448,-0.01159,0.10754,-0.11755,127.56,0.0545,7.0,4.008,0.0,-0.0,-0.01192,0.1073,-0.03677,132.8,0.0,7.0,4.0,0.0,0.0,0.0
1738841588627184152,128.8,0.0548,6.977,4.008,-0.01325,0.001841,-0.011696,0.10754,-0.11774,127.75,0.0545,6.996,4.008,0.0,-0.0,-0.01192,0.1073,-0.03677,133.2,0.0,7.0,4.0,0.0,0.0,0.0
1738841588677135467,128.9,0.0544,6.977,4.008,-0.01272,0.001898,-0.01173,0.10754,-0.1178,128.0,0.05453,6.996,4.004,0.003906,-0.0,-0.01209,0.1073,-0.03677,133.2,0.0,7.0,4.0,0.0,0.0,0.0
1738841588727183103,129.1,0.05347,6.977,4.004,-0.01145,0.002098,-0.0118,0.1075,-0.118,128.1,0.05453,6.996,4.0,0.0,-0.0,-0.01209,0.1073,-0.03677,133.6,0.0,7.0,4.0,0.0,0.0,0.0
1738841588777144908,129.2,0.05325,6.977,4.0,-0.01111,0.002014,-0.01183,0.1075,-0.11804,128.4,0.05453,7.0,3.996,0.003906,-0.0,-0.01218,0.10724,-0.0367,133.6,0.0,7.0,4.0,0.0,0.0,0.0
1738841588827135562,129.6,0.05237,6.98,3.996,-0.00969,0.001211,-0.01188,0.10736,-0.1183,128.5,0.05453,7.0,3.992,0.003906,-0.0,-0.01217,0.10724,-0.03662,134.0,0.0,7.0,4.0,0.0,0.0,0.0
1738841588877094030,129.6,0.0523,6.98,3.994,-0.00955,0.00097,-0.01189,0.10736,-0.11835,128.8,0.05453,7.0,3.988,0.003906,-0.0,-0.01225,0.1071,-0.03662,134.0,0.0,7.0,4.0,0.0,0.0,0.0
1738841588927130699,130.0,0.05154,6.98,3.99,-0.00807,0.00035,-0.011925,0.10736,-0.11865,128.9,0.05453,7.0,3.988,0.003906,-0.0,-0.01225,0.1071,-0.03662,134.4,0.0,7.0,4.0,0.0,0.0,0.0
1738841588977097749,130.0,0.05136,6.98,3.99,-0.00794,0.000315,-0.011925,0.10736,-0.11865,129.2,0.05457,7.0,3.984,0.003906,-0.0,-0.01225,0.1071,-0.03662,134.4,0.0,7.0,4.0,0.0,0.0,0.0
1738841589027153968,130.4,0.05078,6.98,3.984,-0.006382,0.000293,-0.011955,0.10754,-0.1189,129.4,0.05457,7.0,3.98,0.007812,-0.0,-0.01225,0.1071,-0.03662,134.8,0.0,7.0,4.0,0.0,0.0,0.0
1738841589077085018,130.4,0.05072,6.98,3.984,-0.006252,0.000293,-0.011955,0.1077,-0.11896,129.6,0.05457,7.0,3.977,0.007812,-0.0,-0.012344,0.1074,-0.03662,134.8,0.0,7.0,4.0,0.0,0.0,0.0
1738841589127124071,130.6,0.05038,6.98,3.98,-0.005226,0.000361,-0.011955,0.10925,-0.11914,129.8,0.05457,7.0,3.977,0.007812,-0.0,-0.012276,0.10803,-0.0367,135.2,0.0,7.0,4.0,0.0,0.0,0.0
1738841589177105188,130.9,0.05002,6.98,3.979,-0.004646,0.000265,-0.01196,0.1108,-0.1194,130.0,0.05457,7.0,3.973,0.007812,-0.0,-0.012314,0.1099,-0.0368,135.2,0.0,7.0,4.0,0.0,0.0,0.0
1738841589227159976,131.1,0.04977,6.98,3.979,-0.003895,0.000323,-0.01195,0.11163,-0.11957,130.1,0.05457,7.0,3.973,0.007812,-0.0,-0.01233,0.1106,-0.03683,135.6,0.0,7.0,4.0,0.0,0.0,0.0
1738841589277101516,131.4,0.0496,6.98,3.977,-0.003414,0.000232,-0.01196,0.11206,-0.11975,130.4,0.05457,7.0,3.973,0.007812,-0.0,-0.01227,0.1116,-0.037,135.6,0.0,7.0,4.0,0.0,0.0,0.0
1738841589327149868,131.5,0.04947,6.98,3.977,-0.003168,9.8e-05,-0.011986,0.11224,-0.1198,130.5,0.0546,7.0,3.969,0.007812,-0.0,-0.012276,0.1117,-0.03708,136.0,0.0,7.0,4.0,0.0,0.0,0.0
1738841589377066850,131.8,0.04932,6.98,3.977,-0.002544,-0.000135,-0.01314,0.1147,-0.12,130.8,0.0546,7.0,3.969,0.007812,-0.0,-0.01238,0.1121,-0.03726,136.0,0.0,7.0,4.0,0.0,0.0,0.0
1738841589427101850,131.9,0.04922,6.98,3.979,-0.001436,-0.000754,-0.01432,0.1172,-0.12006,131.0,0.0546,7.0,3.969,0.01172,-0.0,-0.01329,0.114,-0.03732,136.4,0.0,7.0,4.0,0.0,0.0,0.0
1738841589477073669,132.1,0.0492,6.98,3.98,-0.000213,-0.001106,-0.015274,0.1209,-0.1201,131.2,0.0546,7.0,3.973,0.01172,-0.0,-0.015015,0.11774,-0.03763,136.4,0.0,7.0,4.0,0.0,0.0,0.0
1738841589527111768,132.4,0.04922,6.98,3.986,0.001465,-0.001519,-0.016,0.1229,-0.1202,131.4,0.0546,7.0,3.973,0.01172,-0.0,-0.01548,0.1195,-0.0376,136.8,0.0,7.0,4.0,0.0,0.0,0.0
1738841589576967000,132.6,0.04938,6.977,3.992,0.003723,-0.001765,-0.01659,0.1254,-0.1203,131.6,0.0546,7.0,3.98,0.01563,-0.0,-0.0164,0.1233,-0.0374,136.8,0.0,7.0,4.0,0.0,0.0,0.0
1738841589627008914,132.6,0.04947,6.977,3.994,0.004456,-0.001765,-0.01671,0.126,-0.12036,131.8,0.05463,7.0,3.984,0.01953,-0.0,-0.01686,0.1248,-0.0373,137.2,0.0,7.0,4.0,0.0,0.0,0.0
1738841589676971197,133.0,0.04993,6.977,4.004,0.00743,-0.001783,-0.01703,0.1273,-0.1205,132.0,0.05463,7.0,3.992,0.01953,-0.0,-0.01724,0.1265,-0.03726,137.2,0.0,7.0,4.0,0.0,0.0,0.0
1738841589727004528,133.1,0.05017,6.977,4.008,0.00848,-0.001689,-0.0171,0.1277,-0.1206,132.1,0.05463,7.0,3.996,0.02344,-0.0,-0.01733,0.127,-0.03726,137.6,0.0,7.0,4.0,0.0,0.0,0.0
1738841589776978254,133.4,0.0508,6.977,4.02,0.01076,-0.001197,-0.01604,0.127,-0.1207,132.4,0.05463,6.996,4.004,0.02734,-0.0,-0.01735,0.1274,-0.03735,137.6,0.0,7.0,4.0,0.0,0.0,0.0
1738841589827062606,133.5,0.05136,6.977,4.023,0.01182,-0.00081,-0.014824,0.1257,-0.1208,132.5,0.05463,7.0,4.01,0.02734,-0.0,-0.01656,0.1268,-0.03738,138.0,0.0,7.0,4.0,0.0,0.0,0.0
1738841589876973390,133.8,0.0519,6.977,4.03,0.01244,-0.000544,-0.01399,0.124,-0.1209,132.8,0.05463,6.996,4.02,0.03125,-0.0,-0.01497,0.1251,-0.03735,138.0,0.0,7.0,4.0,0.0,0.0,0.0
1738841589927000284,134.0,0.05267,6.977,4.035,0.01287,-0.000211,-0.01318,0.1214,-0.12103,132.9,0.05463,6.996,4.02,0.03125,-0.0,-0.01443,0.12396,-0.03732,138.4,0.0,7.0,4.0,0.0,0.0,0.0
1738841589976975202,134.1,0.05334,6.977,4.035,0.01314,-4.6e-05,-0.01274,0.11755,-0.12115,133.1,0.05466,6.996,4.027,0.03125,-0.0,-0.013504,0.1212,-0.03723,138.4,0.0,7.0,4.0,0.0,0.0,0.0
1738841590027000665,134.4,0.054,6.977,4.04,0.013435,0.000555,-0.01244,0.11414,-0.1213,133.4,0.05466,6.996,4.027,0.03125,-0.0,-0.01311,0.1183,-0.03726,138.8,0.0,7.0,4.0,0.0,0.0,0.0
1738841590076973915,134.6,0.0547,6.977,4.035,0.01353,0.000762,-0.01112,0.1116,-0.1214,133.6,0.0812,7.0,4.027,0.03125,-0.0,-0.01269,0.1136,-0.03757,138.8,0.0,7.0,4.0,0.0,0.0,0.0
1738841590127009868,134.6,0.0549,6.977,4.035,0.01344,0.000758,-0.010635,0.1109,-0.1214,133.8,0.05466,7.0,4.027,0.03125,-0.0,-0.01196,0.11206,-0.0376,139.2,0.0,7.0,4.0,0.0,0.0,0.0
1738841590176967620,134.9,0.05573,6.977,4.03,0.01287,0.000903,-0.00979,0.10913,-0.1215,134.0,0.05466,7.0,4.023,0.03125,-0.0,-0.01019,0.1097,-0.03766,139.2,0.0,7.0,4.0,0.0,0.0,0.0
1738841590227017402,135.1,0.0565,6.977,4.027,0.01218,0.001146,-0.01059,0.10834,-0.1216,134.1,0.0812,6.996,4.023,0.03125,-0.0,-0.01026,0.1087,-0.03766,139.6,0.0,7.0,4.0,0.0,0.0,0.0
1738841590276968955,135.2,0.0566,6.977,4.027,0.012146,0.001155,-0.01068,0.1083,-0.12164,134.4,0.0812,7.0,4.02,0.03125,-0.0,-0.01102,0.108,-0.0375,139.6,0.0,7.0,4.0,0.0,0.0,0.0
1738841590327012062,135.5,0.0576,6.977,4.023,0.01219,0.001335,-0.01146,0.1077,-0.12177,134.5,0.0812,7.0,4.016,0.02734,-0.0,-0.01136,0.1078,-0.03754,140.0,0.0,7.0,4.0,0.0,0.0,0.0
1738841590376980066,135.8,0.05844,6.977,4.016,0.01227,0.001679,-0.01058,0.1076,-0.1219,134.8,0.0812,6.996,4.01,0.02734,-0.0,-0.01178,0.1075,-0.03738,140.0,0.0,7.0,4.0,0.0,0.0,0.0
1738841590427041530,136.0,0.05902,6.98,4.016,0.0118,0.001688,-0.00951,0.1075,-0.122,135.0,0.0812,6.996,4.008,0.02734,-0.0,-0.01117,0.1074,-0.03735,140.4,0.0,7.0,4.0,0.0,0.0,0.0
1738841590476985454,136.1,0.05942,6.98,4.01,0.01116,0.001688,-0.00896,0.1075,-0.1221,135.2,0.08124,7.0,4.004,0.02734,-0.0,-0.0097,0.1072,-0.03735,140.4,0.0,7.0,4.0,0.0,0.0,0.0
1738841590527033329,136.4,0.0601,6.98,4.008,0.00957,0.001484,-0.00809,0.1074,-0.12225,135.4,0.08124,7.0,4.004,0.02734,-0.0,-0.00918,0.1072,-0.03732,140.8,0.0,7.0,4.0,0.0,0.0,0.0
1738841590576988697,136.6,0.06055,6.98,4.004,0.00799,0.001248,-0.00768,0.1074,-0.1224,135.6,0.08124,7.0,4.0,0.02344,-0.0,-0.00839,0.1071,-0.0372,140.8,0.0,7.0,4.0,0.0,0.0,0.0
1738841590627045392,136.8,0.06082,6.98,4.0,0.006935,0.001192,-0.007496,0.1074,-0.1225,135.8,0.08124,7.0,3.996,0.02344,-0.0,-0.00804,0.1071,-0.03708,141.2,0.0,7.0,4.0,0.0,0.0,0.0
1738841590676981210,137.0,0.06116,6.98,3.996,0.004578,0.001177,-0.007305,0.1074,-0.1227,136.0,0.08124,7.0,3.992,0.01953,-0.0,-0.007694,0.1071,-0.03708,141.2,0.0,7.0,4.0,0.0,0.0,0.0
1738841590727121114,137.1,0.06128,6.98,3.994,0.003586,0.001204,-0.00727,0.1074,-0.1228,136.1,0.08124,7.0,3.988,0.01953,-0.0,-0.00761,0.10724,-0.03705,141.6,0.0,7.0,4.0,0.0,0.0,0.0
1738841590777083635,137.4,0.06143,6.98,3.99,0.001853,0.001135,-0.007202,0.1081,-0.123,136.4,0.08124,7.0,3.984,0.01563,-0.0,-0.007523,0.1073,-0.03705,141.6,0.0,7.0,4.0,0.0,0.0,0.0
1738841590827115774,137.6,0.06146,6.98,3.988,-0.000737,0.000769,-0.007187,0.1097,-0.12317,136.5,0.08124,7.0,3.984,0.01563,-0.0,-0.007454,0.1083,-0.03705,142.0,0.0,7.0,4.0,0.0,0.0,0.0
1738841590877057552,137.6,0.06143,6.98,3.988,-0.000894,0.000604,-0.007175,0.1102,-0.12317,136.9,0.08124,7.0,3.98,0.01172,-0.0,-0.007492,0.11,-0.03717,142.0,0.0,7.0,4.0,0.0,0.0,0.0
1738841590927108049,137.9,0.06128,6.98,3.986,-0.003443,0.000298,-0.007145,0.11115,-0.12335,137.0,0.08124,7.0,3.98,0.01172,-0.0,-0.007507,0.11053,-0.03723,142.4,0.0,7.0,4.0,0.0,0.0,0.0
1738841590977046966,138.2,0.06085,6.98,3.984,-0.00704,0.000528,-0.00714,0.1121,-0.1236,137.2,0.08124,7.0,3.977,0.007812,-0.0,-0.007446,0.11145,-0.03732,142.4,0.0,7.0,4.0,0.0,0.0,0.0
1738841591027071237,138.2,0.06067,6.98,3.984,-0.00753,0.000528,-0.00715,0.11224,-0.12366,137.4,0.08124,7.0,3.977,0.007812,-0.0,-0.007454,0.1118,-0.0374,142.8,0.0,7.0,4.0,0.0,0.0,0.0
1738841591077069759,138.6,0.06,6.98,3.982,-0.010605,0.000546,-0.00848,0.1125,-0.12384,137.6,0.0813,7.0,3.977,0.003906,-0.0,-0.00764,0.1122,-0.0375,142.8,0.0,7.0,4.0,0.0,0.0,0.0
1738841591127125978,138.8,0.05945,6.98,3.982,-0.01144,0.000508,-0.00944,0.11255,-0.1239,137.8,0.0813,7.0,3.977,0.003906,-0.0,-0.00842,0.11224,-0.03757,143.2,0.0,7.0,4.0,0.0,0.0,0.0
1738841591177046537,139.0,0.05887,6.98,3.982,-0.01218,0.000612,-0.01061,0.11255,-0.124,138.0,0.0813,7.0,3.977,0.0,-0.0,-0.01008,0.1123,-0.03775,143.2,0.0,7.0,4.0,0.0,0.0,0.0
1738841591227110147,139.1,0.0583,6.98,3.982,-0.01235,0.000694,-0.011185,0.11255,-0.12415,138.1,0.0813,7.0,3.977,0.0,-0.0,-0.01077,0.11224,-0.03778,143.6,0.0,7.0,4.0,0.0,0.0,0.0
1738841591277060270,139.4,0.05774,6.98,3.98,-0.01228,0.000613,-0.01169,0.11255,-0.12415,138.4,0.0813,7.0,3.977,0.0,-0.0,-0.011734,0.1123,-0.03793,143.6,0.0,7.0,4.0,0.0,0.0,0.0
1738841591327092409,139.5,0.05707,6.98,3.98,-0.011986,0.000737,-0.012024,0.11255,-0.1242,138.5,0.0813,7.0,3.977,0.0,-0.0,-0.01199,0.1124,-0.03793,144.0,0.0,7.0,4.0,0.0,0.0,0.0
1738841591377049922,139.8,0.05658,6.98,3.98,-0.01169,0.000461,-0.012184,0.11255,-0.12427,138.8,0.0813,7.0,3.977,0.0,-0.0,-0.01234,0.1124,-0.03796,144.0,0.0,7.0,4.0,0.0,0.0,0.0
1738841591427106142,140.0,0.05603,6.98,3.98,-0.01127,0.000107,-0.01231,0.1125,-0.1243,139.0,0.0813,7.0,3.977,0.003906,-0.0,-0.01243,0.1123,-0.03806,144.4,0.0,7.0,4.0,0.0,0.0,0.0
1738841591477067947,140.1,0.05548,6.98,3.98,-0.01088,8.1e-05,-0.01238,0.1125,-0.1244,139.2,0.0813,7.0,3.977,0.003906,-0.0,-0.01269,0.11224,-0.03806,144.4,0.0,7.0,4.0,0.0,0.0,0.0
1738841591527106761,140.4,0.05475,6.98,3.98,-0.01007,0.000384,-0.01248,0.11273,-0.12445,139.4,0.0548,7.0,3.973,0.003906,-0.0,-0.01269,0.11224,-0.03806,144.8,0.0,7.0,4.0,0.0,0.0,0.0
1738841591577077388,140.5,0.05444,6.98,3.98,-0.00987,0.00065,-0.0125,0.11346,-0.12445,139.6,0.0813,7.0,3.973,0.003906,-0.0,-0.012695,0.11255,-0.03806,144.8,0.0,7.0,4.0,0.0,0.0,0.0
1738841591627100944,140.8,0.05386,6.98,3.982,-0.00943,0.00033,-0.01251,0.1175,-0.1245,139.8,0.0813,7.0,3.973,0.003906,-0.0,-0.01273,0.11414,-0.03818,145.2,0.0,7.0,4.0,0.0,0.0,0.0
1738841591677083492,140.9,0.05353,6.98,3.984,-0.00924,0.000191,-0.012535,0.11957,-0.1245,140.0,0.08136,7.0,3.977,0.003906,-0.0,-0.01273,0.11804,-0.03836,145.2,0.0,7.0,4.0,0.0,0.0,0.0
1738841591727122783,141.1,0.053,6.98,3.988,-0.009224,-0.000107,-0.012566,0.12225,-0.1245,140.1,0.0548,7.0,3.977,0.003906,-0.0,-0.01286,0.1198,-0.03848,145.6,0.0,7.0,4.0,0.0,0.0,0.0
1738841591777084827,141.1,0.05273,6.98,3.99,-0.009224,-6.6e-05,-0.01287,0.1241,-0.1245,140.4,0.05484,6.996,3.984,0.003906,-0.0,-0.012924,0.1235,-0.03833,145.6,0.0,7.0,4.0,0.0,0.0,0.0
1738841591827106475,141.6,0.05197,6.98,4.0,-0.00834,-0.000167,-0.01518,0.1263,-0.1245,140.5,0.05484,6.996,3.988,0.003906,-0.0,-0.01372,0.12476,-0.0382,146.0,0.0,7.0,4.0,0.0,0.0,0.0
1738841591877105474,141.8,0.05167,6.98,4.008,-0.007378,-0.000441,-0.0158,0.125,-0.1245,140.8,0.05484,7.0,3.996,0.007812,-0.0,-0.01556,0.126,-0.0381,146.0,0.0,7.0,4.0,0.0,0.0,0.0
1738841591927083730,142.0,0.05127,6.98,4.01,-0.00534,-0.000456,-0.01662,0.1222,-0.1246,140.9,0.05484,7.0,4.0,0.007812,-0.0,-0.01613,0.125,-0.03802,146.4,0.0,7.0,4.0,0.0,0.0,0.0
1738841591977059364,142.1,0.05106,6.98,4.016,-0.003595,-0.000322,-0.01584,0.1195,-0.12463,141.2,0.05484,7.0,4.008,0.01172,-0.0,-0.01692,0.12195,-0.03778,146.4,0.0,7.0,4.0,0.0,0.0,0.0
1738841592027079582,142.4,0.05093,6.98,4.02,-0.002007,0.000158,-0.01493,0.11694,-0.1247,141.4,0.05484,7.0,4.008,0.01172,-0.0,-0.01637,0.12006,-0.0379,146.8,0.0,7.0,4.0,0.0,0.0,0.0
1738841592077087640,142.6,0.05087,6.98,4.02,-0.000557,0.000289,-0.01536,0.1153,-0.1247,141.6,0.05487,7.0,4.01,0.01563,-0.0,-0.0152,0.1165,-0.03815,146.8,0.0,7.0,4.0,0.0,0.0,0.0
1738841592127103805,142.8,0.05087,6.98,4.02,0.000445,0.000217,-0.0159,0.1143,-0.1247,141.8,0.05487,7.0,4.01,0.01563,-0.0,-0.01536,0.1155,-0.03824,147.2,0.0,7.0,4.0,0.0,0.0,0.0
1738841592177088975,143.0,0.051,6.98,4.02,0.003202,0.000556,-0.01539,0.1122,-0.12476,142.0,0.05487,6.996,4.01,0.01953,-0.0,-0.01619,0.1137,-0.03827,147.2,0.0,7.0,4.0,0.0,0.0,0.0
1738841592227074623,143.1,0.05118,6.98,4.02,0.00441,0.000844,-0.01474,0.11066,-0.12476,142.1,0.05487,6.996,4.01,0.01953,-0.0,-0.01582,0.1125,-0.03824,147.6,0.0,7.0,4.0,0.0,0.0,0.0
1738841592277081012,143.4,0.05148,6.98,4.016,0.00617,0.000831,-0.01395,0.10944,-0.12476,142.4,0.05487,7.0,4.008,0.02344,-0.0,-0.01464,0.11005,-0.03815,147.6,0.0,7.0,4.0,0.0,0.0,0.0
1738841592327086448,143.6,0.05182,6.98,4.01,0.007336,0.000594,-0.01339,0.1084,-0.1248,142.5,0.05487,7.0,4.008,0.02344,-0.0,-0.01419,0.10925,-0.03812,148.0,0.0,7.0,4.0,0.0,0.0,0.0
1738841592377078294,143.8,0.05212,6.98,4.01,0.00812,0.000283,-0.01315,0.108,-0.1248,142.8,0.0549,7.0,4.004,0.02344,-0.0,-0.01356,0.10815,-0.038,148.0,0.0,7.0,4.0,0.0,0.0,0.0
1738841592427069187,144.0,0.05264,6.98,4.008,0.00916,-0.000308,-0.01293,0.1076,-0.1249,142.9,0.0549,7.0,4.004,0.02344,-0.0,-0.01346,0.1077,-0.0379,148.4,0.0,7.0,4.0,0.0,0.0,0.0
1738841592477065801,144.0,0.05283,6.98,4.004,0.00949,-0.000581,-0.01288,0.1075,-0.1249,143.2,0.0814,7.0,3.996,0.02344,-0.0,-0.013176,0.1073,-0.03772,148.4,0.0,7.0,4.0,0.0,0.0,0.0
1738841592527056932,144.4,0.05362,6.98,4.0,0.01046,-0.001011,-0.012764,0.1075,-0.125,143.4,0.0549,7.0,3.996,0.02344,-0.0,-0.01309,0.1072,-0.0377,148.8,0.0,7.0,4.0,0.0,0.0,0.0
1738841592577069044,144.5,0.054,6.98,4.0,0.01112,-0.000862,-0.012726,0.1079,-0.125,143.6,0.0814,7.0,3.992,0.02344,-0.0,-0.01299,0.1073,-0.03754,148.8,0.0,7.0,4.0,0.0,0.0,0.0
1738841592627111434,144.8,0.05478,6.98,3.996,0.01185,-0.001014,-0.01254,0.1101,-0.1251,143.8,0.0814,7.0,3.988,0.02734,-0.0,-0.012924,0.1083,-0.03745,149.2,0.0,7.0,4.0,0.0,0.0,0.0
1738841592677063465,145.0,0.0553,6.98,3.994,0.011955,-0.001319,-0.01194,0.11084,-0.1252,144.0,0.0814,7.0,3.988,0.02734,-0.0,-0.01279,0.11,-0.03754,149.2,0.0,7.0,4.0,0.0,0.0,0.0
1738841592727072477,145.1,0.05597,6.98,3.992,0.011345,-0.001592,-0.01005,0.1116,-0.1254,144.1,0.0814,7.0,3.984,0.02734,-0.0,-0.01193,0.11053,-0.0375,149.6,0.0,7.0,4.0,0.0,0.0,0.0
1738841592777025938,145.4,0.05652,6.98,3.992,0.01015,-0.001524,-0.009094,0.11194,-0.1255,144.1,0.0814,7.0,3.984,0.02734,-0.0,-0.01193,0.11053,-0.0375,149.6,0.0,7.0,4.0,0.0,0.0,0.0
1738841592827069282,145.5,0.05667,6.98,3.992,0.00969,-0.00141,-0.00872,0.11224,-0.1255,144.1,0.0814,7.0,3.984,0.02734,-0.0,-0.01193,0.11053,-0.0375,150.0,0.0,7.0,4.0,0.0,0.0,0.0
1738841592877068758,145.8,0.05722,6.98,3.99,0.007267,-0.001074,-0.00826,0.1124,-0.1256,144.1,0.0814,7.0,3.984,0.02734,-0.0,-0.01193,0.11053,-0.0375,150.0,0.0,7.0,4.0,0.0,0.0,0.0
1738841592927110195,146.0,0.05765,6.98,3.99,0.004993,-0.000654,-0.00795,0.1126,-0.1257,144.9,0.0815,7.0,3.984,0.01953,-0.0,-0.00843,0.11224,-0.03775,150.4,0.0,7.0,4.0,0.0,0.0,0.0
1738841592977062225,146.0,0.05777,6.98,3.99,0.004692,-0.000654,-0.00821,0.11426,-0.1257,145.2,0.0815,7.0,3.98,0.01953,-0.0,-0.00819,0.1127,-0.0378,150.4,0.0,7.0,4.0,0.0,0.0,0.0
1738841593027104139,146.1,0.05786,6.98,3.99,0.003098,-0.000518,-0.00903,0.1179,-0.1257,145.4,0.0815,7.0,3.98,0.01563,-0.0,-0.00885,0.11566,-0.03787,150.8,0.0,7.0,4.0,0.0,0.0,0.0
1738841593077067613,146.5,0.058,6.98,3.996,0.000987,-0.001102,-0.01122,0.127,-0.1259,145.6,0.0815,7.0,3.988,0.01563,-0.0,-0.01076,0.12415,-0.03802,150.8,0.0,7.0,4.0,0.0,0.0,0.0
1738841593127147912,146.8,0.058,6.98,4.01,-0.000412,-0.002733,-0.01423,0.1426,-0.126,145.8,0.0815,6.996,3.992,0.01563,-0.0,-0.01199,0.13,-0.03806,151.2,0.0,7.0,4.0,0.0,0.0,0.0
1738841593177052736,146.9,0.058,6.98,4.023,-0.000614,-0.003115,-0.01518,0.1459,-0.126,146.0,0.0815,6.996,4.008,0.01563,-0.0,-0.01449,0.1425,-0.0381,151.2,0.0,7.0,4.0,0.0,0.0,0.0
1738841593227095127,147.1,0.05792,6.977,4.047,-0.001315,-0.00399,-0.01614,0.1523,-0.126,146.1,0.0815,6.996,4.016,0.01563,-0.0,-0.015366,0.1471,-0.03818,151.6,0.0,7.0,4.0,0.0,0.0,0.0
1738841593277036905,147.2,0.0579,6.977,4.06,-0.00163,-0.004066,-0.01564,0.1487,-0.126,146.4,0.0815,6.996,4.043,0.01953,-0.003906,-0.01634,0.1519,-0.0383,151.6,0.0,7.0,4.0,0.0,0.0,0.0
1738841593327101945,147.6,0.05774,6.977,4.08,-0.00283,-0.001156,-0.01217,0.136,-0.126,146.5,0.0815,6.996,4.05,0.01953,-0.003906,-0.01523,0.1477,-0.03842,152.0,0.0,7.0,4.0,0.0,0.0,0.0
1738841593377069473,147.6,0.0577,6.977,4.08,-0.003023,-0.000969,-0.01217,0.1344,-0.126,146.8,0.0815,6.996,4.07,0.01953,-0.0,-0.01239,0.1356,-0.0384,152.0,0.0,7.0,4.0,0.0,0.0,0.0
1738841593427115201,147.8,0.05756,6.977,4.082,-0.00419,0.000543,-0.01054,0.1241,-0.126,147.0,0.08154,6.996,4.074,0.01953,-0.0,-0.01119,0.1277,-0.03842,152.4,0.0,7.0,4.0,0.0,0.0,0.0
1738841593477067232,148.0,0.0572,6.977,4.082,-0.005703,0.002405,-0.00913,0.1115,-0.126,147.1,0.08154,6.996,4.08,0.01563,-0.0,-0.01026,0.1197,-0.03842,152.4,0.0,7.0,4.0,0.0,0.0,0.0
1738841593527097225,148.2,0.0569,6.977,4.08,-0.00682,0.002571,-0.008514,0.1071,-0.1259,147.4,0.08154,6.996,4.074,0.01563,-0.0,-0.0092,0.11005,-0.03836,152.8,0.0,7.0,4.0,0.0,0.0,0.0
1738841593577064990,148.4,0.0567,6.977,4.08,-0.00743,0.002605,-0.008286,0.1054,-0.1259,147.6,0.08154,6.996,4.066,0.01172,-0.0,-0.0085,0.1053,-0.03824,152.8,0.0,7.0,4.0,0.0,0.0,0.0
1738841593627092123,148.6,0.0563,6.98,4.07,-0.00847,0.002647,-0.00801,0.1025,-0.1259,147.8,0.08154,6.996,4.062,0.01172,-0.0,-0.00829,0.1032,-0.03836,153.2,0.0,7.0,4.0,0.0,0.0,0.0
1738841593677225589,148.8,0.05588,6.98,4.062,-0.00944,0.002703,-0.00785,0.10034,-0.1259,148.0,0.08154,6.996,4.055,0.01172,-0.0,-0.00806,0.1,-0.03842,153.2,0.0,7.0,4.0,0.0,0.0,0.0
1738841593727105379,149.0,0.05536,6.98,4.055,-0.01044,0.002716,-0.007748,0.09894,-0.1259,148.1,0.08154,6.996,4.047,0.007812,-0.0,-0.00796,0.099,-0.0385,153.6,0.0,7.0,4.0,0.0,0.0,0.0
1738841593777047157,149.2,0.05484,6.98,4.047,-0.01131,0.002481,-0.00773,0.09814,-0.1259,148.4,0.08154,7.0,4.035,0.007812,-0.0,-0.007935,0.0978,-0.0385,153.6,0.0,7.0,4.0,0.0,0.0,0.0
1738841593827152729,149.5,0.0541,6.98,4.035,-0.01236,0.002043,-0.007687,0.0976,-0.1257,148.6,0.08154,7.0,4.03,0.003906,-0.0,-0.00793,0.0975,-0.03842,154.0,0.0,7.0,4.0,0.0,0.0,0.0
1738841593877185344,149.6,0.05362,6.98,4.027,-0.01302,0.001583,-0.0078,0.0974,-0.1257,148.9,0.08154,7.0,4.02,0.003906,-0.0,-0.008095,0.0973,-0.03842,154.0,0.0,7.0,4.0,0.0,0.0,0.0
1738841593927200794,149.9,0.0528,6.98,4.016,-0.01358,0.001169,-0.00941,0.0989,-0.1257,149.0,0.08154,7.0,4.01,0.0,-0.0,-0.0088,0.0978,-0.03836,154.4,0.0,7.0,4.0,0.0,0.0,0.0
1738841593977090120,150.0,0.05225,6.98,4.01,-0.01358,0.000765,-0.01026,0.09973,-0.1256,149.2,0.0816,7.0,4.004,0.0,-0.0,-0.01047,0.09955,-0.0384,154.4,0.0,7.0,4.0,0.0,0.0,0.0
1738841594027125597,150.2,0.05142,6.98,4.004,-0.01296,0.000318,-0.01137,0.1008,-0.1256,149.4,0.0816,7.0,4.0,0.0,-0.0,-0.011086,0.10016,-0.03842,154.8,0.0,7.0,4.0,0.0,0.0,0.0
1738841594077175378,150.5,0.05066,6.98,3.996,-0.01218,0.000278,-0.01194,0.10156,-0.1255,149.6,0.0816,7.0,3.988,0.0,-0.0,-0.01206,0.1011,-0.03848,154.8,0.0,7.0,4.0,0.0,0.0,0.0
1738841594127238750,150.8,0.0499,6.98,3.986,-0.01055,0.000497,-0.012405,0.10205,-0.1255,149.8,0.05508,7.0,3.984,0.0,-0.0,-0.012245,0.10144,-0.03857,155.2,0.0,7.0,4.0,0.0,0.0,0.0
1738841594177085161,150.9,0.0498,6.98,3.986,-0.01037,0.000556,-0.01244,0.1021,-0.1255,150.0,0.05508,7.0,3.98,0.0,-0.0,-0.0126,0.1019,-0.0386,155.2,0.0,7.0,4.0,0.0,0.0,0.0
1738841594227119684,151.1,0.04895,6.98,3.977,-0.008385,0.000629,-0.01264,0.1047,-0.1254,150.1,0.05508,7.0,3.977,0.003906,-0.0,-0.012794,0.1028,-0.0387,155.6,0.0,7.0,4.0,0.0,0.0,0.0
1738841594277092695,151.2,0.04874,6.98,3.975,-0.00806,0.00056,-0.01266,0.1052,-0.1252,150.5,0.05508,7.0,3.969,0.003906,-0.0,-0.01284,0.1047,-0.0388,155.6,0.0,7.0,4.0,0.0,0.0,0.0
1738841594327122211,151.6,0.04816,6.98,3.97,-0.006256,0.000394,-0.01274,0.1064,-0.1251,150.5,0.05508,7.0,3.965,0.003906,-0.0,-0.01295,0.1053,-0.03897,156.0,0.0,7.0,4.0,0.0,0.0,0.0
1738841594377082824,151.6,0.04816,6.98,3.969,-0.00618,0.000389,-0.01274,0.1064,-0.1251,150.9,0.0551,7.0,3.96,0.003906,-0.0,-0.012955,0.10614,-0.03873,156.0,0.0,7.0,4.0,0.0,0.0,0.0
1738841594427131652,151.9,0.0478,6.98,3.967,-0.005203,9.2e-05,-0.01278,0.10693,-0.12494,151.0,0.0551,7.0,3.96,0.003906,-0.0,-0.01295,0.1065,-0.03854,156.4,0.0,7.0,4.0,0.0,0.0,0.0
1738841594477107048,152.0,0.04755,6.98,3.963,-0.00411,0.000148,-0.01338,0.1074,-0.1249,151.2,0.0551,7.0,3.957,0.007812,-0.0,-0.0132,0.10693,-0.03815,156.4,0.0,7.0,4.0,0.0,0.0,0.0
1738841594527126550,152.2,0.0474,6.98,3.96,-0.0031,0.000133,-0.01453,0.10864,-0.1249,151.4,0.0551,7.0,3.953,0.007812,-0.0,-0.01389,0.1078,-0.03802,156.8,0.0,7.0,4.0,0.0,0.0,0.0
1738841594577097415,152.4,0.0473,6.98,3.96,-0.000639,6.1e-05,-0.01573,0.11005,-0.1248,151.6,0.0551,7.0,3.953,0.007812,-0.0,-0.01557,0.10974,-0.03787,156.8,0.0,7.0,4.0,0.0,0.0,0.0
1738841594627128839,152.8,0.04736,6.98,3.96,0.002293,0.00028,-0.01668,0.1113,-0.1249,151.8,0.05515,7.0,3.953,0.01172,-0.0,-0.01627,0.1104,-0.0378,157.2,0.0,7.0,4.0,0.0,0.0,0.0
1738841594677082061,152.9,0.04745,6.98,3.96,0.003899,0.000324,-0.01689,0.1121,-0.1249,152.0,0.05515,7.0,3.953,0.01172,-0.0,-0.01715,0.11163,-0.03772,157.2,0.0,7.0,4.0,0.0,0.0,0.0
1738841594727102279,153.0,0.0477,6.98,3.96,0.005753,0.000123,-0.01735,0.11383,-0.12494,152.1,0.05515,7.0,3.953,0.01563,-0.0,-0.01743,0.11255,-0.03763,157.6,0.0,7.0,4.0,0.0,0.0,0.0
1738841594777082920,153.2,0.04816,6.98,3.96,0.00926,-0.000227,-0.01752,0.11487,-0.125,152.4,0.05515,7.0,3.953,0.01953,-0.0,-0.01773,0.11456,-0.0377,157.6,0.0,7.0,4.0,0.0,0.0,0.0
1738841594827123165,153.6,0.04904,6.98,3.965,0.0135,-0.000384,-0.01778,0.11414,-0.125,152.5,0.05515,7.0,3.953,0.01953,-0.0,-0.01782,0.11444,-0.03778,158.0,0.0,7.0,4.0,0.0,0.0,0.0
1738841594877172708,153.6,0.04935,6.98,3.965,0.01457,-0.00036,-0.0178,0.1143,-0.125,152.9,0.05518,7.0,3.957,0.02344,-0.0,-0.01797,0.11395,-0.03778,158.0,0.0,7.0,4.0,0.0,0.0,0.0
1738841594927161931,153.8,0.04984,6.98,3.967,0.01627,-0.000571,-0.01782,0.11487,-0.125,153.0,0.05518,7.0,3.957,0.02344,-0.0,-0.01808,0.1144,-0.03778,158.4,0.0,7.0,4.0,0.0,0.0,0.0
1738841594977087974,154.1,0.0508,6.98,3.969,0.01872,-0.00098,-0.01736,0.1159,-0.1251,153.2,0.05518,7.0,3.957,0.02734,-0.0,-0.01793,0.1156,-0.03787,158.4,0.0,7.0,4.0,0.0,0.0,0.0
1738841595027127265,154.4,0.05276,6.98,3.973,0.02243,-0.001794,-0.01533,0.11694,-0.1251,153.4,0.05518,7.0,3.96,0.03125,-0.0,-0.01717,0.116,-0.03793,158.8,0.0,7.0,4.0,0.0,0.0,0.0
1738841595077092170,154.5,0.0536,6.98,3.975,0.02325,-0.00195,-0.01467,0.1171,-0.1251,153.6,0.05518,7.0,3.96,0.03125,-0.0,-0.01546,0.11676,-0.038,158.8,0.0,7.0,4.0,0.0,0.0,0.0
1738841595127130508,154.6,0.05405,6.98,3.975,0.0235,-0.001959,-0.01436,0.11725,-0.1251,153.8,0.05518,7.0,3.965,0.03125,-0.0,-0.014854,0.1169,-0.03815,159.2,0.0,7.0,4.0,0.0,0.0,0.0
1738841595177081108,154.8,0.05527,6.98,3.977,0.02399,-0.001882,-0.01373,0.1175,-0.1251,154.0,0.0817,7.0,3.969,0.03516,-0.0,-0.01401,0.11725,-0.03827,159.2,0.0,7.0,4.0,0.0,0.0,0.0
1738841595227118253,155.1,0.05722,6.98,3.98,0.02443,-0.001431,-0.01324,0.1177,-0.125,154.1,0.0817,7.0,3.969,0.03516,-0.0,-0.01367,0.11743,-0.03833,159.6,0.0,7.0,4.0,0.0,0.0,0.0
1738841595277113199,155.4,0.0586,6.98,3.984,0.0245,-0.000823,-0.01302,0.1178,-0.12494,154.4,0.0817,6.996,3.973,0.03516,-0.0,-0.01341,0.1175,-0.0384,159.6,0.0,7.0,4.0,0.0,0.0,0.0
1738841595327125072,155.5,0.05917,6.98,3.984,0.0245,-0.000767,-0.01298,0.1178,-0.12494,154.5,0.0817,7.0,3.973,0.03516,-0.0,-0.01325,0.1175,-0.03857,160.0,0.0,7.0,4.0,0.0,0.0,0.0
1738841595377095460,155.6,0.06015,6.98,3.986,0.0245,-0.000882,-0.012924,0.1175,-0.1249,154.8,0.0817,6.996,3.977,0.03516,-0.0,-0.01316,0.11743,-0.03857,160.0,0.0,7.0,4.0,0.0,0.0,0.0
1738841595427135705,155.9,0.06143,6.98,3.988,0.02455,-0.000997,-0.01288,0.1163,-0.12476,154.9,0.0817,6.996,3.977,0.03516,-0.0,-0.01307,0.11664,-0.03864,160.4,0.0,7.0,4.0,0.0,0.0,0.0
1738841595477166175,156.1,0.06323,6.98,3.99,0.0247,-0.000592,-0.01287,0.1151,-0.12463,155.2,0.0817,6.996,3.98,0.03516,-0.0,-0.01303,0.1149,-0.03864,160.4,0.0,7.0,4.0,0.0,0.0,0.0
1738841595527167320,156.2,0.0638,6.98,3.99,0.02477,-0.000514,-0.01287,0.11554,-0.12463,155.4,0.0817,6.996,3.98,0.03516,-0.0,-0.01303,0.11505,-0.03854,160.8,0.0,7.0,4.0,0.0,0.0,0.0
1738841595577080011,156.4,0.0649,6.98,3.992,0.0248,-0.000344,-0.01273,0.11615,-0.1245,155.6,0.0817,6.992,3.98,0.03516,-0.0,-0.01288,0.11597,-0.03864,160.8,0.0,7.0,4.0,0.0,0.0,0.0
1738841595627176523,156.8,0.06696,6.98,3.994,0.02383,-0.000177,-0.01059,0.11694,-0.1244,155.8,0.0818,6.992,3.984,0.03516,-0.0,-0.01202,0.11633,-0.03857,161.2,0.0,7.0,4.0,0.0,0.0,0.0
1738841595677094936,156.9,0.06744,6.98,3.996,0.02356,-0.000281,-0.01024,0.11707,-0.1243,156.0,0.0818,6.996,3.984,0.03516,-0.0,-0.0103,0.1169,-0.03857,161.2,0.0,7.0,4.0,0.0,0.0,0.0
1738841595727133274,157.1,0.0691,6.98,3.998,0.02103,-0.000377,-0.0089,0.11743,-0.12415,156.1,0.0818,6.996,3.984,0.03516,-0.0,-0.0097,0.11694,-0.0386,161.6,0.0,7.0,4.0,0.0,0.0,0.0
1738841595777098178,157.4,0.0704,6.98,4.0,0.0184,-4.3e-05,-0.0084,0.11847,-0.124,156.4,0.0818,6.992,3.988,0.03125,-0.0,-0.00876,0.11743,-0.03867,161.6,0.0,7.0,4.0,0.0,0.0,0.0
1738841595827126502,157.4,0.07043,6.98,4.0,0.01823,-4.5e-05,-0.008286,0.11896,-0.124,156.5,0.0818,6.992,3.988,0.03125,-0.0,-0.008514,0.11835,-0.03864,162.0,0.0,7.0,4.0,0.0,0.0,0.0
1738841595877098083,157.8,0.07196,6.98,4.008,0.01359,0.00022,-0.00783,0.12244,-0.1238,156.8,0.0818,6.992,3.996,0.02734,-0.0,-0.00805,0.1204,-0.0388,162.0,0.0,7.0,4.0,0.0,0.0,0.0
1738841595927120923,157.8,0.0721,6.98,4.008,0.013374,0.000436,-0.007797,0.123,-0.1237,156.9,0.0818,6.992,3.996,0.02734,-0.0,-0.00797,0.12177,-0.03854,162.4,0.0,7.0,4.0,0.0,0.0,0.0
1738841595977078199,158.1,0.07294,6.98,4.016,0.00842,0.000407,-0.007675,0.1237,-0.1236,157.2,0.0818,6.992,4.004,0.02344,-0.0,-0.00791,0.12427,-0.0382,162.4,0.0,7.0,4.0,0.0,0.0,0.0
1738841596027115821,158.4,0.0734,6.98,4.02,0.005707,0.000796,-0.007587,0.1218,-0.12354,157.4,0.0818,6.992,4.008,0.01953,-0.0,-0.00781,0.12366,-0.03812,162.8,0.0,7.0,4.0,0.0,0.0,0.0
1738841596077099800,158.6,0.07367,6.98,4.023,0.002949,0.001187,-0.00754,0.1191,-0.1235,157.5,0.0818,6.992,4.008,0.01953,-0.0,-0.007767,0.12225,-0.03784,162.8,0.0,7.0,4.0,0.0,0.0,0.0
1738841596127123594,158.8,0.0737,6.98,4.023,0.000949,0.001474,-0.007572,0.1172,-0.1235,157.8,0.0818,6.992,4.01,0.01563,-0.0,-0.007713,0.1195,-0.0378,163.2,0.0,7.0,4.0,0.0,0.0,0.0
1738841596177092552,158.9,0.0737,6.98,4.023,-0.000603,0.001444,-0.00837,0.1156,-0.1235,158.0,0.08185,6.992,4.016,0.01563,-0.0,-0.007835,0.1164,-0.038,163.2,0.0,7.0,4.0,0.0,0.0,0.0
1738841596227129936,159.1,0.07367,6.98,4.023,-0.001872,0.001264,-0.009705,0.1144,-0.1234,158.1,0.08185,6.992,4.016,0.01172,-0.0,-0.00859,0.11523,-0.03802,163.6,0.0,7.0,4.0,0.0,0.0,0.0
1738841596277187585,159.4,0.07355,6.98,4.023,-0.002588,0.000829,-0.01089,0.1124,-0.12335,158.4,0.08185,6.992,4.016,0.01172,-0.0,-0.01046,0.11346,-0.03802,163.6,0.0,7.0,4.0,0.0,0.0,0.0
1738841596327275276,159.5,0.0734,6.98,4.023,-0.00262,0.000739,-0.01152,0.11115,-0.12335,158.5,0.08185,6.992,4.016,0.01172,-0.0,-0.010956,0.11224,-0.03796,164.0,0.0,7.0,4.0,0.0,0.0,0.0
1738841596377092838,159.8,0.07324,6.98,4.02,-0.002321,0.000658,-0.01206,0.1094,-0.1233,158.8,0.08185,6.996,4.01,0.01172,-0.0,-0.011856,0.1101,-0.03784,164.0,0.0,7.0,4.0,0.0,0.0,0.0
1738841596427134513,159.9,0.0732,6.98,4.016,-0.001783,0.000548,-0.01227,0.10876,-0.1233,159.0,0.08185,6.996,4.01,0.01172,-0.0,-0.01218,0.1092,-0.03775,164.4,0.0,7.0,4.0,0.0,0.0,0.0
1738841596477184295,160.1,0.0731,6.98,4.01,-0.000803,0.000343,-0.012505,0.1081,-0.1233,159.1,0.08185,6.996,4.008,0.01172,-0.0,-0.01234,0.1087,-0.0377,164.4,0.0,7.0,4.0,0.0,0.0,0.0
1738841596527216434,160.2,0.0731,6.98,4.01,-0.000359,0.000296,-0.01254,0.10785,-0.1233,159.4,0.08185,6.996,4.004,0.01172,-0.0,-0.01257,0.1079,-0.0375,164.8,0.0,7.0,4.0,0.0,0.0,0.0
1738841596577164888,160.6,0.0731,6.98,4.008,0.000772,0.000324,-0.012634,0.10767,-0.12335,159.6,0.08185,6.996,4.0,0.01172,-0.0,-0.01273,0.10754,-0.03735,164.8,0.0,7.0,4.0,0.0,0.0,0.0
1738841596627117633,160.8,0.0731,6.98,4.004,0.001381,0.000315,-0.01266,0.10754,-0.1234,159.8,0.08185,6.996,4.0,0.01172,-0.0,-0.012726,0.1074,-0.03726,165.2,0.0,7.0,4.0,0.0,0.0,0.0
1738841596677249431,160.8,0.0732,6.98,4.004,0.001717,0.000475,-0.01266,0.1076,-0.1234,160.0,0.0819,6.996,3.996,0.01172,-0.0,-0.0128,0.1075,-0.03708,165.2,0.0,7.0,4.0,0.0,0.0,0.0
1738841596727186918,161.0,0.0733,6.98,4.0,0.002665,0.000696,-0.012665,0.10913,-0.1235,160.1,0.0819,6.996,3.992,0.01172,-0.0,-0.01282,0.10815,-0.03708,165.6,0.0,7.0,4.0,0.0,0.0,0.0
1738841596777159214,161.4,0.0736,6.98,3.998,0.0038,0.000382,-0.0127,0.11224,-0.12366,160.4,0.0819,6.996,3.988,0.01563,-0.0,-0.01276,0.11,-0.03702,165.6,0.0,7.0,4.0,0.0,0.0,0.0
1738841596827129125,161.4,0.07367,6.98,3.998,0.00392,0.000223,-0.01271,0.1128,-0.1237,160.5,0.0819,6.996,3.988,0.01563,-0.0,-0.01288,0.11145,-0.0371,166.0,0.0,7.0,4.0,0.0,0.0,0.0
1738841596877178668,161.6,0.07385,6.98,3.998,0.004436,-0.000341,-0.01271,0.1153,-0.1238,160.6,0.0819,6.996,3.988,0.01563,-0.0,-0.01273,0.11304,-0.0371,166.0,0.0,7.0,4.0,0.0,0.0,0.0
1738841596927206516,161.9,0.07416,6.98,3.998,0.004692,-0.000616,-0.01269,0.11804,-0.1239,161.0,0.0819,6.996,3.988,0.01563,-0.0,-0.0128,0.11597,-0.03732,166.4,0.0,7.0,4.0,0.0,0.0,0.0
1738841596977253198,162.0,0.0743,6.98,4.0,0.004753,-0.000682,-0.0127,0.1192,-0.1239,161.2,0.0819,6.996,3.992,0.01563,-0.0,-0.012794,0.11896,-0.0376,166.4,0.0,7.0,4.0,0.0,0.0,0.0
1738841597027138233,162.2,0.0746,6.98,4.004,0.00479,-0.001023,-0.0127,0.1209,-0.12396,161.4,0.0819,6.996,3.996,0.01563,-0.0,-0.01283,0.1202,-0.03787,166.8,0.0,7.0,4.0,0.0,0.0,0.0
1738841597077102184,162.6,0.07495,6.98,4.01,0.004738,-0.001668,-0.0127,0.121,-0.1239,161.5,0.0819,6.996,3.996,0.01563,-0.0,-0.01285,0.12085,-0.03787,166.8,0.0,7.0,4.0,0.0,0.0,0.0
1738841597127099752,162.6,0.07495,6.98,4.01,0.00474,-0.001635,-0.01271,0.1209,-0.1239,161.8,0.0819,6.996,4.0,0.01563,-0.0,-0.012825,0.12085,-0.03754,167.2,0.0,7.0,4.0,0.0,0.0,0.0
1738841597176984548,162.9,0.0754,6.98,4.016,0.00483,-0.000695,-0.01275,0.1195,-0.12396,162.0,0.082,6.996,4.004,0.01563,-0.0,-0.01282,0.1197,-0.03787,167.2,0.0,7.0,4.0,0.0,0.0,0.0
1738841597227075338,163.0,0.0755,6.98,4.016,0.004875,-0.000568,-0.01275,0.1192,-0.12396,162.1,0.082,6.992,4.008,0.01563,-0.0,-0.012825,0.11914,-0.03802,167.6,0.0,7.0,4.0,0.0,0.0,0.0
1738841597277068853,163.4,0.0759,6.98,4.02,0.00513,0.000253,-0.01279,0.11957,-0.12384,162.2,0.082,6.992,4.008,0.01563,-0.0,-0.01282,0.1188,-0.03812,167.6,0.0,7.0,4.0,0.0,0.0,0.0
1738841597327108860,163.5,0.0761,6.98,4.023,0.005196,0.000236,-0.01278,0.12006,-0.12384,162.5,0.082,6.992,4.01,0.01563,-0.0,-0.01283,0.11914,-0.0383,168.0,0.0,7.0,4.0,0.0,0.0,0.0
1738841597377072334,163.8,0.0764,6.98,4.027,0.005253,0.000164,-0.01282,0.1214,-0.1237,162.8,0.082,6.992,4.016,0.01563,-0.0,-0.01288,0.12054,-0.03857,168.0,0.0,7.0,4.0,0.0,0.0,0.0
1738841597427078962,163.8,0.0765,6.98,4.027,0.005257,0.000152,-0.01282,0.1215,-0.1237,163.0,0.082,6.992,4.02,0.01563,-0.0,-0.01288,0.12103,-0.0384,168.4,0.0,7.0,4.0,0.0,0.0,0.0
1738841597477097749,164.1,0.07697,6.98,4.035,0.005306,-8.5e-05,-0.01282,0.1213,-0.12354,163.1,0.082,6.992,4.02,0.01953,-0.0,-0.01287,0.1216,-0.03815,168.4,0.0,7.0,4.0,0.0,0.0,0.0
1738841597527116775,164.1,0.0771,6.98,4.035,0.005344,-8.5e-05,-0.01282,0.1208,-0.12354,163.4,0.082,6.992,4.023,0.01953,-0.0,-0.01285,0.1212,-0.0378,168.8,0.0,7.0,4.0,0.0,0.0,0.0
1738841597577101230,164.6,0.0775,6.98,4.04,0.005516,-9.4e-05,-0.01284,0.11945,-0.12354,163.6,0.082,6.992,4.027,0.01953,-0.0,-0.01291,0.11975,-0.03787,168.8,0.0,7.0,4.0,0.0,0.0,0.0
1738841597627097845,164.8,0.0778,6.98,4.04,0.00575,-5.6e-05,-0.01281,0.1188,-0.1235,163.8,0.082,6.992,4.03,0.01953,-0.0,-0.01292,0.1192,-0.03812,169.2,0.0,7.0,4.0,0.0,0.0,0.0
1738841597677102327,164.8,0.0778,6.98,4.04,0.005783,-5.6e-05,-0.0128,0.11865,-0.1235,163.9,0.082,6.992,4.03,0.01953,-0.0,-0.0129,0.1187,-0.03812,169.2,0.0,7.0,4.0,0.0,0.0,0.0
1738841597727092981,165.1,0.07837,6.98,4.043,0.006336,0.000275,-0.01283,0.11584,-0.12335,164.1,0.08203,6.992,4.03,0.01953,-0.0,-0.01289,0.1173,-0.03836,169.6,0.0,7.0,4.0,0.0,0.0,0.0
1738841597777079820,165.4,0.0788,6.98,4.043,0.00676,0.00033,-0.01284,0.1167,-0.1233,164.4,0.08203,6.992,4.035,0.01953,-0.0,-0.012856,0.1154,-0.03836,169.6,0.0,7.0,4.0,0.0,0.0,0.0
1738841597827065706,165.4,0.0788,6.98,4.043,0.006813,0.000239,-0.01285,0.117,-0.1233,164.6,0.08203,6.992,4.035,0.01953,-0.0,-0.01286,0.1163,-0.03827,170.0,0.0,7.0,4.0,0.0,0.0,0.0
1738841597877049922,165.8,0.0794,6.98,4.047,0.007015,-0.000733,-0.01179,0.119,-0.1231,164.8,0.08203,6.996,4.035,0.01953,-0.0,-0.0129,0.1177,-0.0384,170.0,0.0,7.0,4.0,0.0,0.0,0.0
1738841597927077293,165.9,0.0796,6.98,4.047,0.006756,-0.00084,-0.01099,0.1189,-0.12305,165.0,0.08203,6.996,4.035,0.01953,-0.0,-0.01197,0.11884,-0.03842,170.4,0.0,7.0,4.0,0.0,0.0,0.0
1738841597977081537,166.1,0.08,6.98,4.047,0.005283,-0.000647,-0.00947,0.11755,-0.1229,165.2,0.08203,6.992,4.04,0.01953,-0.0,-0.01025,0.11835,-0.03867,170.4,0.0,7.0,4.0,0.0,0.0,0.0
1738841598027124643,166.4,0.0803,6.98,4.05,0.003695,-6.9e-05,-0.00877,0.1157,-0.12274,165.4,0.08203,6.992,4.04,0.01953,-0.0,-0.00963,0.1174,-0.0387,170.8,0.0,7.0,4.0,0.0,0.0,0.0
1738841598077079772,166.4,0.0803,6.98,4.05,0.00358,1.3e-05,-0.00877,0.1151,-0.1227,165.5,0.08203,6.992,4.04,0.01953,-0.0,-0.00899,0.1163,-0.03857,170.8,0.0,7.0,4.0,0.0,0.0,0.0
1738841598127104282,166.9,0.08057,6.98,4.047,0.001776,0.000463,-0.01053,0.11127,-0.1225,165.8,0.08203,6.992,4.04,0.01563,-0.0,-0.009285,0.11365,-0.03857,171.2,0.0,7.0,4.0,0.0,0.0,0.0
1738841598177078723,167.0,0.0806,6.98,4.047,0.001669,0.000519,-0.0111,0.11053,-0.12244,166.0,0.08203,6.992,4.04,0.01563,-0.0,-0.010605,0.1109,-0.03836,171.2,0.0,7.0,4.0,0.0,0.0,0.0
1738841598227114200,167.2,0.08075,6.98,4.043,0.00196,0.000876,-0.01183,0.1089,-0.1223,166.1,0.0821,6.992,4.035,0.01563,-0.0,-0.01126,0.10986,-0.03815,171.6,0.0,7.0,4.0,0.0,0.0,0.0
1738841598277092695,167.4,0.0808,6.98,4.04,0.002462,0.00122,-0.01221,0.10944,-0.12225,166.4,0.0821,6.992,4.035,0.01563,-0.0,-0.01167,0.1091,-0.0381,171.6,0.0,7.0,4.0,0.0,0.0,0.0
1738841598327099561,167.6,0.081,6.98,4.035,0.003096,0.000863,-0.01246,0.1104,-0.12225,166.6,0.0821,6.996,4.03,0.01563,-0.0,-0.012184,0.1091,-0.03784,172.0,0.0,7.0,4.0,0.0,0.0,0.0
1738841598377042531,167.9,0.0812,6.98,4.035,0.003769,0.000733,-0.0126,0.1112,-0.1222,166.9,0.0821,6.992,4.027,0.01563,-0.0,-0.01254,0.1102,-0.0377,172.0,0.0,7.0,4.0,0.0,0.0,0.0
1738841598427031755,168.0,0.08136,6.98,4.03,0.00436,0.000625,-0.012535,0.1115,-0.1222,167.0,0.0821,6.992,4.023,0.01563,-0.0,-0.01255,0.1108,-0.03763,172.4,0.0,7.0,4.0,0.0,0.0,0.0
1738841598476972103,168.2,0.0816,6.98,4.03,0.00472,0.000564,-0.01125,0.10925,-0.1222,167.1,0.0821,6.992,4.023,0.01563,-0.0,-0.01264,0.1112,-0.03763,172.4,0.0,7.0,4.0,0.0,0.0,0.0
1738841598527089834,168.4,0.08167,6.98,4.027,0.004723,0.000666,-0.01045,0.1082,-0.1222,167.4,0.0821,6.996,4.02,0.01563,-0.0,-0.01166,0.10974,-0.03748,172.8,0.0,7.0,4.0,0.0,0.0,0.0
1738841598577077150,168.6,0.08203,6.98,4.023,0.00407,0.000945,-0.00928,0.10803,-0.12225,167.6,0.0821,6.996,4.016,0.01563,-0.0,-0.01004,0.107,-0.03735,172.8,0.0,7.0,4.0,0.0,0.0,0.0
1738841598627114772,168.9,0.0822,6.98,4.02,0.003048,0.00059,-0.0087,0.10944,-0.1223,167.8,0.0821,6.996,4.016,0.01563,-0.0,-0.00944,0.1074,-0.03717,173.2,0.0,7.0,4.0,0.0,0.0,0.0
1738841598677081823,169.0,0.08234,6.98,4.016,0.002066,0.000458,-0.009415,0.1105,-0.1224,167.9,0.0821,6.996,4.01,0.01172,-0.0,-0.008934,0.1085,-0.03714,173.2,0.0,7.0,4.0,0.0,0.0,0.0
1738841598727155685,169.2,0.0824,6.98,4.016,0.001416,0.000261,-0.01049,0.1116,-0.12244,168.2,0.08215,6.996,4.008,0.01172,-0.0,-0.00931,0.11005,-0.03717,173.6,0.0,7.0,4.0,0.0,0.0,0.0
1738841598777232646,169.4,0.08246,6.98,4.016,0.001172,0.000163,-0.01109,0.11365,-0.1225,168.5,0.08215,6.996,4.008,0.01172,-0.0,-0.010635,0.1115,-0.03717,173.6,0.0,7.0,4.0,0.0,0.0,0.0
1738841598827098131,169.5,0.08246,6.98,4.016,0.001121,5.9e-05,-0.01132,0.1148,-0.1225,168.6,0.08215,6.996,4.008,0.01172,-0.0,-0.01119,0.1137,-0.03714,174.0,0.0,7.0,4.0,0.0,0.0,0.0
1738841598877084970,169.9,0.0826,6.98,4.016,0.000953,-0.000673,-0.01226,0.11816,-0.1226,168.8,0.08215,6.996,4.008,0.01172,-0.0,-0.01159,0.11597,-0.03726,174.0,0.0,7.0,4.0,0.0,0.0,0.0
1738841598927093029,170.0,0.08264,6.98,4.02,0.001057,-0.000694,-0.01248,0.1182,-0.1227,169.0,0.08215,6.996,4.008,0.007812,-0.0,-0.01225,0.118,-0.03757,174.4,0.0,7.0,4.0,0.0,0.0,0.0
1738841598977077007,170.2,0.0827,6.98,4.02,0.001243,-0.000888,-0.01258,0.11676,-0.1227,169.2,0.08215,6.996,4.01,0.01172,-0.0,-0.01253,0.11786,-0.03784,174.4,0.0,7.0,4.0,0.0,0.0,0.0
1738841599027082920,170.2,0.0827,6.98,4.02,0.001295,-0.000864,-0.0126,0.11597,-0.1227,169.4,0.08215,6.996,4.01,0.01172,-0.0,-0.01267,0.1163,-0.03793,174.8,0.0,7.0,4.0,0.0,0.0,0.0
1738841599077072143,170.6,0.0828,6.98,4.02,0.00212,4.2e-05,-0.01271,0.11255,-0.1226,169.5,0.08215,6.996,4.01,0.01172,-0.0,-0.01272,0.11414,-0.038,174.8,0.0,7.0,4.0,0.0,0.0,0.0
1738841599127099990,170.8,0.08295,6.98,4.02,0.00242,0.000509,-0.01276,0.1124,-0.12256,169.8,0.08215,6.992,4.01,0.01172,-0.0,-0.012764,0.1123,-0.0379,175.2,0.0,7.0,4.0,0.0,0.0,0.0
1738841599177069425,171.0,0.0832,6.98,4.02,0.00368,0.000853,-0.01283,0.1123,-0.12256,170.0,0.0822,6.992,4.01,0.01172,-0.0,-0.01284,0.11206,-0.0378,175.2,0.0,7.0,4.0,0.0,0.0,0.0
1738841599227090358,171.2,0.0834,6.98,4.016,0.00438,0.000982,-0.012856,0.11237,-0.12256,170.2,0.0822,6.992,4.008,0.01172,-0.0,-0.01284,0.11206,-0.0378,175.6,0.0,7.0,4.0,0.0,0.0,0.0
1738841599277068853,171.4,0.0836,6.98,4.016,0.00502,0.001056,-0.01289,0.1124,-0.12256,170.4,0.0822,6.992,4.008,0.01172,-0.0,-0.01284,0.11206,-0.0378,175.6,0.0,7.0,4.0,0.0,0.0,0.0
1738841599327075481,171.5,0.0837,6.98,4.016,0.005234,0.001047,-0.01289,0.1124,-0.12256,170.6,0.0822,6.992,4.008,0.01172,-0.0,-0.012924,0.1121,-0.03772,176.0,0.0,7.0,4.0,0.0,0.0,0.0
1738841599377070188,171.8,0.084,6.98,4.016,0.00614,0.00116,-0.0129,0.1125,-0.1225,170.9,0.0822,6.992,4.008,0.01172,-0.0,-0.012924,0.1121,-0.03772,176.0,0.0,7.0,4.0,0.0,0.0,0.0
1738841599427094936,171.9,0.08417,6.98,4.016,0.0064,0.00124,-0.0129,0.1125,-0.1225,171.0,0.0822,6.992,4.008,0.01563,-0.0,-0.01284,0.11224,-0.03772,176.4,0.0,7.0,4.0,0.0,0.0,0.0
1738841599477037906,172.2,0.0849,6.98,4.01,0.00765,0.00124,-0.01292,0.11255,-0.1225,171.1,0.0822,6.992,4.004,0.01563,-0.0,-0.01293,0.1123,-0.03772,176.4,0.0,7.0,4.0,0.0,0.0,0.0
1738841599527030706,172.5,0.08527,6.98,4.01,0.00832,0.000922,-0.01294,0.11255,-0.1225,171.4,0.0822,6.992,4.004,0.01563,-0.0,-0.01293,0.1123,-0.03772,176.8,0.0,7.0,4.0,0.0,0.0,0.0
1738841599577080726,172.6,0.08563,6.98,4.01,0.00868,0.000603,-0.01294,0.1125,-0.12256,171.6,0.0822,6.996,4.004,0.01563,-0.0,-0.012924,0.1123,-0.03766,176.8,0.0,7.0,4.0,0.0,0.0,0.0
1738841599627113819,172.6,0.08575,6.98,4.01,0.00899,0.000451,-0.01294,0.1125,-0.12256,171.8,0.0822,6.996,4.004,0.01563,-0.0,-0.012924,0.1123,-0.03766,177.2,0.0,7.0,4.0,0.0,0.0,0.0
1738841599677082538,173.0,0.0866,6.98,4.01,0.01007,0.000173,-0.012924,0.115,-0.12256,172.0,0.0822,6.996,4.004,0.01563,-0.0,-0.012924,0.1123,-0.03766,177.2,0.0,7.0,4.0,0.0,0.0,0.0
1738841599727109670,173.1,0.0869,6.98,4.01,0.01024,8.1e-05,-0.01293,0.1168,-0.12256,172.2,0.0823,6.996,4.0,0.01563,-0.0,-0.01288,0.1145,-0.03766,177.6,0.0,7.0,4.0,0.0,0.0,0.0
1738841599777083396,173.2,0.0872,6.98,4.01,0.01049,-0.000537,-0.012955,0.11786,-0.12256,172.5,0.0823,6.996,4.004,0.01563,-0.0,-0.01287,0.1177,-0.03784,177.6,0.0,7.0,4.0,0.0,0.0,0.0
1738841599827024698,173.5,0.08777,6.98,4.01,0.01079,-0.00114,-0.01293,0.1184,-0.12256,172.6,0.0823,6.996,4.004,0.01563,-0.0,-0.012886,0.1182,-0.03796,178.0,0.0,7.0,4.0,0.0,0.0,0.0
1738841599877055883,173.6,0.0883,6.98,4.016,0.01104,-0.001523,-0.01295,0.1182,-0.12256,172.8,0.0823,6.996,4.004,0.01953,-0.0,-0.012886,0.11816,-0.03802,178.0,0.0,7.0,4.0,0.0,0.0,0.0
1738841599927100181,173.9,0.08887,6.98,4.016,0.01134,-0.001412,-0.01293,0.1169,-0.1225,173.0,0.0823,6.996,4.008,0.01953,-0.0,-0.01288,0.117,-0.0382,178.4,0.0,7.0,4.0,0.0,0.0,0.0
1738841599977085590,174.1,0.0895,6.98,4.02,0.011696,-0.0012,-0.01273,0.1155,-0.1224,173.2,0.0823,6.996,4.008,0.01953,-0.0,-0.01267,0.11523,-0.03827,178.4,0.0,7.0,4.0,0.0,0.0,0.0
1738841600027094841,174.2,0.09,6.98,4.02,0.01177,-0.000701,-0.011475,0.1145,-0.1223,173.4,0.0823,6.996,4.008,0.01953,-0.0,-0.01162,0.11444,-0.03827,178.8,0.0,7.0,4.0,0.0,0.0,0.0
1738841600077033281,174.5,0.09064,6.98,4.02,0.011246,-0.000255,-0.01022,0.1138,-0.1223,173.5,0.1088,6.996,4.008,0.01953,-0.0,-0.01074,0.1139,-0.03824,178.8,0.0,7.0,4.0,0.0,0.0,0.0
1738841600127094268,174.6,0.0911,6.98,4.016,0.01032,0.000201,-0.00938,0.11334,-0.12225,173.9,0.0823,6.996,4.008,0.01563,-0.0,-0.00952,0.1132,-0.03824,179.2,0.0,7.0,4.0,0.0,0.0,0.0
1738841600177216053,174.9,0.09174,6.98,4.016,0.00863,0.000343,-0.008736,0.11255,-0.12213,174.1,0.1088,6.992,4.008,0.01563,-0.0,-0.008545,0.1125,-0.0381,179.2,0.0,7.0,4.0,0.0,0.0,0.0
1738841600227151632,175.0,0.09204,6.98,4.016,0.00758,0.000428,-0.00835,0.1114,-0.12213,174.2,0.1088,6.996,4.008,0.01563,-0.0,-0.008354,0.11163,-0.0381,179.6,0.0,7.0,4.0,0.0,0.0,0.0
1738841600277099609,175.2,0.0924,6.98,4.01,0.006012,0.000794,-0.00811,0.11,-0.1221,174.4,0.1088,6.992,4.008,0.01172,-0.0,-0.00815,0.1104,-0.03796,179.6,0.0,7.0,4.0,0.0,0.0,0.0
1738841600327114582,175.5,0.09265,6.98,4.01,0.004566,0.001153,-0.00797,0.1091,-0.1221,174.6,0.1088,6.992,4.004,0.01172,-0.0,-0.007935,0.109,-0.0377,180.0,0.0,7.0,4.0,0.0,0.0,0.0
1738841600377074718,175.6,0.09283,6.98,4.008,0.00301,0.001549,-0.007904,0.1084,-0.122,174.9,0.1088,6.992,4.0,0.007812,-0.0,-0.00782,0.1081,-0.0375,180.0,0.0,7.0,4.0,0.0,0.0,0.0
1738841600427116870,175.9,0.09296,6.98,4.004,0.001607,0.002024,-0.0079,0.10803,-0.122,175.0,0.1088,6.992,3.996,0.007812,-0.0,-0.007812,0.1079,-0.0374,180.4,0.0,7.0,4.0,0.0,0.0,0.0
1738841600477135419,176.0,0.093,6.98,4.0,0.000224,0.002316,-0.007866,0.1078,-0.1221,175.1,0.1089,6.992,3.996,0.007812,-0.0,-0.00781,0.10754,-0.0374,180.4,0.0,7.0,4.0,0.0,0.0,0.0
1738841600527108669,176.2,0.09296,6.98,3.998,-0.001259,0.002357,-0.00784,0.10754,-0.1221,175.4,0.1089,6.992,3.992,0.003906,-0.0,-0.007793,0.1074,-0.03726,180.8,0.0,7.0,4.0,0.0,0.0,0.0
1738841600577089786,176.5,0.09283,6.98,3.994,-0.002735,0.002295,-0.007797,0.1078,-0.12213,175.6,0.1089,6.996,3.988,0.0,-0.0,-0.00779,0.10754,-0.03708,180.8,0.0,7.0,4.0,0.0,0.0,0.0
1738841600627122640,176.6,0.0927,6.98,3.992,-0.00418,0.001946,-0.007755,0.1103,-0.1222,175.9,0.1089,6.996,3.984,0.0,-0.0,-0.007645,0.1093,-0.037,181.2,0.0,7.0,4.0,0.0,0.0,0.0
1738841600677108049,176.9,0.09247,6.98,3.992,-0.00579,0.001106,-0.00771,0.11255,-0.1223,176.0,0.1089,6.996,3.984,0.0,-0.0,-0.007595,0.11127,-0.037,181.2,0.0,7.0,4.0,0.0,0.0,0.0
1738841600727124929,177.1,0.0921,6.98,3.99,-0.007645,0.000691,-0.007652,0.11316,-0.1224,176.2,0.1089,6.996,3.984,0.0,-0.0,-0.007633,0.11285,-0.03717,181.6,0.0,7.0,4.0,0.0,0.0,0.0
1738841600777098417,177.2,0.0917,6.98,3.99,-0.00951,0.000658,-0.007637,0.11304,-0.1225,176.4,0.1089,6.996,3.984,0.0,-0.0,-0.007553,0.1129,-0.03726,181.6,0.0,7.0,4.0,0.0,0.0,0.0
1738841600827124595,177.5,0.0911,6.98,3.99,-0.0113,0.000601,-0.007614,0.1115,-0.12256,176.6,0.1089,6.996,3.984,-0.003906,-0.0,-0.007626,0.1118,-0.03735,182.0,0.0,7.0,4.0,0.0,0.0,0.0
1738841600877088308,177.6,0.0905,6.98,3.988,-0.012856,0.000532,-0.00765,0.11035,-0.1226,176.8,0.1089,6.996,3.984,-0.003906,-0.0,-0.007515,0.1107,-0.03732,182.0,0.0,7.0,4.0,0.0,0.0,0.0
1738841600927126169,177.9,0.0899,6.98,3.986,-0.01436,0.000425,-0.007656,0.11066,-0.1227,177.0,0.0824,6.996,3.98,-0.007812,-0.0,-0.00759,0.1102,-0.03726,182.4,0.0,7.0,4.0,0.0,0.0,0.0
1738841600977419614,178.1,0.0891,6.98,3.984,-0.01595,0.000126,-0.00789,0.1112,-0.12274,177.2,0.0824,6.996,3.98,-0.007812,-0.0,-0.007866,0.111,-0.03726,182.4,0.0,7.0,4.0,0.0,0.0,0.0
1738841601027132511,178.2,0.0882,6.98,3.984,-0.01715,0.000101,-0.00928,0.1117,-0.1228,177.4,0.0824,6.996,3.977,-0.007812,-0.0,-0.008736,0.1113,-0.03732,182.8,0.0,7.0,4.0,0.0,0.0,0.0
1738841601077104091,178.5,0.08704,6.98,3.982,-0.01775,0.000122,-0.0105,0.1121,-0.12286,177.6,0.0824,6.996,3.977,-0.007812,-0.0,-0.00969,0.1116,-0.0373,182.8,0.0,7.0,4.0,0.0,0.0,0.0
1738841601127138853,178.8,0.08624,6.98,3.982,-0.01772,1e-05,-0.01151,0.1123,-0.1229,177.9,0.08246,6.996,3.977,-0.01172,-0.0,-0.011,0.112,-0.03735,183.2,0.0,7.0,4.0,0.0,0.0,0.0
1738841601177102565,178.9,0.0857,6.98,3.982,-0.01749,9.5e-05,-0.01187,0.1124,-0.123,178.0,0.08246,6.996,3.977,-0.01172,-0.0,-0.01161,0.11206,-0.03738,183.2,0.0,7.0,4.0,0.0,0.0,0.0
1738841601227118730,179.1,0.0846,6.98,3.982,-0.01683,8.5e-05,-0.01236,0.11255,-0.12305,178.2,0.08246,6.996,3.977,-0.007812,-0.0,-0.01214,0.11224,-0.0375,183.6,0.0,7.0,4.0,0.0,0.0,0.0
1738841601277097225,179.2,0.084,6.98,3.982,-0.01634,4e-05,-0.012535,0.11255,-0.12305,178.4,0.08246,6.996,3.977,-0.007812,-0.0,-0.0124,0.1123,-0.03754,183.6,0.0,7.0,4.0,0.0,0.0,0.0
1738841601327126026,179.5,0.0832,6.98,3.98,-0.01557,-0.000227,-0.012726,0.1126,-0.1231,178.6,0.08246,6.996,3.977,-0.007812,-0.0,-0.012665,0.1124,-0.03754,184.0,0.0,7.0,4.0,0.0,0.0,0.0
1738841601377113342,179.6,0.08246,6.98,3.98,-0.01481,-0.000371,-0.01283,0.11273,-0.12317,178.8,0.08246,6.996,3.977,-0.007812,-0.0,-0.01275,0.1123,-0.03763,184.0,0.0,7.0,4.0,0.0,0.0,0.0
1738841601427127838,179.9,0.08167,6.98,3.98,-0.01399,-0.000211,-0.012886,0.1141,-0.12317,179.0,0.08246,6.996,3.977,-0.007812,-0.0,-0.01286,0.1136,-0.03766,184.4,0.0,7.0,4.0,0.0,0.0,0.0
1738841601477068185,180.0,0.081,6.98,3.982,-0.01326,-0.000434,-0.01291,0.1154,-0.1232,179.1,0.08246,6.996,3.977,-0.007812,-0.0,-0.01288,0.1145,-0.03766,184.4,0.0,7.0,4.0,0.0,0.0,0.0
1738841601527123212,180.2,0.0804,6.98,3.984,-0.01265,-0.00069,-0.01292,0.1162,-0.1232,179.4,0.08246,6.996,3.977,-0.003906,-0.0,-0.01283,0.1158,-0.03784,184.8,0.0,7.0,4.0,0.0,0.0,0.0
1738841601577440500,180.5,0.0798,6.98,3.984,-0.01205,-0.000767,-0.01308,0.1167,-0.1232,179.6,0.0825,6.996,3.98,-0.003906,-0.0,-0.01311,0.1165,-0.03793,184.8,0.0,7.0,4.0,0.0,0.0,0.0
1738841601627234220,180.6,0.0791,6.98,3.986,-0.01091,-0.000587,-0.01454,0.1157,-0.1232,179.9,0.0825,6.996,3.98,-0.003906,-0.0,-0.01414,0.11584,-0.038,185.2,0.0,7.0,4.0,0.0,0.0,0.0
1738841601677047014,180.9,0.0786,6.98,3.988,-0.00944,-7e-05,-0.01554,0.11505,-0.12317,180.0,0.0825,6.996,3.98,-0.003906,-0.0,-0.015,0.1151,-0.03815,185.2,0.0,7.0,4.0,0.0,0.0,0.0
1738841601727203369,181.0,0.07825,6.98,3.99,-0.007584,0.000193,-0.01514,0.11694,-0.1231,180.2,0.0825,6.996,3.98,0.0,-0.0,-0.015274,0.1161,-0.03806,185.6,0.0,7.0,4.0,0.0,0.0,0.0
1738841601777197122,181.2,0.0779,6.98,3.992,-0.00611,-0.000101,-0.01471,0.11896,-0.1231,180.4,0.0825,6.996,3.984,0.0,-0.0,-0.01471,0.1179,-0.03824,185.6,0.0,7.0,4.0,0.0,0.0,0.0
1738841601827208042,181.5,0.07764,6.98,3.996,-0.00478,-0.000235,-0.01548,0.1203,-0.12305,180.6,0.0825,6.996,3.988,0.0,-0.0,-0.015274,0.1198,-0.03836,186.0,0.0,7.0,4.0,0.0,0.0,0.0
1738841601877115249,181.6,0.0774,6.98,3.998,-0.00317,-0.000416,-0.01616,0.1213,-0.123,180.8,0.0825,6.996,3.988,0.0,-0.0,-0.0159,0.12054,-0.03833,186.0,0.0,7.0,4.0,0.0,0.0,0.0
1738841601927116394,181.9,0.07733,6.98,4.004,-0.001478,-0.000386,-0.015526,0.122,-0.1229,181.0,0.0825,6.992,3.996,0.003906,-0.0,-0.01572,0.1216,-0.0379,186.4,0.0,7.0,4.0,0.0,0.0,0.0
1738841601977098226,182.0,0.0773,6.98,4.008,-0.000289,-0.000472,-0.01479,0.12244,-0.1229,181.1,0.0825,6.996,3.996,0.003906,-0.0,-0.01502,0.12213,-0.0377,186.4,0.0,7.0,4.0,0.0,0.0,0.0
1738841602027134180,182.2,0.0773,6.98,4.01,0.000614,-0.000765,-0.01416,0.1227,-0.1229,181.4,0.0825,6.996,4.004,0.007812,-0.0,-0.01423,0.12244,-0.03738,186.8,0.0,7.0,4.0,0.0,0.0,0.0
1738841602077106475,182.5,0.07733,6.98,4.016,0.001185,-0.001109,-0.01374,0.1228,-0.123,181.5,0.0826,6.996,4.004,0.007812,-0.0,-0.01397,0.1225,-0.03735,186.8,0.0,7.0,4.0,0.0,0.0,0.0
1738841602127129316,182.6,0.0774,6.98,4.02,0.001608,-0.001078,-0.013435,0.1229,-0.12305,181.9,0.0826,6.996,4.01,0.007812,-0.0,-0.01344,0.1227,-0.03714,187.2,0.0,7.0,4.0,0.0,0.0,0.0
1738841602177494525,182.9,0.07745,6.98,4.023,0.001892,-0.001048,-0.01327,0.12286,-0.12317,182.1,0.0826,6.992,4.016,0.007812,-0.0,-0.013176,0.1226,-0.03714,187.2,0.0,7.0,4.0,0.0,0.0,0.0
1738841602227124691,183.0,0.0776,6.98,4.027,0.002123,-0.000654,-0.01315,0.12164,-0.1232,182.2,0.0826,6.992,4.02,0.007812,-0.0,-0.013145,0.1216,-0.03696,187.6,0.0,7.0,4.0,0.0,0.0,0.0
1738841602277096271,183.2,0.0777,6.98,4.03,0.002407,0.000183,-0.01307,0.12036,-0.12335,182.4,0.0826,6.992,4.02,0.007812,-0.0,-0.01304,0.1208,-0.03687,187.6,0.0,7.0,4.0,0.0,0.0,0.0
1738841602327117919,183.5,0.0778,6.98,4.035,0.002728,0.000699,-0.01303,0.1181,-0.1234,182.6,0.0826,6.992,4.023,0.007812,-0.0,-0.01293,0.11847,-0.03726,188.0,0.0,7.0,4.0,0.0,0.0,0.0
1738841602377105951,183.6,0.07794,6.98,4.035,0.003166,0.000778,-0.01303,0.1159,-0.12354,182.9,0.0826,6.992,4.027,0.01172,-0.0,-0.012985,0.1154,-0.0376,188.0,0.0,7.0,4.0,0.0,0.0,0.0
1738841602427123785,183.9,0.0781,6.98,4.035,0.003815,0.000661,-0.01302,0.1118,-0.1236,183.0,0.0826,6.996,4.023,0.01172,-0.0,-0.01301,0.11224,-0.03766,188.4,0.0,7.0,4.0,0.0,0.0,0.0
1738841602477104902,184.1,0.07837,6.98,4.03,0.00472,0.000981,-0.01304,0.10846,-0.1236,183.1,0.0826,6.992,4.023,0.01172,-0.0,-0.01297,0.1098,-0.03772,188.4,0.0,7.0,4.0,0.0,0.0,0.0
1738841602527163982,184.2,0.0786,6.98,4.027,0.005672,0.001048,-0.01307,0.1075,-0.12366,183.4,0.08264,6.996,4.02,0.01172,-0.0,-0.01299,0.1073,-0.03754,188.8,0.0,7.0,4.0,0.0,0.0,0.0
1738841602577044963,184.5,0.0789,6.98,4.023,0.006725,0.00104,-0.01306,0.10736,-0.1237,183.6,0.08264,6.996,4.016,0.01172,-0.0,-0.01307,0.10706,-0.03735,188.8,0.0,7.0,4.0,0.0,0.0,0.0
1738841602627104282,184.6,0.0793,6.98,4.02,0.00764,0.001113,-0.013054,0.1086,-0.1238,183.9,0.08264,6.996,4.01,0.01172,-0.0,-0.013084,0.1079,-0.03726,189.2,0.0,7.0,4.0,0.0,0.0,0.0
1738841602677082538,184.9,0.0797,6.98,4.02,0.00852,0.000776,-0.01304,0.1098,-0.1239,184.0,0.08264,6.996,4.008,0.01563,-0.0,-0.01311,0.10913,-0.0373,189.2,0.0,7.0,4.0,0.0,0.0,0.0
1738841602727079629,185.1,0.0802,6.98,4.016,0.009415,0.000743,-0.01304,0.1093,-0.12396,184.2,0.08264,6.996,4.008,0.01563,-0.0,-0.01302,0.1094,-0.0373,189.6,0.0,7.0,4.0,0.0,0.0,0.0
1738841602777080059,185.2,0.0807,6.98,4.016,0.01019,0.000896,-0.01302,0.1091,-0.1241,184.5,0.08264,6.996,4.004,0.01563,-0.0,-0.013016,0.1088,-0.0373,189.6,0.0,7.0,4.0,0.0,0.0,0.0
1738841602827118635,185.5,0.0811,6.98,4.01,0.01087,0.000871,-0.013016,0.10986,-0.12415,184.6,0.08264,6.996,4.0,0.01563,-0.0,-0.01302,0.1094,-0.0373,190.0,0.0,7.0,4.0,0.0,0.0,0.0
1738841602877082109,185.6,0.08167,6.98,4.01,0.01154,0.000579,-0.013016,0.11084,-0.12427,184.8,0.08264,6.996,4.0,0.01563,-0.0,-0.01303,0.11005,-0.0372,190.0,0.0,7.0,4.0,0.0,0.0,0.0
1738841602927117586,185.9,0.08234,6.98,4.008,0.01221,0.000241,-0.01299,0.113,-0.1243,185.0,0.08264,6.996,4.0,0.01563,-0.0,-0.01299,0.11224,-0.0373,190.4,0.0,7.0,4.0,0.0,0.0,0.0
1738841602977081060,186.0,0.0829,6.98,4.008,0.01261,3.1e-05,-0.013016,0.1145,-0.12445,185.2,0.0827,6.996,4.0,0.01563,-0.0,-0.01302,0.1138,-0.0374,190.4,0.0,7.0,4.0,0.0,0.0,0.0
1738841603027079582,186.2,0.0835,6.98,4.008,0.012955,6.3e-05,-0.01302,0.1158,-0.1245,185.5,0.0827,6.996,4.0,0.01563,-0.0,-0.012985,0.1154,-0.0376,190.8,0.0,7.0,4.0,0.0,0.0,0.0
1738841603077091217,186.5,0.08417,6.98,4.01,0.01327,3.1e-05,-0.013016,0.11664,-0.1246,185.6,0.0827,6.996,4.0,0.01953,-0.0,-0.01301,0.1161,-0.03778,190.8,0.0,7.0,4.0,0.0,0.0,0.0
1738841603127092838,186.6,0.08484,6.98,4.01,0.0135,-0.000119,-0.01299,0.1172,-0.12463,185.9,0.0827,6.996,4.0,0.01953,-0.0,-0.01303,0.1168,-0.03793,191.2,0.0,7.0,4.0,0.0,0.0,0.0
1738841603177103042,186.9,0.0855,6.98,4.01,0.013725,-0.000495,-0.01304,0.11743,-0.12463,186.0,0.0827,6.996,4.004,0.01953,-0.0,-0.01304,0.1171,-0.03802,191.2,0.0,7.0,4.0,0.0,0.0,0.0
1738841603227154731,187.1,0.08624,6.98,4.016,0.013954,-0.000709,-0.013054,0.1176,-0.12463,186.2,0.0827,6.996,4.004,0.01953,-0.0,-0.013054,0.1173,-0.0382,191.6,0.0,7.0,4.0,0.0,0.0,0.0
