time,x_sphinx,y_sphinx,z_sphinx,vx_sphinx,vy_sphinx,vz_sphinx,roll_sphinx,pitch_sphinx,yaw_sphinx,x_anafi,y_anafi,z_anafi,vx_anafi,vy_anafi,vz_anafi,roll_anafi,pitch_anafi,yaw_anafi,wp_x,wp_y,wp_z,wp_vx,wp_vy,wp_vz,wp_yaw
1738841382744354963,78.94,0.05905,6.984,3.008,-0.00789,0.000793,-0.005634,0.076,-0.1271,78.2,0.05356,7.0,3.008,0.0,-0.0,-0.006004,0.07666,-0.0372,82.2,0.0,7.0,3.0,0.0,0.0,0.0
1738841382794260978,79.06,0.0586,6.984,3.006,-0.00932,0.000609,-0.005634,0.0755,-0.1272,78.3,0.0536,7.0,3.008,0.0,-0.0,-0.006,0.0761,-0.0373,82.5,0.0,7.0,3.0,0.0,0.0,0.0
1738841382844271659,79.25,0.0581,6.984,3.004,-0.010605,0.000564,-0.005646,0.07526,-0.1272,78.5,0.0536,7.0,3.008,0.0,-0.0,-0.006012,0.0756,-0.0379,82.5,0.0,7.0,3.0,0.0,0.0,0.0
1738841382894273281,79.4,0.0576,6.984,3.002,-0.011856,0.000819,-0.005665,0.0752,-0.1272,78.75,0.0536,6.996,3.004,0.0,-0.0,-0.006023,0.07526,-0.03833,82.8,0.0,7.0,3.0,0.0,0.0,0.0
1738841382944263935,79.5,0.05692,6.984,3.002,-0.01318,0.001121,-0.005703,0.07513,-0.1272,78.8,0.0536,6.996,3.004,0.0,-0.0,-0.006027,0.07526,-0.03848,82.8,0.0,7.0,3.0,0.0,0.0,0.0
1738841382994265079,79.7,0.05627,6.984,3.0,-0.01438,0.001167,-0.005695,0.0751,-0.1272,78.94,0.0536,6.996,3.004,0.0,-0.0,-0.00612,0.0752,-0.03867,83.1,0.0,7.0,3.0,0.0,0.0,0.0
1738841383044270515,79.8,0.05554,6.984,2.998,-0.01556,0.00114,-0.00571,0.075,-0.1271,79.1,0.0536,7.0,3.0,-0.003906,-0.0,-0.006042,0.0751,-0.03894,83.1,0.0,7.0,3.0,0.0,0.0,0.0
1738841383094269752,80.0,0.0547,6.984,2.996,-0.01682,0.001163,-0.005707,0.075,-0.127,79.3,0.0536,6.996,3.0,-0.003906,-0.0,-0.00605,0.0751,-0.03918,83.4,0.0,7.0,3.0,0.0,0.0,0.0
1738841383144281864,80.1,0.05386,6.984,2.996,-0.01794,0.001144,-0.0057,0.075,-0.1268,79.44,0.0536,7.0,2.996,-0.007812,-0.0,-0.006054,0.0751,-0.03928,83.4,0.0,7.0,3.0,0.0,0.0,0.0
1738841383194270610,80.25,0.0529,6.984,2.994,-0.01917,0.001032,-0.005707,0.075,-0.1266,79.5,0.0536,7.0,2.996,-0.007812,-0.0,-0.006054,0.0751,-0.03928,83.7,0.0,7.0,3.0,0.0,0.0,0.0
1738841383244272232,80.44,0.05188,6.984,2.992,-0.02036,0.001127,-0.0057,0.075,-0.1265,79.75,0.02708,7.0,2.996,-0.007812,-0.0,-0.006145,0.075,-0.03946,83.7,0.0,7.0,3.0,0.0,0.0,0.0
1738841383294541835,80.56,0.05087,6.984,2.99,-0.02144,0.001353,-0.005657,0.075,-0.1262,79.94,0.02708,6.996,2.992,-0.007812,-0.0,-0.006065,0.0751,-0.03952,84.0,0.0,7.0,3.0,0.0,0.0,0.0
1738841383344289064,80.75,0.0497,6.984,2.99,-0.0226,0.001571,-0.0058,0.0751,-0.126,80.0,0.02708,6.996,2.992,-0.01172,-0.0,-0.005978,0.075,-0.03952,84.0,0.0,7.0,3.0,0.0,0.0,0.0
1738841383394295215,80.9,0.0486,6.984,2.988,-0.02332,0.001582,-0.00701,0.075,-0.1259,80.1,0.02708,6.996,2.992,-0.01172,-0.0,-0.00607,0.0751,-0.0396,84.3,0.0,7.0,3.0,0.0,0.0,0.0
1738841383444270372,81.0,0.0474,6.984,2.986,-0.02344,0.001509,-0.0083,0.07513,-0.1255,80.3,0.02708,7.0,2.988,-0.01172,-0.0,-0.007626,0.0751,-0.03967,84.3,0.0,7.0,3.0,0.0,0.0,0.0
1738841383494288682,81.2,0.0462,6.984,2.986,-0.02304,0.001099,-0.00924,0.0765,-0.1254,80.44,0.02708,7.0,2.988,-0.01172,-0.0,-0.00866,0.0752,-0.03964,84.6,0.0,7.0,3.0,0.0,0.0,0.0
1738841383544291257,81.3,0.0451,6.984,2.986,-0.02235,0.0007,-0.00995,0.0777,-0.1251,80.6,0.0271,7.0,2.988,-0.01172,-0.0,-0.0098,0.07684,-0.03925,84.6,0.0,7.0,3.0,0.0,0.0,0.0
1738841383594284057,81.5,0.04398,6.984,2.986,-0.02109,0.000598,-0.01167,0.0787,-0.1249,80.7,0.0271,7.0,2.988,-0.01172,-0.0,-0.01024,0.07764,-0.03894,84.9,0.0,7.0,3.0,0.0,0.0,0.0
1738841383644278287,81.6,0.043,6.984,2.988,-0.01924,0.000843,-0.01306,0.0794,-0.12476,80.94,0.0271,7.0,2.988,-0.007812,-0.0,-0.01232,0.0788,-0.03857,84.9,0.0,7.0,3.0,0.0,0.0,0.0
1738841383694293737,81.75,0.04214,6.984,2.988,-0.01689,0.000826,-0.01405,0.0798,-0.12463,81.1,0.0271,7.0,2.988,-0.003906,-0.0,-0.01397,0.0797,-0.0383,85.2,0.0,7.0,3.0,0.0,0.0,0.0
1738841383744278669,81.94,0.04132,6.984,2.99,-0.013985,0.000761,-0.01463,0.08,-0.1246,81.25,0.0271,7.0,2.992,-0.003906,-0.0,-0.01466,0.07983,-0.03827,85.2,0.0,7.0,3.0,0.0,0.0,0.0
1738841383794294595,82.06,0.0407,6.984,2.992,-0.01139,0.000903,-0.01382,0.08014,-0.12445,81.3,0.0271,6.996,2.992,0.0,-0.0,-0.01501,0.08,-0.0381,85.5,0.0,7.0,3.0,0.0,0.0,0.0
1738841383844299316,82.2,0.04022,6.984,2.994,-0.009254,0.001127,-0.012856,0.08026,-0.1244,81.5,0.02711,6.996,2.992,0.0,-0.0,-0.01396,0.0802,-0.03787,85.5,0.0,7.0,3.0,0.0,0.0,0.0
1738841383894430875,82.4,0.0398,6.984,2.996,-0.007423,0.000819,-0.01206,0.08026,-0.1244,81.7,0.02711,7.0,2.996,0.0,-0.0,-0.01284,0.0803,-0.03784,85.8,0.0,7.0,3.0,0.0,0.0,0.0
1738841383944281816,82.5,0.03946,6.984,2.996,-0.005955,0.000305,-0.01148,0.08026,-0.1243,81.8,0.02711,7.0,2.996,0.003906,-0.0,-0.01223,0.08026,-0.0378,85.8,0.0,7.0,3.0,0.0,0.0,0.0
1738841383994316101,82.7,0.03918,6.984,2.998,-0.00482,-0.000111,-0.011154,0.08026,-0.1243,81.9,0.02711,7.0,2.996,0.003906,-0.0,-0.012054,0.08026,-0.03772,86.1,0.0,7.0,3.0,0.0,0.0,0.0
1738841384044308423,82.8,0.03897,6.984,3.0,-0.00375,-0.000612,-0.010925,0.08026,-0.12427,82.1,0.02711,7.0,3.0,0.003906,-0.0,-0.011536,0.08026,-0.0377,86.1,0.0,7.0,3.0,0.0,0.0,0.0
1738841384094320058,82.94,0.03882,6.984,3.0,-0.002851,-0.000947,-0.010796,0.0803,-0.1243,82.3,0.02711,7.0,3.0,0.007812,-0.0,-0.011185,0.08026,-0.0376,86.4,0.0,7.0,3.0,0.0,0.0,0.0
1738841384144287824,83.1,0.0387,6.984,3.002,-0.002016,-0.001248,-0.01072,0.08026,-0.12427,82.44,0.02711,7.0,3.0,0.007812,-0.0,-0.011185,0.08026,-0.0376,86.4,0.0,7.0,3.0,0.0,0.0,0.0
1738841384194303512,83.25,0.0386,6.984,3.004,-0.001113,-0.001213,-0.010666,0.079,-0.1243,82.5,0.02713,7.0,3.0,0.007812,-0.0,-0.011185,0.08026,-0.0376,86.7,0.0,7.0,3.0,0.0,0.0,0.0
1738841384244300603,83.44,0.03857,6.984,3.004,-0.000156,-0.000531,-0.01066,0.07776,-0.1243,82.7,0.02713,7.0,3.004,0.01172,-0.0,-0.01106,0.0786,-0.0375,86.7,0.0,7.0,3.0,0.0,0.0,0.0
1738841384294312953,83.56,0.0386,6.984,3.004,0.000773,0.000101,-0.010635,0.0769,-0.1243,82.9,0.02713,7.0,3.004,0.01172,-0.0,-0.01104,0.0773,-0.0374,87.0,0.0,7.0,3.0,0.0,0.0,0.0
1738841384344292402,83.7,0.03867,6.984,3.002,0.001721,0.000393,-0.01059,0.07623,-0.1244,83.0,0.02713,7.0,3.0,0.01172,-0.0,-0.0111,0.07666,-0.03723,87.0,0.0,7.0,3.0,0.0,0.0,0.0
1738841384394319057,83.9,0.0388,6.984,3.002,0.00275,0.00057,-0.010574,0.07574,-0.12445,83.1,0.02713,7.0,3.0,0.01172,-0.0,-0.0111,0.0763,-0.03723,87.3,0.0,7.0,3.0,0.0,0.0,0.0
1738841384444333314,84.0,0.03894,6.984,3.002,0.003702,0.000662,-0.010544,0.07556,-0.1245,83.3,0.02713,7.0,3.0,0.01563,-0.0,-0.010994,0.0757,-0.03705,87.3,0.0,7.0,3.0,0.0,0.0,0.0
1738841384494350433,84.2,0.03915,6.984,3.0,0.004684,0.000778,-0.01055,0.07666,-0.1246,83.44,0.02713,7.0,3.0,0.01563,-0.0,-0.01099,0.07556,-0.03696,87.6,0.0,7.0,3.0,0.0,0.0,0.0
1738841384544346094,84.3,0.0394,6.984,3.0,0.005505,0.000728,-0.01057,0.0779,-0.1247,83.6,0.02715,7.0,2.996,0.01563,-0.0,-0.01101,0.0771,-0.0369,87.6,0.0,7.0,3.0,0.0,0.0,0.0
1738841384594263553,84.5,0.03973,6.984,3.0,0.006374,0.000413,-0.01057,0.07886,-0.1248,83.7,0.02715,7.0,2.996,0.01563,-0.0,-0.01094,0.0777,-0.0369,87.9,0.0,7.0,3.0,0.0,0.0,0.0
1738841384644261598,84.6,0.04004,6.984,3.002,0.007,8.8e-05,-0.01055,0.07935,-0.1249,83.94,0.02715,7.0,3.0,0.01953,-0.0,-0.01096,0.0789,-0.037,87.9,0.0,7.0,3.0,0.0,0.0,0.0
1738841384694250822,84.75,0.0404,6.984,3.002,0.007706,-0.000358,-0.01057,0.0798,-0.125,84.06,0.02715,7.0,3.0,0.01953,-0.0,-0.01097,0.0794,-0.037,88.2,0.0,7.0,3.0,0.0,0.0,0.0
1738841384744246721,84.94,0.04083,6.984,3.004,0.00834,-0.000575,-0.01043,0.0801,-0.1251,84.25,0.02715,7.0,3.0,0.01953,-0.0,-0.01099,0.07996,-0.037,88.2,0.0,7.0,3.0,0.0,0.0,0.0
1738841384794247865,85.06,0.04123,6.984,3.004,0.0086,-0.000728,-0.00921,0.08026,-0.1252,84.3,0.02715,7.0,3.0,0.01953,-0.0,-0.0109,0.08,-0.03708,88.5,0.0,7.0,3.0,0.0,0.0,0.0
1738841384844250440,85.2,0.04166,6.984,3.006,0.00826,-0.000863,-0.00799,0.0803,-0.1252,84.5,0.02716,7.0,3.004,0.01953,-0.0,-0.00935,0.0802,-0.03717,88.5,0.0,7.0,3.0,0.0,0.0,0.0
1738841384894248962,85.4,0.04205,6.984,3.006,0.007343,-0.001087,-0.007027,0.0804,-0.1254,84.6,0.02716,7.0,3.004,0.01953,-0.0,-0.00849,0.08026,-0.03723,88.8,0.0,7.0,3.0,0.0,0.0,0.0
1738841384944276809,85.5,0.0424,6.984,3.008,0.006023,-0.001471,-0.00638,0.08026,-0.1255,84.8,0.02716,7.0,3.004,0.01953,-0.0,-0.007202,0.0804,-0.03726,88.8,0.0,7.0,3.0,0.0,0.0,0.0
1738841384994271278,85.7,0.04266,6.984,3.008,0.00462,-0.001636,-0.005978,0.07904,-0.1255,84.9,0.02716,7.0,3.004,0.01953,-0.0,-0.006943,0.08026,-0.03735,89.1,0.0,7.0,3.0,0.0,0.0,0.0
1738841385044263124,85.8,0.04285,6.984,3.008,0.003149,-0.001255,-0.005733,0.07794,-0.1256,85.1,0.02716,7.0,3.004,0.01563,-0.0,-0.006393,0.07874,-0.03732,89.1,0.0,7.0,3.0,0.0,0.0,0.0
1738841385094274044,85.94,0.04297,6.984,3.008,0.001507,-0.000829,-0.00557,0.0783,-0.1257,85.25,0.02716,7.0,3.004,0.01563,-0.0,-0.006207,0.0779,-0.0373,89.4,0.0,7.0,3.0,0.0,0.0,0.0
1738841385144261598,86.1,0.043,6.984,3.008,-0.000203,-0.000725,-0.005615,0.07886,-0.1257,85.44,0.02718,7.0,3.004,0.01172,-0.0,-0.00596,0.0785,-0.0373,89.4,0.0,7.0,3.0,0.0,0.0,0.0
1738841385194265842,86.25,0.04294,6.984,3.008,-0.001475,-0.000677,-0.006783,0.07806,-0.1259,85.5,0.02718,7.0,3.004,0.01172,-0.0,-0.005962,0.0788,-0.0373,89.7,0.0,7.0,3.0,0.0,0.0,0.0
1738841385244265556,86.44,0.04285,6.984,3.008,-0.002125,-0.000525,-0.007965,0.0773,-0.1259,85.7,0.05368,7.0,3.008,0.01172,-0.0,-0.007587,0.0778,-0.03726,89.7,0.0,7.0,3.0,0.0,0.0,0.0
1738841385294260263,86.56,0.04276,6.984,3.008,-0.00226,-0.000595,-0.008934,0.0778,-0.126,85.8,0.05368,7.0,3.004,0.01172,-0.0,-0.00852,0.0772,-0.03714,90.0,0.0,7.0,3.0,0.0,0.0,0.0
1738841385344264745,86.7,0.04263,6.984,3.008,-0.002077,-0.000911,-0.00954,0.07855,-0.1261,86.06,0.02718,7.0,3.004,0.01172,-0.0,-0.009575,0.07806,-0.03717,90.0,0.0,7.0,3.0,0.0,0.0,0.0
1738841385394276857,86.9,0.04254,6.984,3.008,-0.001662,-0.001077,-0.00997,0.0792,-0.1262,86.1,0.02718,7.0,3.004,0.01172,-0.0,-0.009926,0.0784,-0.0372,90.3,0.0,7.0,3.0,0.0,0.0,0.0
1738841385444261312,87.0,0.04248,6.984,3.01,-0.001191,-0.001043,-0.0101,0.0797,-0.1263,86.3,0.0537,7.0,3.008,0.01172,-0.0,-0.01046,0.0793,-0.03714,90.3,0.0,7.0,3.0,0.0,0.0,0.0
1738841385494262695,87.2,0.04242,6.984,3.01,-0.000947,-0.000904,-0.009,0.08,-0.1265,86.44,0.0537,7.0,3.008,0.01172,-0.0,-0.01056,0.0797,-0.03723,90.6,0.0,7.0,3.0,0.0,0.0,0.0
1738841385544252395,87.3,0.04236,6.984,3.012,-0.00128,-0.000909,-0.00789,0.08014,-0.1265,86.6,0.02719,7.0,3.008,0.01172,-0.0,-0.00901,0.0801,-0.03735,90.6,0.0,7.0,3.0,0.0,0.0,0.0
1738841385594265699,87.5,0.04227,6.984,3.012,-0.002108,-0.000822,-0.007004,0.079,-0.1266,86.7,0.0537,7.0,3.008,0.01172,-0.0,-0.00841,0.08014,-0.03732,90.9,0.0,7.0,3.0,0.0,0.0,0.0
1738841385644263267,87.6,0.04214,6.984,3.012,-0.003233,-0.000283,-0.006363,0.0777,-0.1267,86.94,0.0537,7.0,3.008,0.01172,-0.0,-0.00726,0.07874,-0.03735,90.9,0.0,7.0,3.0,0.0,0.0,0.0
1738841385694269418,87.75,0.042,6.984,3.012,-0.00432,0.000122,-0.00602,0.07697,-0.1267,87.06,0.0537,6.996,3.008,0.01172,-0.0,-0.006813,0.07776,-0.0374,91.2,0.0,7.0,3.0,0.0,0.0,0.0
1738841385744277000,87.94,0.04172,6.984,3.01,-0.005703,0.000391,-0.00578,0.07623,-0.1268,87.25,0.0537,6.996,3.008,0.007812,-0.0,-0.006355,0.07666,-0.0373,91.2,0.0,7.0,3.0,0.0,0.0,0.0
1738841385794277191,88.06,0.04138,6.984,3.01,-0.00714,0.000604,-0.005608,0.0758,-0.127,87.3,0.0537,6.996,3.008,0.007812,-0.0,-0.006264,0.0764,-0.0373,91.5,0.0,7.0,3.0,0.0,0.0,0.0
1738841385844281435,88.25,0.04102,6.984,3.008,-0.00849,0.00091,-0.005535,0.07556,-0.1271,87.5,0.0537,6.996,3.008,0.007812,-0.0,-0.006092,0.0757,-0.03763,91.5,0.0,7.0,3.0,0.0,0.0,0.0
1738841385894285678,88.4,0.04053,6.984,3.006,-0.009964,0.000914,-0.00547,0.0754,-0.1271,87.6,0.0537,6.996,3.004,0.003906,-0.0,-0.005928,0.07556,-0.03796,91.8,0.0,7.0,3.0,0.0,0.0,0.0
1738841385944301843,88.56,0.03998,6.984,3.004,-0.01144,0.001088,-0.00541,0.07526,-0.1271,87.8,0.0272,6.996,3.004,0.003906,-0.0,-0.005936,0.0754,-0.03833,91.8,0.0,7.0,3.0,0.0,0.0,0.0
1738841385994315147,88.7,0.0394,6.984,3.004,-0.012794,0.001239,-0.005394,0.07526,-0.127,87.94,0.0272,6.996,3.004,0.003906,-0.0,-0.005856,0.07526,-0.03848,92.1,0.0,7.0,3.0,0.0,0.0,0.0
1738841386044286489,88.8,0.03873,6.984,3.002,-0.014114,0.001395,-0.005505,0.0752,-0.127,88.1,0.05374,6.996,3.0,0.0,-0.0,-0.005867,0.07526,-0.03885,92.1,0.0,7.0,3.0,0.0,0.0,0.0
1738841386094353914,89.0,0.03796,6.984,3.0,-0.01518,0.001743,-0.0068,0.07526,-0.1268,88.2,0.05374,6.996,3.0,0.0,-0.0,-0.00596,0.0752,-0.03894,92.4,0.0,7.0,3.0,0.0,0.0,0.0
1738841386144279241,89.1,0.03723,6.984,2.998,-0.01555,0.002085,-0.008026,0.07526,-0.1267,88.44,0.02722,6.996,3.0,0.0,-0.0,-0.007782,0.07526,-0.03915,92.4,0.0,7.0,3.0,0.0,0.0,0.0
1738841386194280385,89.25,0.03644,6.984,2.998,-0.01538,0.00238,-0.00901,0.07526,-0.1265,88.5,0.02722,6.996,2.996,0.0,-0.0,-0.0083,0.07526,-0.03928,92.7,0.0,7.0,3.0,0.0,0.0,0.0
1738841386244288921,89.44,0.0357,6.984,2.996,-0.01485,0.002655,-0.00964,0.0753,-0.1263,88.75,0.02722,6.996,2.996,0.0,-0.0,-0.00969,0.0752,-0.0394,92.7,0.0,7.0,3.0,0.0,0.0,0.0
1738841386294275760,89.56,0.03494,6.984,2.996,-0.01404,0.002798,-0.01008,0.07654,-0.1261,88.8,0.02722,6.996,2.996,0.0,-0.0,-0.010124,0.07526,-0.03943,93.0,0.0,7.0,3.0,0.0,0.0,0.0
1738841386344269275,89.75,0.0343,6.984,2.996,-0.01321,0.002277,-0.01033,0.07776,-0.126,89.06,0.02722,6.996,2.996,0.0,-0.0,-0.010666,0.077,-0.0392,93.0,0.0,7.0,3.0,0.0,0.0,0.0
1738841386394285917,89.9,0.03363,6.984,2.996,-0.012276,0.001922,-0.01048,0.0787,-0.1257,89.1,0.02722,6.996,2.996,0.0,-0.0,-0.01076,0.0776,-0.03903,93.3,0.0,7.0,3.0,0.0,0.0,0.0
1738841386444270849,90.0,0.03308,6.984,2.996,-0.01143,0.001805,-0.01054,0.0793,-0.1256,89.3,0.02724,6.996,2.996,0.0,-0.0,-0.01094,0.0788,-0.0386,93.3,0.0,7.0,3.0,0.0,0.0,0.0
1738841386494272470,90.2,0.0325,6.984,2.998,-0.01049,0.001324,-0.01055,0.0784,-0.1255,89.44,0.02724,6.996,2.996,0.003906,-0.0,-0.01103,0.0792,-0.03845,93.6,0.0,7.0,3.0,0.0,0.0,0.0
1738841386544268369,90.3,0.032,6.984,2.998,-0.00956,0.001403,-0.01058,0.07745,-0.1255,89.6,0.02724,6.996,2.996,0.003906,-0.0,-0.010994,0.078,-0.03818,93.6,0.0,7.0,3.0,0.0,0.0,0.0
1738841386594283819,90.44,0.0316,6.984,2.998,-0.00857,0.001525,-0.010574,0.0767,-0.1254,89.7,0.02724,6.996,2.996,0.003906,-0.0,-0.01098,0.0775,-0.0381,93.9,0.0,7.0,3.0,0.0,0.0,0.0
1738841386644293069,90.6,0.03116,6.984,2.996,-0.007496,0.001263,-0.01056,0.0762,-0.1254,89.94,0.02724,7.0,2.996,0.003906,-0.0,-0.01104,0.07654,-0.03784,93.9,0.0,7.0,3.0,0.0,0.0,0.0
1738841386694287061,90.75,0.0308,6.984,2.996,-0.006393,0.000918,-0.010544,0.07574,-0.1254,90.06,0.02724,7.0,2.996,0.007812,-0.0,-0.011024,0.07605,-0.03775,94.2,0.0,7.0,3.0,0.0,0.0,0.0
1738841386744270563,90.94,0.03052,6.984,2.996,-0.00539,0.000478,-0.01053,0.07556,-0.1254,90.25,0.02725,7.0,2.992,0.007812,-0.0,-0.01101,0.0755,-0.03748,94.2,0.0,7.0,3.0,0.0,0.0,0.0
1738841386794291973,91.06,0.03027,6.984,2.994,-0.00434,-0.000206,-0.01052,0.07666,-0.1255,90.3,0.02725,7.0,2.992,0.007812,-0.0,-0.011,0.07556,-0.03738,94.5,0.0,7.0,3.0,0.0,0.0,0.0
1738841386844282865,91.2,0.03008,6.984,2.994,-0.00347,-0.000859,-0.01053,0.0778,-0.1255,90.5,0.02725,7.0,2.992,0.007812,-0.0,-0.011024,0.0769,-0.03723,94.5,0.0,7.0,3.0,0.0,0.0,0.0
1738841386894279718,91.4,0.02992,6.984,2.994,-0.002592,-0.000886,-0.010544,0.0788,-0.1256,90.6,0.02725,7.0,2.992,0.01172,-0.0,-0.01095,0.0779,-0.03714,94.8,0.0,7.0,3.0,0.0,0.0,0.0
1738841386944282770,91.5,0.02982,6.984,2.996,-0.001836,-0.00061,-0.01058,0.0795,-0.1257,90.8,0.02725,7.0,2.992,0.01172,-0.0,-0.01097,0.0791,-0.03714,94.8,0.0,7.0,3.0,0.0,0.0,0.0
1738841386994300365,91.7,0.02974,6.984,2.996,-0.001058,-0.000511,-0.010574,0.07996,-0.1257,90.94,0.02725,7.0,2.992,0.01172,-0.0,-0.01098,0.0794,-0.03714,95.1,0.0,7.0,3.0,0.0,0.0,0.0
1738841387044310092,91.8,0.02971,6.984,2.998,-0.000373,-0.000457,-0.010574,0.08014,-0.1259,91.1,0.02727,7.0,2.996,0.01172,-0.0,-0.010994,0.07996,-0.03717,95.1,0.0,7.0,3.0,0.0,0.0,0.0
1738841387094296693,92.0,0.02971,6.984,3.0,0.000347,-0.000295,-0.01055,0.0803,-0.126,91.25,0.02727,7.0,2.996,0.01563,-0.0,-0.010994,0.08014,-0.03723,95.4,0.0,7.0,3.0,0.0,0.0,0.0
1738841387144286632,92.1,0.02974,6.984,3.0,0.000983,-5.5e-05,-0.01057,0.0803,-0.126,91.44,0.02727,7.0,2.996,0.01563,-0.0,-0.011,0.08026,-0.03732,95.4,0.0,7.0,3.0,0.0,0.0,0.0
1738841387194274663,92.25,0.02982,6.984,3.002,0.001707,-6e-05,-0.01056,0.0791,-0.1261,91.5,0.02727,7.0,2.996,0.01563,-0.0,-0.011,0.08026,-0.03732,95.7,0.0,7.0,3.0,0.0,0.0,0.0
1738841387244273424,92.44,0.0299,6.984,3.002,0.002441,0.000278,-0.01056,0.0779,-0.1261,91.7,0.02727,7.0,3.0,0.01563,-0.0,-0.01097,0.07874,-0.03732,95.7,0.0,7.0,3.0,0.0,0.0,0.0
1738841387294264554,92.56,0.03004,6.984,3.002,0.00323,0.000479,-0.01055,0.07697,-0.1262,91.8,0.02727,7.0,3.0,0.01563,-0.0,-0.01104,0.07776,-0.03732,96.0,0.0,7.0,3.0,0.0,0.0,0.0
1738841387344259262,92.7,0.03024,6.984,3.002,0.004112,0.000801,-0.01053,0.0763,-0.1262,92.0,0.02728,7.0,3.0,0.01953,-0.0,-0.01102,0.07654,-0.03723,96.0,0.0,7.0,3.0,0.0,0.0,0.0
1738841387394263982,92.9,0.03047,6.984,3.002,0.005013,0.000908,-0.010544,0.07587,-0.1263,92.1,0.02728,7.0,3.0,0.01953,-0.0,-0.0111,0.0763,-0.03723,96.3,0.0,7.0,3.0,0.0,0.0,0.0
1738841387444265842,93.0,0.03073,6.984,3.0,0.005856,0.000804,-0.01056,0.07556,-0.1265,92.3,0.02728,7.0,2.996,0.01953,-0.0,-0.011,0.0757,-0.03723,96.3,0.0,7.0,3.0,0.0,0.0,0.0
1738841387494267702,93.2,0.03104,6.984,3.0,0.006706,0.000632,-0.010574,0.07544,-0.1265,92.44,0.02728,7.0,2.996,0.01953,-0.0,-0.01101,0.0755,-0.03757,96.6,0.0,7.0,3.0,0.0,0.0,0.0
1738841387544263839,93.3,0.0314,6.984,2.998,0.007626,0.000387,-0.0106,0.07544,-0.1266,92.6,0.02728,7.0,2.996,0.01953,-0.0,-0.011024,0.0754,-0.038,96.6,0.0,7.0,3.0,0.0,0.0,0.0
1738841387594262361,93.5,0.03183,6.984,2.998,0.008514,0.000245,-0.01061,0.07666,-0.1266,92.7,0.02728,7.0,2.996,0.01953,-0.0,-0.01103,0.0754,-0.03818,96.9,0.0,7.0,3.0,0.0,0.0,0.0
1738841387644274234,93.6,0.03226,6.984,2.998,0.00925,0.000463,-0.010635,0.07794,-0.1265,92.94,0.0273,7.0,2.992,0.02344,-0.0,-0.011055,0.0769,-0.0381,96.9,0.0,7.0,3.0,0.0,0.0,0.0
1738841387694272518,93.75,0.0327,6.984,2.998,0.00992,0.000491,-0.01061,0.07886,-0.1265,93.06,0.0538,7.0,2.992,0.02344,-0.0,-0.01107,0.07794,-0.03802,97.2,0.0,7.0,3.0,0.0,0.0,0.0
1738841387744263887,93.94,0.03326,6.984,2.998,0.010574,0.000442,-0.01062,0.0795,-0.1265,93.25,0.0538,7.0,2.992,0.02344,-0.0,-0.011,0.07904,-0.03784,97.2,0.0,7.0,3.0,0.0,0.0,0.0
1738841387794264078,94.06,0.0338,6.984,3.0,0.0112,0.000446,-0.01065,0.0799,-0.1265,93.3,0.0538,7.0,2.996,0.02344,-0.0,-0.01109,0.07935,-0.03784,97.5,0.0,7.0,3.0,0.0,0.0,0.0
1738841387844269514,94.2,0.03436,6.984,3.0,0.01174,0.000703,-0.01057,0.0802,-0.1265,93.5,0.0538,6.996,2.996,0.02734,-0.0,-0.011185,0.07996,-0.03778,97.5,0.0,7.0,3.0,0.0,0.0,0.0
1738841387894267559,94.4,0.03494,6.984,3.002,0.01198,0.000895,-0.009415,0.0803,-0.1265,93.6,0.05383,6.996,2.996,0.02734,-0.0,-0.01102,0.08014,-0.03778,97.8,0.0,7.0,3.0,0.0,0.0,0.0
1738841387944262504,94.5,0.03555,6.984,3.004,0.01159,0.001204,-0.00806,0.0803,-0.1265,93.8,0.05383,6.996,3.0,0.02734,-0.0,-0.00929,0.0803,-0.0377,97.8,0.0,7.0,3.0,0.0,0.0,0.0
1738841387994262695,94.7,0.03613,6.984,3.004,0.01064,0.001286,-0.0071,0.0791,-0.1266,93.9,0.05383,6.996,3.0,0.02734,-0.0,-0.00869,0.08026,-0.03775,98.1,0.0,7.0,3.0,0.0,0.0,0.0
1738841388044262647,94.8,0.03662,6.984,3.004,0.00951,0.001617,-0.00648,0.07794,-0.1266,94.1,0.05383,6.996,3.0,0.02734,-0.0,-0.007446,0.07874,-0.0377,98.1,0.0,7.0,3.0,0.0,0.0,0.0
1738841388094258785,95.0,0.03708,6.984,3.004,0.00806,0.001674,-0.00606,0.07825,-0.1266,94.25,0.05383,6.996,3.0,0.02344,-0.0,-0.00691,0.0779,-0.0376,98.4,0.0,7.0,3.0,0.0,0.0,0.0
1738841388144266128,95.1,0.0374,6.984,3.004,0.006542,0.001219,-0.00581,0.07886,-0.1266,94.44,0.05383,7.0,3.0,0.02344,-0.0,-0.00648,0.0783,-0.03757,98.4,0.0,7.0,3.0,0.0,0.0,0.0
1738841388194273233,95.25,0.0377,6.984,3.004,0.004917,0.000496,-0.00566,0.0793,-0.1267,94.5,0.05383,7.0,3.0,0.01953,-0.0,-0.006313,0.0786,-0.03748,98.7,0.0,7.0,3.0,0.0,0.0,0.0
1738841388244255781,95.44,0.0379,6.984,3.006,0.003092,-8.1e-05,-0.00556,0.0797,-0.1267,94.7,0.05383,7.0,3.0,0.01953,-0.0,-0.006153,0.07935,-0.03748,98.7,0.0,7.0,3.0,0.0,0.0,0.0
1738841388294246912,95.56,0.03802,6.984,3.006,0.001367,-0.000508,-0.0055,0.08,-0.1268,94.8,0.05383,7.0,3.0,0.01953,-0.0,-0.006073,0.0796,-0.03748,99.0,0.0,7.0,3.0,0.0,0.0,0.0
1738841388344254016,95.7,0.03802,6.984,3.008,-0.000519,-0.000565,-0.00548,0.08026,-0.1268,95.0,0.05383,7.0,3.004,0.01563,-0.0,-0.005993,0.08,-0.03748,99.0,0.0,7.0,3.0,0.0,0.0,0.0
1738841388394248962,95.9,0.03796,6.984,3.008,-0.00242,-0.000628,-0.005432,0.0804,-0.127,95.1,0.05383,7.0,3.004,0.01563,-0.0,-0.00591,0.08014,-0.03748,99.3,0.0,7.0,3.0,0.0,0.0,0.0
1738841388444250345,96.0,0.0378,6.984,3.01,-0.004173,-0.000326,-0.00541,0.0805,-0.127,95.3,0.05386,7.0,3.004,0.01172,-0.0,-0.00583,0.0804,-0.03748,99.3,0.0,7.0,3.0,0.0,0.0,0.0
1738841388494247674,96.2,0.03754,6.984,3.01,-0.006073,-7e-06,-0.005383,0.08057,-0.1271,95.44,0.05386,7.0,3.004,0.01172,-0.0,-0.005833,0.0804,-0.03757,99.6,0.0,7.0,3.0,0.0,0.0,0.0
1738841388544245481,96.3,0.0372,6.984,3.012,-0.00782,0.000305,-0.00537,0.08057,-0.1271,95.6,0.05386,7.0,3.008,0.007812,-0.0,-0.005833,0.08057,-0.03757,99.6,0.0,7.0,3.0,0.0,0.0,0.0
1738841388594253301,96.5,0.03674,6.984,3.012,-0.0097,0.000509,-0.005367,0.08057,-0.1272,95.7,0.05386,7.0,3.008,0.007812,-0.0,-0.005833,0.08057,-0.03757,99.9,0.0,7.0,3.0,0.0,0.0,0.0
1738841388644251823,96.6,0.03622,6.984,3.014,-0.0114,0.000506,-0.005367,0.08044,-0.1272,95.94,0.05386,7.0,3.008,0.007812,-0.0,-0.005836,0.08057,-0.03766,99.9,0.0,7.0,3.0,0.0,0.0,0.0
1738841388694258928,96.75,0.03558,6.984,3.014,-0.01319,0.000365,-0.00536,0.0791,-0.1272,96.06,0.05386,7.0,3.012,0.003906,-0.0,-0.005833,0.0804,-0.03763,100.2,0.0,7.0,3.0,0.0,0.0,0.0
1738841388744261026,96.94,0.0349,6.984,3.014,-0.01473,0.000434,-0.005363,0.07794,-0.1273,96.25,0.05386,7.0,3.012,0.003906,-0.0,-0.005886,0.07855,-0.03763,100.2,0.0,7.0,3.0,0.0,0.0,0.0
1738841388794260025,97.06,0.03412,6.984,3.014,-0.01634,0.00052,-0.005386,0.07825,-0.1273,96.3,0.05386,7.0,3.012,0.0,-0.0,-0.005783,0.07794,-0.03754,100.5,0.0,7.0,3.0,0.0,0.0,0.0
1738841388844249963,97.25,0.0333,6.984,3.014,-0.01784,0.000554,-0.005512,0.0788,-0.1274,96.5,0.05386,7.0,3.012,0.0,-0.0,-0.005875,0.0782,-0.03754,100.5,0.0,7.0,3.0,0.0,0.0,0.0
1738841388894264459,97.4,0.03232,6.984,3.014,-0.01909,0.00103,-0.00678,0.0781,-0.1274,96.6,0.05386,6.996,3.012,0.0,-0.0,-0.006054,0.07874,-0.03748,100.8,0.0,7.0,3.0,0.0,0.0,0.0
1738841388944248437,97.5,0.0314,6.984,3.012,-0.01958,0.001333,-0.007996,0.0773,-0.1276,96.8,0.05386,6.996,3.012,0.0,-0.0,-0.00759,0.0778,-0.03745,100.8,0.0,7.0,3.0,0.0,0.0,0.0
1738841388994253396,97.7,0.03038,6.984,3.012,-0.01952,0.001337,-0.00895,0.07654,-0.1277,96.94,0.05386,6.996,3.012,0.0,-0.0,-0.00828,0.07733,-0.03748,101.1,0.0,7.0,3.0,0.0,0.0,0.0
1738841389044209003,97.8,0.02945,6.984,3.012,-0.01906,0.001078,-0.00956,0.07605,-0.1277,97.1,0.0539,7.0,3.008,0.0,-0.0,-0.009544,0.07635,-0.03735,101.1,0.0,7.0,3.0,0.0,0.0,0.0
1738841389094256401,98.0,0.02856,6.984,3.01,-0.01836,0.000935,-0.009964,0.0757,-0.1278,97.25,0.0539,7.0,3.008,0.0,-0.0,-0.01007,0.076,-0.03763,101.4,0.0,7.0,3.0,0.0,0.0,0.0
1738841389144262075,98.1,0.02763,6.984,3.008,-0.01741,0.001074,-0.010254,0.0756,-0.1278,97.44,0.0539,7.0,3.008,0.0,-0.0,-0.01051,0.07556,-0.03815,101.4,0.0,7.0,3.0,0.0,0.0,0.0
1738841389194269657,98.3,0.02675,6.984,3.008,-0.01639,0.00124,-0.01044,0.0768,-0.1278,97.5,0.0539,6.996,3.008,0.0,-0.0,-0.01069,0.07556,-0.03824,101.7,0.0,7.0,3.0,0.0,0.0,0.0
1738841389244265317,98.44,0.02599,6.984,3.008,-0.01548,0.001092,-0.01053,0.0779,-0.1278,97.75,0.0539,7.0,3.004,0.0,-0.0,-0.0109,0.0771,-0.0385,101.7,0.0,7.0,3.0,0.0,0.0,0.0
1738841389294259309,98.56,0.0252,6.99,3.008,-0.01448,0.001118,-0.01059,0.0775,-0.1277,97.9,0.0539,6.996,3.004,0.0,-0.0,-0.011,0.0779,-0.03836,102.0,0.0,7.0,3.0,0.0,0.0,0.0
1738841389344262123,98.75,0.02454,6.99,3.008,-0.01351,0.001271,-0.01063,0.0769,-0.1277,98.0,0.02739,6.996,3.004,0.0,-0.0,-0.01106,0.0773,-0.0381,102.0,0.0,7.0,3.0,0.0,0.0,0.0
1738841389394263505,98.9,0.02386,6.99,3.006,-0.01242,0.001417,-0.01064,0.07635,-0.1277,98.1,0.02739,6.996,3.004,0.0,-0.0,-0.011055,0.0769,-0.0381,102.3,0.0,7.0,3.0,0.0,0.0,0.0
1738841389444265842,99.0,0.02333,6.99,3.006,-0.01148,0.001431,-0.01067,0.076,-0.1277,98.3,0.02739,6.996,3.004,0.003906,-0.0,-0.01104,0.07623,-0.038,102.3,0.0,7.0,3.0,0.0,0.0,0.0
1738841389494258165,99.2,0.02277,6.99,3.006,-0.01036,0.001253,-0.01066,0.0757,-0.1277,98.44,0.02739,7.0,3.004,0.003906,-0.0,-0.01113,0.0759,-0.03827,102.6,0.0,7.0,3.0,0.0,0.0,0.0
1738841389544255256,99.3,0.02226,6.99,3.004,-0.00923,0.001359,-0.010666,0.0755,-0.1277,98.6,0.02739,6.996,3.0,0.003906,-0.0,-0.01105,0.0755,-0.0386,102.6,0.0,7.0,3.0,0.0,0.0,0.0
1738841389594274997,99.5,0.02184,6.99,3.004,-0.008194,0.001367,-0.010666,0.07544,-0.1276,98.75,0.02739,7.0,3.0,0.003906,-0.0,-0.01114,0.07544,-0.0388,102.9,0.0,7.0,3.0,0.0,0.0,0.0
1738841389644274473,99.6,0.02144,6.99,3.002,-0.007072,0.001215,-0.01068,0.0754,-0.1274,98.94,0.0274,7.0,3.0,0.007812,-0.0,-0.01115,0.07526,-0.03894,102.9,0.0,7.0,3.0,0.0,0.0,0.0
1738841389694262266,99.75,0.02113,6.99,3.0,-0.006042,0.001248,-0.01069,0.0754,-0.1273,99.06,0.0274,7.0,2.996,0.007812,-0.0,-0.01115,0.07526,-0.03912,103.2,0.0,7.0,3.0,0.0,0.0,0.0
1738841389744260072,99.94,0.02084,6.99,3.0,-0.004932,0.001161,-0.010666,0.0754,-0.1271,99.25,0.0274,7.0,2.996,0.007812,-0.0,-0.011154,0.07526,-0.0393,103.2,0.0,7.0,3.0,0.0,0.0,0.0
1738841389794279336,100.06,0.02063,6.99,2.998,-0.003918,0.000828,-0.01067,0.0753,-0.127,99.3,0.0274,7.0,2.996,0.007812,-0.0,-0.011154,0.07526,-0.0393,103.5,0.0,7.0,3.0,0.0,0.0,0.0
1738841389844262361,100.25,0.02048,6.99,2.998,-0.002901,0.000681,-0.01069,0.07526,-0.1267,99.5,0.0274,7.0,2.996,0.01172,-0.0,-0.01116,0.07526,-0.03946,103.5,0.0,7.0,3.0,0.0,0.0,0.0
1738841389894266605,100.4,0.02034,6.99,2.996,-0.001729,0.000451,-0.01066,0.07526,-0.1265,99.6,0.02742,7.0,2.992,0.01172,-0.0,-0.01116,0.07526,-0.03946,103.8,0.0,7.0,3.0,0.0,0.0,0.0
1738841389944273710,100.5,0.02028,6.99,2.996,-0.000735,0.000387,-0.01066,0.07544,-0.1263,99.8,0.02742,7.0,2.992,0.01172,-0.0,-0.01108,0.0752,-0.03955,103.8,0.0,7.0,3.0,0.0,0.0,0.0
1738841389994290351,100.7,0.02028,6.99,2.994,0.000216,0.00018,-0.01067,0.07666,-0.1261,99.94,0.02742,7.0,2.992,0.01172,-0.0,-0.011086,0.0753,-0.03964,104.1,0.0,7.0,3.0,0.0,0.0,0.0
1738841390044272661,100.8,0.02031,6.99,2.994,0.001159,0.000205,-0.01065,0.078,-0.1259,100.1,0.02742,7.0,2.992,0.01563,-0.0,-0.0111,0.0771,-0.03912,104.1,0.0,7.0,3.0,0.0,0.0,0.0
1738841390094283819,101.0,0.02039,6.99,2.996,0.002018,0.000619,-0.01066,0.07904,-0.1257,100.25,0.02742,7.0,2.992,0.01563,-0.0,-0.01111,0.07794,-0.03888,104.4,0.0,7.0,3.0,0.0,0.0,0.0
1738841390144273042,101.1,0.02051,6.99,2.996,0.002754,0.001023,-0.01066,0.07965,-0.1255,100.44,0.02744,6.996,2.992,0.01563,-0.0,-0.011116,0.07916,-0.03854,104.4,0.0,7.0,3.0,0.0,0.0,0.0
1738841390194275379,101.25,0.02066,6.99,2.998,0.003462,0.001139,-0.010635,0.08,-0.1255,100.5,0.02744,6.996,2.992,0.01563,-0.0,-0.01112,0.0795,-0.03845,104.7,0.0,7.0,3.0,0.0,0.0,0.0
1738841390244259357,101.44,0.02086,6.99,2.998,0.00419,0.001268,-0.010605,0.0802,-0.1254,100.75,0.02744,6.996,2.992,0.01953,-0.0,-0.01112,0.08,-0.0382,104.7,0.0,7.0,3.0,0.0,0.0,0.0
1738841390294282674,101.56,0.02107,6.99,3.0,0.00483,0.001221,-0.01058,0.0803,-0.1252,100.9,0.02744,6.996,2.996,0.01953,-0.0,-0.01103,0.0801,-0.03812,105.0,0.0,7.0,3.0,0.0,0.0,0.0
1738841390344273090,101.75,0.02135,6.99,3.002,0.005512,0.000949,-0.01059,0.0804,-0.1252,101.0,0.02744,7.0,2.996,0.01953,-0.0,-0.01103,0.08026,-0.03793,105.0,0.0,7.0,3.0,0.0,0.0,0.0
1738841390394303321,101.9,0.02165,6.99,3.004,0.006187,0.000485,-0.01058,0.0804,-0.1251,101.1,0.02744,7.0,2.996,0.01953,-0.0,-0.01103,0.08026,-0.03793,105.3,0.0,7.0,3.0,0.0,0.0,0.0
1738841390444284915,102.0,0.02193,6.99,3.004,0.00675,0.000156,-0.01057,0.08044,-0.1251,101.3,0.02745,7.0,3.0,0.01953,-0.0,-0.011024,0.08026,-0.03778,105.3,0.0,7.0,3.0,0.0,0.0,0.0
1738841390494302749,102.2,0.0223,6.99,3.006,0.00739,-0.000311,-0.01054,0.08044,-0.1251,101.44,0.02745,7.0,3.0,0.02344,-0.0,-0.011024,0.08026,-0.03778,105.6,0.0,7.0,3.0,0.0,0.0,0.0
1738841390544289350,102.3,0.0227,6.99,3.006,0.008026,-0.000641,-0.010574,0.0805,-0.1251,101.6,0.02745,7.0,3.0,0.01953,-0.0,-0.01093,0.0804,-0.0377,105.6,0.0,7.0,3.0,0.0,0.0,0.0
1738841390594308137,102.5,0.0231,6.99,3.008,0.00861,-0.000906,-0.01055,0.0805,-0.1251,101.7,0.02745,7.0,3.0,0.02344,-0.0,-0.01102,0.08044,-0.0376,105.9,0.0,7.0,3.0,0.0,0.0,0.0
1738841390644288539,102.6,0.02356,6.99,3.01,0.009224,-0.000693,-0.010544,0.08044,-0.1251,101.94,0.02745,7.0,3.004,0.02344,-0.0,-0.01102,0.08044,-0.0376,105.9,0.0,7.0,3.0,0.0,0.0,0.0
1738841390694290399,102.75,0.02402,6.99,3.01,0.00982,-0.000297,-0.01052,0.0793,-0.1251,102.06,0.02745,7.0,3.004,0.02344,-0.0,-0.01102,0.08026,-0.0376,106.2,0.0,7.0,3.0,0.0,0.0,0.0
1738841390744287014,102.94,0.02455,6.99,3.012,0.01053,0.000153,-0.01052,0.07794,-0.1251,102.25,0.02747,7.0,3.004,0.02344,-0.0,-0.010895,0.0786,-0.0375,106.2,0.0,7.0,3.0,0.0,0.0,0.0
1738841390794283866,103.06,0.02512,6.99,3.01,0.01131,0.000358,-0.01055,0.077,-0.1251,102.3,0.02747,7.0,3.004,0.02344,-0.0,-0.01097,0.07806,-0.0375,106.5,0.0,7.0,3.0,0.0,0.0,0.0
1738841390844271421,103.25,0.02568,6.99,3.01,0.01207,0.000544,-0.01055,0.07635,-0.1251,102.5,0.02747,7.0,3.004,0.02734,-0.0,-0.011024,0.0767,-0.03732,106.5,0.0,7.0,3.0,0.0,0.0,0.0
1738841390894273281,103.4,0.02628,6.99,3.01,0.01286,0.000783,-0.010544,0.0759,-0.1252,102.6,0.02747,7.0,3.004,0.02734,-0.0,-0.01101,0.07623,-0.03723,106.8,0.0,7.0,3.0,0.0,0.0,0.0
1738841390944267988,103.56,0.02698,6.99,3.008,0.0137,0.000931,-0.01053,0.0757,-0.1252,102.8,0.02747,7.0,3.004,0.02734,-0.0,-0.010994,0.0757,-0.03705,106.8,0.0,7.0,3.0,0.0,0.0,0.0
1738841390994271755,103.7,0.02765,6.99,3.008,0.014496,0.001064,-0.01054,0.07556,-0.1254,102.94,0.02748,7.0,3.0,0.02734,-0.0,-0.01099,0.07556,-0.03696,107.1,0.0,7.0,3.0,0.0,0.0,0.0
1738841391044266462,103.8,0.02843,6.99,3.006,0.015335,0.001013,-0.010544,0.07544,-0.1255,103.1,0.02748,7.0,3.0,0.02734,-0.0,-0.01098,0.0754,-0.03687,107.1,0.0,7.0,3.0,0.0,0.0,0.0
1738841391094285964,104.0,0.02917,6.99,3.006,0.01611,0.000923,-0.01055,0.07544,-0.1256,103.25,0.054,7.0,3.0,0.03125,-0.0,-0.01098,0.0754,-0.03677,107.4,0.0,7.0,3.0,0.0,0.0,0.0
1738841391144272089,104.1,0.03004,6.99,3.004,0.01694,0.000661,-0.01057,0.0754,-0.1257,103.44,0.02748,7.0,2.996,0.03125,-0.0,-0.01099,0.0754,-0.03696,107.4,0.0,7.0,3.0,0.0,0.0,0.0
1738841391194283485,104.25,0.03087,6.99,3.002,0.0177,0.000174,-0.01061,0.0754,-0.1257,103.56,0.02748,7.0,2.996,0.03125,-0.0,-0.010994,0.0754,-0.03723,107.7,0.0,7.0,3.0,0.0,0.0,0.0
1738841391244348764,104.44,0.0318,6.99,3.002,0.01848,-6.2e-05,-0.01044,0.0754,-0.1257,103.75,0.05402,7.0,2.996,0.03125,-0.0,-0.0111,0.07526,-0.03775,107.7,0.0,7.0,3.0,0.0,0.0,0.0
1738841391294363021,104.56,0.0327,6.99,3.0,0.01888,-0.000415,-0.00919,0.07544,-0.1259,103.9,0.05402,7.0,2.996,0.03125,-0.0,-0.01085,0.0754,-0.038,108.0,0.0,7.0,3.0,0.0,0.0,0.0
1738841391344361782,104.75,0.0337,6.99,3.0,0.01863,-0.000589,-0.00791,0.0754,-0.1259,104.0,0.05402,7.0,2.992,0.03125,-0.0,-0.00922,0.0753,-0.03827,108.0,0.0,7.0,3.0,0.0,0.0,0.0
1738841391394390583,104.9,0.03458,6.99,2.998,0.01793,-0.000761,-0.007042,0.07544,-0.1257,104.1,0.05402,7.0,2.992,0.03125,-0.0,-0.00854,0.0753,-0.0385,108.3,0.0,7.0,3.0,0.0,0.0,0.0
1738841391444325447,105.06,0.03546,6.99,2.996,0.01678,-0.000919,-0.006405,0.07556,-0.1256,104.3,0.05402,7.0,2.992,0.03125,-0.0,-0.007336,0.0753,-0.03873,108.3,0.0,7.0,3.0,0.0,0.0,0.0
1738841391494286060,105.2,0.03625,6.99,2.996,0.01548,-0.001046,-0.00603,0.0768,-0.1255,104.44,0.05402,7.0,2.988,0.03125,-0.0,-0.00682,0.0755,-0.0388,108.6,0.0,7.0,3.0,0.0,0.0,0.0
1738841391544261693,105.3,0.03702,6.99,2.996,0.01384,-0.001046,-0.00576,0.0781,-0.1254,104.6,0.05402,7.0,2.988,0.02734,-0.0,-0.00632,0.0771,-0.03842,108.6,0.0,7.0,3.0,0.0,0.0,0.0
1738841391594251871,105.5,0.03763,6.99,2.996,0.012184,-0.001106,-0.00563,0.079,-0.1254,104.7,0.05402,7.0,2.988,0.02734,-0.0,-0.00624,0.0779,-0.03827,108.9,0.0,7.0,3.0,0.0,0.0,0.0
1738841391644256591,105.6,0.0382,6.99,2.996,0.0103,-0.001129,-0.00552,0.07965,-0.1252,104.94,0.05402,7.0,2.988,0.02344,-0.0,-0.006084,0.0791,-0.038,108.9,0.0,7.0,3.0,0.0,0.0,0.0
1738841391694261312,105.75,0.03867,6.99,2.998,0.00853,-0.001273,-0.00546,0.08,-0.1252,105.06,0.05402,7.0,2.992,0.02344,-0.0,-0.00592,0.0796,-0.038,109.2,0.0,7.0,3.0,0.0,0.0,0.0
1738841391744260072,105.94,0.03903,6.99,2.998,0.006733,-0.001469,-0.00543,0.08026,-0.1251,105.2,0.05405,7.0,2.992,0.01953,-0.0,-0.00592,0.07996,-0.0378,109.2,0.0,7.0,3.0,0.0,0.0,0.0
1738841391794298410,106.06,0.03934,6.99,3.0,0.00479,-0.001502,-0.005405,0.0804,-0.1251,105.3,0.05405,7.0,2.992,0.01953,-0.0,-0.00592,0.08014,-0.03772,109.5,0.0,7.0,3.0,0.0,0.0,0.0
1738841391844264984,106.25,0.03952,6.99,3.0,0.002995,-0.001469,-0.00538,0.0805,-0.1251,105.5,0.05405,7.0,2.996,0.01953,-0.0,-0.005833,0.0804,-0.03763,109.5,0.0,7.0,3.0,0.0,0.0,0.0
1738841391894266605,106.4,0.0396,6.99,3.002,0.001062,-0.001372,-0.005363,0.08057,-0.1251,105.6,0.05405,7.0,2.996,0.01563,-0.0,-0.005833,0.0804,-0.03763,109.8,0.0,7.0,3.0,0.0,0.0,0.0
1738841391944255590,106.5,0.0396,6.99,3.002,-0.000719,-0.000667,-0.005325,0.0806,-0.1251,105.8,0.05405,7.0,2.996,0.01563,-0.0,-0.00575,0.08044,-0.03763,109.8,0.0,7.0,3.0,0.0,0.0,0.0
1738841391994326829,106.7,0.03955,6.99,3.004,-0.00264,-6.3e-05,-0.005325,0.0807,-0.1252,105.94,0.05405,7.0,2.996,0.01172,-0.0,-0.005833,0.08057,-0.03757,110.1,0.0,7.0,3.0,0.0,0.0,0.0
1738841392044265985,106.8,0.03937,6.99,3.006,-0.0044,0.000293,-0.00531,0.0806,-0.1252,106.1,0.05405,7.0,3.0,0.01172,-0.0,-0.005833,0.08057,-0.03757,110.1,0.0,7.0,3.0,0.0,0.0,0.0
1738841392094288110,107.0,0.0391,6.99,3.006,-0.006275,0.000824,-0.005287,0.0806,-0.1252,106.25,0.05405,6.996,3.0,0.01172,-0.0,-0.005745,0.08044,-0.03757,110.4,0.0,7.0,3.0,0.0,0.0,0.0
1738841392144256353,107.1,0.03873,6.99,3.008,-0.00815,0.001201,-0.0053,0.0805,-0.1252,106.44,0.05405,6.996,3.004,0.007812,-0.0,-0.005745,0.08044,-0.03757,110.4,0.0,7.0,3.0,0.0,0.0,0.0
1738841392194276332,107.25,0.03827,6.99,3.008,-0.009796,0.001078,-0.0053,0.0792,-0.1252,106.5,0.05405,6.996,3.004,0.007812,-0.0,-0.005833,0.0804,-0.03757,110.7,0.0,7.0,3.0,0.0,0.0,0.0
1738841392244250774,107.44,0.03778,6.99,3.008,-0.011345,0.000709,-0.00529,0.0779,-0.1252,106.6,0.05405,7.0,3.004,0.003906,-0.0,-0.005726,0.0796,-0.03748,110.7,0.0,7.0,3.0,0.0,0.0,0.0
1738841392294262886,107.56,0.03714,6.99,3.008,-0.01293,9e-06,-0.005287,0.07684,-0.1254,106.6,0.05405,7.0,3.004,0.003906,-0.0,-0.005726,0.0796,-0.03748,111.0,0.0,7.0,3.0,0.0,0.0,0.0
1738841392344249248,107.75,0.0365,6.99,3.006,-0.01434,-0.000578,-0.00528,0.07623,-0.1254,106.6,0.05405,7.0,3.004,0.003906,-0.0,-0.005726,0.0796,-0.03748,111.0,0.0,7.0,3.0,0.0,0.0,0.0
1738841392394257068,107.9,0.0357,6.99,3.006,-0.01584,-0.000731,-0.005253,0.07587,-0.1255,106.6,0.05405,7.0,3.004,0.003906,-0.0,-0.005726,0.0796,-0.03748,111.3,0.0,7.0,3.0,0.0,0.0,0.0
1738841392444262027,108.06,0.03485,6.99,3.004,-0.01729,-0.000633,-0.005276,0.0758,-0.1255,107.3,0.05408,7.0,3.0,0.0,-0.0,-0.005726,0.07574,-0.0371,111.3,0.0,7.0,3.0,0.0,0.0,0.0
1738841392494264602,108.2,0.03397,6.99,3.004,-0.01846,-0.000392,-0.006195,0.07837,-0.1256,107.44,0.05408,7.0,3.0,0.0,-0.0,-0.005802,0.0756,-0.03693,111.6,0.0,7.0,3.0,0.0,0.0,0.0
1738841392544258594,108.3,0.03308,6.99,3.004,-0.0193,-0.000834,-0.007607,0.08276,-0.1257,107.6,0.05408,7.0,3.0,0.0,-0.0,-0.007088,0.0796,-0.037,111.6,0.0,7.0,3.0,0.0,0.0,0.0
1738841392594261169,108.5,0.03204,6.99,3.008,-0.01965,-0.001108,-0.00994,0.091,-0.1259,107.75,0.05408,7.0,3.0,0.0,-0.0,-0.00819,0.0828,-0.03705,111.9,0.0,7.0,3.0,0.0,0.0,0.0
1738841392644266128,108.6,0.03104,6.99,3.018,-0.01944,-0.001884,-0.01194,0.0986,-0.126,107.94,0.05408,7.0,3.008,0.0,-0.0,-0.01108,0.09326,-0.03732,111.9,0.0,7.0,3.0,0.0,0.0,0.0
1738841392694258451,108.8,0.03012,6.99,3.027,-0.01884,-0.002449,-0.01324,0.10333,-0.126,108.06,0.05408,7.0,3.016,0.0,-0.0,-0.012566,0.09875,-0.03735,112.2,0.0,7.0,3.0,0.0,0.0,0.0
1738841392744258642,108.94,0.02924,6.99,3.041,-0.01799,-0.003159,-0.01404,0.1061,-0.1261,108.25,0.05408,7.0,3.027,0.0,-0.0,-0.01407,0.10443,-0.03766,112.2,0.0,7.0,3.0,0.0,0.0,0.0
1738841392794251918,109.06,0.02832,6.99,3.053,-0.01695,-0.003284,-0.01335,0.1007,-0.1261,108.4,0.0541,7.0,3.04,0.0,-0.0,-0.01454,0.1059,-0.03778,112.5,0.0,7.0,3.0,0.0,0.0,0.0
1738841392844251632,109.25,0.02747,6.984,3.062,-0.01588,-0.002083,-0.01249,0.09375,-0.1261,108.56,0.0541,6.996,3.055,0.003906,-0.0,-0.01355,0.09845,-0.0381,112.5,0.0,7.0,3.0,0.0,0.0,0.0
1738841392894256114,109.4,0.02673,6.984,3.068,-0.01487,-0.00128,-0.01184,0.0868,-0.1261,108.7,0.0541,6.996,3.059,0.003906,-0.0,-0.012924,0.0933,-0.03802,112.8,0.0,7.0,3.0,0.0,0.0,0.0
1738841392944268703,109.56,0.02594,6.984,3.07,-0.01351,-0.000275,-0.01133,0.08014,-0.126,108.8,0.02759,6.996,3.062,0.003906,-0.0,-0.01216,0.0846,-0.03818,112.8,0.0,7.0,3.0,0.0,0.0,0.0
1738841392994274616,109.7,0.02531,6.984,3.068,-0.012245,0.000341,-0.01103,0.07635,-0.126,108.94,0.02759,6.996,3.066,0.007812,-0.0,-0.01191,0.0806,-0.03815,113.1,0.0,7.0,3.0,0.0,0.0,0.0
1738841393044275522,109.9,0.02477,6.984,3.066,-0.010925,0.000574,-0.01083,0.0737,-0.126,109.1,0.0541,6.996,3.062,0.007812,-0.0,-0.01146,0.0756,-0.03793,113.1,0.0,7.0,3.0,0.0,0.0,0.0
1738841393094255447,110.0,0.02423,6.984,3.062,-0.00942,0.000624,-0.010704,0.0707,-0.126,109.25,0.0541,6.996,3.062,0.01172,-0.0,-0.01134,0.0734,-0.03818,113.4,0.0,7.0,3.0,0.0,0.0,0.0
1738841393144261598,110.1,0.02385,6.984,3.059,-0.00806,0.001079,-0.01065,0.0687,-0.1259,109.44,0.0276,6.996,3.055,0.01172,-0.0,-0.011185,0.06976,-0.0383,113.4,0.0,7.0,3.0,0.0,0.0,0.0
1738841393194270133,110.3,0.02348,6.984,3.053,-0.00639,0.001325,-0.01063,0.06726,-0.1259,109.56,0.0276,6.996,3.05,0.01172,-0.0,-0.01116,0.06854,-0.0383,113.7,0.0,7.0,3.0,0.0,0.0,0.0
1738841393244263887,110.44,0.02321,6.99,3.047,-0.004833,0.001337,-0.01049,0.0663,-0.1257,109.75,0.0276,6.996,3.047,0.01172,-0.0,-0.01113,0.0668,-0.0384,113.7,0.0,7.0,3.0,0.0,0.0,0.0
1738841393294263124,110.6,0.023,6.99,3.041,-0.003456,0.001346,-0.0092,0.0657,-0.1257,109.9,0.02762,6.996,3.04,0.01172,-0.0,-0.01094,0.0661,-0.0382,114.0,0.0,7.0,3.0,0.0,0.0,0.0
1738841393344263315,110.75,0.02284,6.99,3.033,-0.00276,0.001409,-0.00811,0.06537,-0.1256,110.06,0.02762,6.996,3.031,0.01172,-0.0,-0.00919,0.0654,-0.03815,114.0,0.0,7.0,3.0,0.0,0.0,0.0
1738841393394276142,110.94,0.02272,6.99,3.027,-0.002203,0.001348,-0.00842,0.0652,-0.1256,110.2,0.02762,7.0,3.027,0.01172,-0.0,-0.00858,0.0652,-0.03812,114.3,0.0,7.0,3.0,0.0,0.0,0.0
1738841393444252252,111.06,0.02263,6.99,3.02,-0.00147,0.001015,-0.008995,0.0651,-0.1256,110.4,0.02762,7.0,3.02,0.01563,-0.0,-0.009094,0.065,-0.03806,114.3,0.0,7.0,3.0,0.0,0.0,0.0
1738841393494302272,111.25,0.02258,6.99,3.014,-0.000398,0.000893,-0.009544,0.06506,-0.1255,110.5,0.02762,7.0,3.012,0.01563,-0.0,-0.00952,0.06494,-0.03787,114.6,0.0,7.0,3.0,0.0,0.0,0.0
1738841393544269084,111.4,0.0226,6.99,3.008,0.000783,0.00067,-0.00991,0.0651,-0.1255,110.7,0.02763,7.0,3.004,0.01563,-0.0,-0.01013,0.065,-0.0379,114.6,0.0,7.0,3.0,0.0,0.0,0.0
1738841393594263315,111.5,0.02267,6.99,3.002,0.00217,2.3e-05,-0.01017,0.06635,-0.1255,110.75,0.02763,7.0,3.0,0.01563,-0.0,-0.01039,0.06506,-0.0379,114.9,0.0,7.0,3.0,0.0,0.0,0.0
1738841393644258499,111.7,0.0228,6.99,2.996,0.003447,-0.000577,-0.01033,0.06757,-0.1255,111.0,0.02763,7.0,2.992,0.01563,-0.0,-0.010765,0.06665,-0.03784,114.9,0.0,7.0,3.0,0.0,0.0,0.0
1738841393694264173,111.8,0.02304,6.99,2.992,0.004913,-0.000717,-0.01043,0.06866,-0.1255,111.06,0.02763,7.0,2.988,0.01563,-0.0,-0.01087,0.06757,-0.03784,115.2,0.0,7.0,3.0,0.0,0.0,0.0
1738841393744259357,111.94,0.02328,6.99,2.988,0.006023,-0.000841,-0.01048,0.0693,-0.1255,111.25,0.02763,7.0,2.984,0.01563,-0.0,-0.0108,0.0687,-0.03793,115.2,0.0,7.0,3.0,0.0,0.0,0.0
1738841393794262886,112.1,0.02362,6.99,2.984,0.00732,-0.000721,-0.01051,0.0697,-0.1255,111.4,0.02765,7.0,2.98,0.01953,-0.0,-0.0109,0.06915,-0.03796,115.5,0.0,7.0,3.0,0.0,0.0,0.0
1738841393844253301,112.25,0.024,6.99,2.98,0.00849,-0.000678,-0.01052,0.07007,-0.1255,111.56,0.02765,7.0,2.977,0.01953,-0.0,-0.01092,0.06964,-0.03812,115.5,0.0,7.0,3.0,0.0,0.0,0.0
1738841393894293785,112.44,0.02448,6.99,2.977,0.0097,-0.00033,-0.01056,0.0715,-0.1254,111.7,0.02765,7.0,2.973,0.01953,-0.0,-0.010925,0.07,-0.03812,115.8,0.0,7.0,3.0,0.0,0.0,0.0
1738841393944270849,112.56,0.02498,6.99,2.975,0.01072,-0.000233,-0.010574,0.0728,-0.1254,111.9,0.02765,7.0,2.969,0.01953,-0.0,-0.01105,0.07184,-0.03824,115.8,0.0,7.0,3.0,0.0,0.0,0.0
1738841393994286537,112.7,0.02556,6.99,2.975,0.01176,-0.000227,-0.0106,0.0738,-0.1252,111.94,0.02765,7.0,2.969,0.01953,-0.0,-0.01099,0.07275,-0.03842,116.1,0.0,7.0,3.0,0.0,0.0,0.0
1738841394044253110,112.9,0.0262,6.99,2.973,0.012726,-0.000375,-0.010605,0.0744,-0.1251,112.2,0.02766,7.0,2.965,0.02344,-0.0,-0.01101,0.0738,-0.0385,116.1,0.0,7.0,3.0,0.0,0.0,0.0
1738841394094257593,113.0,0.02689,6.99,2.97,0.013664,-0.000385,-0.01058,0.0748,-0.125,112.3,0.02766,7.0,2.965,0.02344,-0.0,-0.011024,0.07434,-0.03867,116.4,0.0,7.0,3.0,0.0,0.0,0.0
1738841394144253969,113.0,0.02689,6.99,2.97,0.013664,-0.000385,-0.01058,0.0748,-0.125,112.44,0.02766,7.0,2.965,0.02344,-0.0,-0.010956,0.07477,-0.03885,116.4,0.0,7.0,3.0,0.0,0.0,0.0
1738841394194266319,113.3,0.02827,6.99,2.97,0.01528,-0.000105,-0.01061,0.0766,-0.12476,112.56,0.02766,7.0,2.965,0.02344,-0.0,-0.01096,0.0749,-0.03894,116.7,0.0,7.0,3.0,0.0,0.0,0.0
1738841394244263172,113.44,0.02902,6.99,2.97,0.01599,-0.000125,-0.01061,0.07794,-0.12463,112.75,0.02766,7.0,2.965,0.02734,-0.0,-0.01099,0.07697,-0.03842,116.7,0.0,7.0,3.0,0.0,0.0,0.0
1738841394294296264,113.6,0.02988,6.99,2.97,0.01668,-0.000262,-0.010635,0.0789,-0.1246,112.9,0.0542,7.0,2.965,0.02734,-0.0,-0.01108,0.07794,-0.03818,117.0,0.0,7.0,3.0,0.0,0.0,0.0
1738841394344318628,113.75,0.03069,6.99,2.973,0.01727,-0.000262,-0.01061,0.0795,-0.1245,113.06,0.02768,7.0,2.965,0.02734,-0.0,-0.01101,0.07904,-0.03802,117.0,0.0,7.0,3.0,0.0,0.0,0.0
1738841394394354104,113.94,0.03162,6.99,2.975,0.01785,-0.000347,-0.01058,0.07996,-0.12445,113.1,0.02768,7.0,2.965,0.02734,-0.0,-0.01101,0.0794,-0.03793,117.3,0.0,7.0,3.0,0.0,0.0,0.0
1738841394444331169,114.06,0.03256,6.99,2.977,0.0184,-0.000394,-0.01059,0.08026,-0.1244,113.4,0.0542,7.0,2.969,0.02734,-0.0,-0.01102,0.07996,-0.03775,117.3,0.0,7.0,3.0,0.0,0.0,0.0
1738841394494342088,114.2,0.03345,6.99,2.979,0.01889,-4.4e-05,-0.010574,0.08044,-0.1244,113.44,0.0542,6.996,2.969,0.02734,-0.0,-0.01102,0.08014,-0.03778,117.6,0.0,7.0,3.0,0.0,0.0,0.0
1738841394544321298,114.4,0.03436,6.99,2.98,0.01935,0.000745,-0.01055,0.0806,-0.1244,113.6,0.0542,6.996,2.973,0.03125,-0.0,-0.01093,0.0804,-0.0377,117.6,0.0,7.0,3.0,0.0,0.0,0.0
1738841394594369888,114.5,0.03537,6.99,2.982,0.01984,0.00125,-0.01053,0.0807,-0.1244,113.75,0.0542,6.996,2.973,0.03125,-0.0,-0.01093,0.08057,-0.0376,117.9,0.0,7.0,3.0,0.0,0.0,0.0
1738841394644369840,114.6,0.03635,6.99,2.984,0.02023,0.001023,-0.010414,0.0806,-0.1244,113.94,0.0542,6.996,2.977,0.03125,-0.0,-0.01093,0.08057,-0.0376,117.9,0.0,7.0,3.0,0.0,0.0,0.0
1738841394694344282,114.8,0.03738,6.99,2.984,0.02034,0.000807,-0.009125,0.08057,-0.1244,114.06,0.0542,6.996,2.977,0.03125,-0.0,-0.01084,0.08044,-0.0376,118.2,0.0,7.0,3.0,0.0,0.0,0.0
1738841394744365215,114.94,0.03836,6.99,2.986,0.01984,0.000546,-0.00792,0.08057,-0.1244,114.25,0.05423,6.996,2.98,0.03125,-0.0,-0.00912,0.0805,-0.0375,118.2,0.0,7.0,3.0,0.0,0.0,0.0
1738841394794343471,115.06,0.0393,6.99,2.988,0.01884,9e-05,-0.007023,0.08057,-0.12445,114.4,0.05423,7.0,2.98,0.03125,-0.0,-0.00834,0.08044,-0.03757,118.5,0.0,7.0,3.0,0.0,0.0,0.0
1738841394844369173,115.25,0.04025,6.99,2.99,0.0174,-0.000397,-0.006332,0.0805,-0.12445,114.56,0.05423,7.0,2.98,0.03125,-0.0,-0.007126,0.08044,-0.03754,118.5,0.0,7.0,3.0,0.0,0.0,0.0
1738841394894333362,115.4,0.04105,6.99,2.99,0.01582,-0.000675,-0.00595,0.08057,-0.12445,114.7,0.05423,7.0,2.984,0.03125,-0.0,-0.00669,0.0804,-0.0375,118.8,0.0,7.0,3.0,0.0,0.0,0.0
1738841394944358348,115.56,0.0418,6.99,2.992,0.01398,-0.000761,-0.00568,0.08057,-0.12445,114.8,0.05423,7.0,2.984,0.02734,-0.0,-0.00626,0.08044,-0.03748,118.8,0.0,7.0,3.0,0.0,0.0,0.0
1738841394994304180,115.7,0.04248,6.99,2.994,0.01203,-0.000954,-0.005516,0.0806,-0.1245,114.94,0.05423,7.0,2.984,0.02734,-0.0,-0.00609,0.08044,-0.03748,119.1,0.0,7.0,3.0,0.0,0.0,0.0
1738841395044366598,115.8,0.04303,6.99,2.994,0.01021,-0.001231,-0.00542,0.08057,-0.1245,115.1,0.05423,7.0,2.988,0.02344,-0.0,-0.005917,0.08044,-0.03748,119.1,0.0,7.0,3.0,0.0,0.0,0.0
1738841395094329595,116.0,0.04346,6.99,2.996,0.00836,-0.001176,-0.005363,0.0806,-0.1245,115.25,0.05423,7.0,2.988,0.02344,-0.0,-0.00583,0.08057,-0.03748,119.4,0.0,7.0,3.0,0.0,0.0,0.0
1738841395144360303,116.1,0.04385,6.99,2.998,0.006367,-0.000984,-0.005356,0.0807,-0.1246,115.44,0.05423,7.0,2.988,0.01953,-0.0,-0.00574,0.08044,-0.03748,119.4,0.0,7.0,3.0,0.0,0.0,0.0
1738841395194327592,116.3,0.04413,6.984,2.998,0.004395,-0.001145,-0.005344,0.0807,-0.12463,115.56,0.05423,7.0,2.992,0.01953,-0.0,-0.005745,0.0806,-0.03748,119.7,0.0,7.0,3.0,0.0,0.0,0.0
1738841395244355678,116.44,0.04428,6.984,3.0,0.002584,-0.001171,-0.005325,0.0807,-0.12463,115.75,0.05426,7.0,2.992,0.01563,-0.0,-0.00583,0.08057,-0.03748,119.7,0.0,7.0,3.0,0.0,0.0,0.0
1738841395294315338,116.56,0.04437,6.984,3.002,0.000784,-0.000921,-0.00531,0.0807,-0.1247,115.9,0.05426,7.0,2.996,0.01563,-0.0,-0.00574,0.08044,-0.03748,120.0,0.0,7.0,3.0,0.0,0.0,0.0
1738841395344299077,116.75,0.04434,6.984,3.002,-0.001286,-0.000605,-0.005337,0.08057,-0.1247,116.06,0.05426,6.996,2.996,0.01172,-0.0,-0.005745,0.0806,-0.03748,120.0,0.0,7.0,3.0,0.0,0.0,0.0
1738841395394302606,116.9,0.04425,6.984,3.004,-0.002995,-0.000273,-0.005352,0.07935,-0.12476,116.1,0.05426,6.996,2.996,0.01172,-0.0,-0.00574,0.08044,-0.03748,120.3,0.0,7.0,3.0,0.0,0.0,0.0
1738841395444323301,117.06,0.04407,6.984,3.004,-0.004585,0.000161,-0.00536,0.07806,-0.12476,116.3,0.05426,6.996,3.0,0.01172,-0.0,-0.00571,0.07874,-0.03748,120.3,0.0,7.0,3.0,0.0,0.0,0.0
1738841395494283676,117.2,0.04382,6.984,3.004,-0.0061,0.000344,-0.005367,0.07715,-0.1248,116.44,0.05426,6.996,3.0,0.007812,-0.0,-0.005775,0.07776,-0.03738,120.6,0.0,7.0,3.0,0.0,0.0,0.0
1738841395544367313,117.3,0.04346,6.984,3.002,-0.00767,0.000581,-0.005375,0.0764,-0.12494,116.6,0.05426,6.996,2.996,0.007812,-0.0,-0.00575,0.0766,-0.0373,120.6,0.0,7.0,3.0,0.0,0.0,0.0
1738841395594332218,117.5,0.043,6.984,3.002,-0.009186,0.00071,-0.00535,0.076,-0.12494,116.75,0.05426,6.996,2.996,0.003906,-0.0,-0.005737,0.07623,-0.0372,120.9,0.0,7.0,3.0,0.0,0.0,0.0
1738841395644365310,117.6,0.04254,6.984,3.0,-0.01053,0.00076,-0.005474,0.0757,-0.125,116.94,0.05426,6.996,2.996,0.003906,-0.0,-0.005726,0.07574,-0.0371,120.9,0.0,7.0,3.0,0.0,0.0,0.0
1738841395694344997,117.8,0.04196,6.984,2.998,-0.01161,0.00103,-0.006783,0.07556,-0.1251,117.06,0.0543,6.996,2.996,0.003906,-0.0,-0.005894,0.07556,-0.03702,121.2,0.0,7.0,3.0,0.0,0.0,0.0
1738841395744336843,117.94,0.04138,6.99,2.998,-0.01199,0.001293,-0.008,0.0755,-0.1252,117.25,0.0543,6.996,2.992,0.0,-0.0,-0.007523,0.07544,-0.03683,121.2,0.0,7.0,3.0,0.0,0.0,0.0
1738841395794320821,118.06,0.0408,6.99,2.996,-0.01188,0.001683,-0.008896,0.0755,-0.1254,117.4,0.0543,6.996,2.992,0.0,-0.0,-0.00839,0.0754,-0.03687,121.5,0.0,7.0,3.0,0.0,0.0,0.0
1738841395844340562,118.25,0.04022,6.99,2.996,-0.01137,0.001654,-0.009575,0.07544,-0.1255,117.56,0.0543,6.996,2.992,0.0,-0.0,-0.00959,0.0754,-0.03674,121.5,0.0,7.0,3.0,0.0,0.0,0.0
1738841395894336462,118.4,0.03967,6.99,2.994,-0.01066,0.00124,-0.00996,0.0754,-0.1256,117.7,0.0543,6.996,2.992,0.0,-0.0,-0.010025,0.0753,-0.03674,121.8,0.0,7.0,3.0,0.0,0.0,0.0
1738841395944349288,118.56,0.03915,6.99,2.994,-0.009735,0.000761,-0.010216,0.0753,-0.1257,117.9,0.0543,6.996,2.988,0.0,-0.0,-0.010475,0.0752,-0.0373,121.8,0.0,7.0,3.0,0.0,0.0,0.0
1738841395994370698,118.7,0.0387,6.99,2.992,-0.00881,0.000486,-0.01034,0.0753,-0.1259,117.94,0.0543,7.0,2.988,0.003906,-0.0,-0.01057,0.07513,-0.03745,122.1,0.0,7.0,3.0,0.0,0.0,0.0
1738841396044358491,118.8,0.03827,6.99,2.992,-0.007774,6.3e-05,-0.01044,0.0753,-0.1259,118.1,0.0543,7.0,2.988,0.003906,-0.0,-0.01076,0.07526,-0.038,122.1,0.0,7.0,3.0,0.0,0.0,0.0
1738841396094352722,119.0,0.03793,6.99,2.99,-0.006786,-0.00059,-0.0105,0.0753,-0.1259,118.25,0.0543,7.0,2.988,0.003906,-0.0,-0.01085,0.0752,-0.03815,122.4,0.0,7.0,3.0,0.0,0.0,0.0
1738841396144382238,119.1,0.0376,6.99,2.99,-0.0057,-0.000929,-0.01058,0.0753,-0.1259,118.44,0.0543,7.0,2.984,0.003906,-0.0,-0.010864,0.0752,-0.0385,122.4,0.0,7.0,3.0,0.0,0.0,0.0
1738841396194356203,119.3,0.03735,6.99,2.988,-0.004673,-0.000928,-0.01061,0.0754,-0.1257,118.56,0.05432,7.0,2.984,0.007812,-0.0,-0.01096,0.07526,-0.0387,122.7,0.0,7.0,3.0,0.0,0.0,0.0
1738841396244366168,119.44,0.03714,6.99,2.988,-0.003572,-0.000678,-0.01063,0.07544,-0.1256,118.75,0.05432,7.0,2.984,0.007812,-0.0,-0.011055,0.0754,-0.03894,122.7,0.0,7.0,3.0,0.0,0.0,0.0
1738841396294359922,119.56,0.037,6.99,2.986,-0.002546,-0.000435,-0.01065,0.07544,-0.1255,118.9,0.05432,7.0,2.984,0.007812,-0.0,-0.011055,0.0754,-0.0388,123.0,0.0,7.0,3.0,0.0,0.0,0.0
1738841396344370365,119.75,0.0369,6.99,2.986,-0.001446,-4.5e-05,-0.01064,0.07556,-0.1255,119.06,0.05432,6.996,2.98,0.007812,-0.0,-0.01104,0.0754,-0.03842,123.0,0.0,7.0,3.0,0.0,0.0,0.0
1738841396394362926,119.9,0.03683,6.99,2.986,-0.000386,0.000361,-0.01067,0.0768,-0.1254,119.1,0.05432,6.996,2.98,0.01172,-0.0,-0.01103,0.0755,-0.03827,123.3,0.0,7.0,3.0,0.0,0.0,0.0
1738841396444382190,120.06,0.03683,6.99,2.986,0.000503,0.000288,-0.010666,0.078,-0.1254,119.4,0.05432,7.0,2.98,0.01172,-0.0,-0.011055,0.0771,-0.03793,123.3,0.0,7.0,3.0,0.0,0.0,0.0
1738841396494369506,120.2,0.0369,6.99,2.986,0.001322,-4.8e-05,-0.01064,0.07886,-0.1252,119.44,0.05432,7.0,2.98,0.01172,-0.0,-0.01107,0.0781,-0.03784,123.6,0.0,7.0,3.0,0.0,0.0,0.0
1738841396544362306,120.3,0.037,6.99,2.988,0.00214,-0.000169,-0.01066,0.0795,-0.1254,119.6,0.05432,7.0,2.98,0.01172,-0.0,-0.010994,0.0791,-0.03766,123.6,0.0,7.0,3.0,0.0,0.0,0.0
1738841396594329595,120.5,0.0371,6.99,2.988,0.002863,-0.00053,-0.010666,0.0799,-0.1254,119.75,0.05432,7.0,2.98,0.01172,-0.0,-0.011,0.0794,-0.03766,123.9,0.0,7.0,3.0,0.0,0.0,0.0
1738841396644362211,120.6,0.03726,6.99,2.99,0.003613,-0.000774,-0.010666,0.0802,-0.1254,119.94,0.05435,7.0,2.984,0.01563,-0.0,-0.01101,0.07996,-0.0376,123.9,0.0,7.0,3.0,0.0,0.0,0.0
1738841396694343090,120.75,0.03748,6.99,2.992,0.00429,-0.00098,-0.01066,0.0803,-0.1254,120.06,0.05435,7.0,2.984,0.01563,-0.0,-0.01101,0.08014,-0.0376,124.2,0.0,7.0,3.0,0.0,0.0,0.0
1738841396744373798,120.94,0.0377,6.99,2.994,0.00498,-0.001324,-0.01055,0.08044,-0.1254,120.25,0.05435,7.0,2.988,0.01563,-0.0,-0.01102,0.08026,-0.0376,124.2,0.0,7.0,3.0,0.0,0.0,0.0
1738841396794363021,121.06,0.03796,6.984,2.994,0.005314,-0.001468,-0.009384,0.08044,-0.1255,120.3,0.05435,7.0,2.988,0.01563,-0.0,-0.01093,0.0804,-0.0376,124.5,0.0,7.0,3.0,0.0,0.0,0.0
1738841396844387292,121.25,0.0382,6.984,2.996,0.00502,-0.001592,-0.00806,0.0804,-0.1255,120.56,0.05435,7.0,2.988,0.01563,-0.0,-0.0092,0.0804,-0.0376,124.5,0.0,7.0,3.0,0.0,0.0,0.0
1738841396894358158,121.4,0.03845,6.984,2.998,0.004272,-0.001658,-0.00717,0.0793,-0.1255,120.7,0.05435,7.0,2.992,0.01563,-0.0,-0.00833,0.08026,-0.03757,124.8,0.0,7.0,3.0,0.0,0.0,0.0
1738841396944345235,121.5,0.03864,6.984,2.998,0.00318,-0.001436,-0.00653,0.07794,-0.1256,120.9,0.05435,7.0,2.992,0.01563,-0.0,-0.00718,0.0786,-0.0375,124.8,0.0,7.0,3.0,0.0,0.0,0.0
1738841396994344949,121.7,0.03876,6.984,2.998,0.001999,-0.001082,-0.006134,0.0771,-0.1256,120.94,0.05435,7.0,2.992,0.01563,-0.0,-0.006905,0.0779,-0.0375,125.1,0.0,7.0,3.0,0.0,0.0,0.0
1738841397044359207,121.8,0.03882,6.984,2.996,0.000613,-0.000631,-0.005856,0.0764,-0.1256,121.1,0.05435,6.996,2.992,0.01172,-0.0,-0.006275,0.0767,-0.03738,125.1,0.0,7.0,3.0,0.0,0.0,0.0
1738841397094347715,122.0,0.03882,6.984,2.996,-0.000719,-0.000352,-0.005707,0.076,-0.1257,121.25,0.05438,7.0,2.992,0.01172,-0.0,-0.006176,0.0763,-0.0373,125.4,0.0,7.0,3.0,0.0,0.0,0.0
1738841397144364356,122.1,0.03876,6.984,2.994,-0.002188,-4.6e-05,-0.005615,0.07574,-0.1259,121.44,0.05438,6.996,2.992,0.007812,-0.0,-0.005985,0.0758,-0.0371,125.4,0.0,7.0,3.0,0.0,0.0,0.0
1738841397194344997,122.25,0.0386,6.984,2.994,-0.003551,0.000233,-0.005573,0.07556,-0.1259,121.56,0.05438,6.996,2.988,0.007812,-0.0,-0.00598,0.0756,-0.0371,125.7,0.0,7.0,3.0,0.0,0.0,0.0
1738841397244354009,122.44,0.0384,6.984,2.992,-0.00499,0.000384,-0.00567,0.07544,-0.126,121.75,0.05438,6.996,2.988,0.007812,-0.0,-0.00581,0.07544,-0.0372,125.7,0.0,7.0,3.0,0.0,0.0,0.0
1738841397294365167,122.56,0.03812,6.984,2.99,-0.00603,0.000437,-0.006805,0.0754,-0.1261,121.9,0.05438,6.996,2.988,0.007812,-0.0,-0.00608,0.0754,-0.03754,126.0,0.0,7.0,3.0,0.0,0.0,0.0
1738841397344397783,122.75,0.03778,6.984,2.99,-0.0065,0.000729,-0.00812,0.07544,-0.1261,122.06,0.05438,6.996,2.988,0.003906,-0.0,-0.007652,0.0753,-0.03796,126.0,0.0,7.0,3.0,0.0,0.0,0.0
1738841397394330024,122.9,0.03748,6.984,2.99,-0.006462,0.000902,-0.009026,0.0766,-0.1261,122.1,0.05438,6.996,2.984,0.003906,-0.0,-0.00844,0.0754,-0.03815,126.3,0.0,7.0,3.0,0.0,0.0,0.0
1738841397444282531,123.0,0.03717,6.984,2.99,-0.006092,0.000746,-0.0097,0.0778,-0.1261,122.3,0.05438,6.996,2.984,0.003906,-0.0,-0.009674,0.0771,-0.03802,126.3,0.0,7.0,3.0,0.0,0.0,0.0
1738841397494261980,123.2,0.03687,6.984,2.99,-0.005543,0.000747,-0.01009,0.0776,-0.1261,122.44,0.05438,6.996,2.984,0.003906,-0.0,-0.01012,0.0779,-0.03787,126.6,0.0,7.0,3.0,0.0,0.0,0.0
1738841397544258594,123.3,0.03662,6.984,2.99,-0.004745,0.000949,-0.01039,0.0771,-0.1261,122.6,0.0544,6.996,2.984,0.003906,-0.0,-0.01061,0.07715,-0.03772,126.6,0.0,7.0,3.0,0.0,0.0,0.0
1738841397594256162,123.5,0.0364,6.984,2.99,-0.00391,0.00096,-0.01056,0.0778,-0.1261,122.75,0.0544,6.996,2.984,0.003906,-0.0,-0.01078,0.077,-0.03766,126.9,0.0,7.0,3.0,0.0,0.0,0.0
1738841397644258499,123.6,0.03622,6.984,2.99,-0.003014,0.00053,-0.01066,0.0787,-0.1262,122.94,0.0544,6.996,2.984,0.007812,-0.0,-0.01088,0.0781,-0.03748,126.9,0.0,7.0,3.0,0.0,0.0,0.0
1738841397694262266,123.75,0.0361,6.984,2.99,-0.002201,0.00038,-0.01073,0.0792,-0.1262,123.06,0.0544,6.996,2.984,0.007812,-0.0,-0.01098,0.07874,-0.0375,127.2,0.0,7.0,3.0,0.0,0.0,0.0
1738841397744265317,123.94,0.036,6.984,2.992,-0.001396,0.000701,-0.01079,0.0798,-0.1262,123.25,0.0544,6.996,2.988,0.007812,-0.0,-0.010994,0.0794,-0.0375,127.2,0.0,7.0,3.0,0.0,0.0,0.0
1738841397794261932,124.06,0.03595,6.984,2.994,-0.000556,0.000749,-0.010796,0.08014,-0.1263,123.3,0.0544,6.996,2.988,0.007812,-0.0,-0.011086,0.07965,-0.0375,127.5,0.0,7.0,3.0,0.0,0.0,0.0
1738841397844268798,124.25,0.03595,6.99,2.994,0.000264,0.000392,-0.010796,0.0801,-0.1263,123.5,0.0544,6.996,2.988,0.01172,-0.0,-0.01109,0.0802,-0.0375,127.5,0.0,7.0,3.0,0.0,0.0,0.0
1738841397894266605,124.4,0.03598,6.99,2.996,0.001039,0.000227,-0.01078,0.0789,-0.1265,123.6,0.0544,6.996,2.992,0.01172,-0.0,-0.011086,0.07983,-0.0375,127.8,0.0,7.0,3.0,0.0,0.0,0.0
1738841397944260597,124.5,0.03607,6.99,2.996,0.001953,0.000321,-0.01079,0.0778,-0.1265,123.8,0.0544,6.996,2.992,0.01172,-0.0,-0.01115,0.0782,-0.0375,127.8,0.0,7.0,3.0,0.0,0.0,0.0
1738841397994258165,124.7,0.0362,6.99,2.996,0.002817,0.000136,-0.01082,0.07825,-0.1266,123.94,0.05444,7.0,2.992,0.01172,-0.0,-0.01105,0.07776,-0.0374,128.1,0.0,7.0,3.0,0.0,0.0,0.0
1738841398044254779,124.8,0.03635,6.99,2.998,0.003689,-0.0001,-0.0108,0.0789,-0.1266,124.1,0.05444,7.0,2.992,0.01563,-0.0,-0.01115,0.07837,-0.0374,128.1,0.0,7.0,3.0,0.0,0.0,0.0
1738841398094282388,124.94,0.03656,6.99,2.998,0.00446,-0.000206,-0.01082,0.0794,-0.1267,124.25,0.05444,7.0,2.992,0.01563,-0.0,-0.011154,0.0789,-0.03732,128.4,0.0,7.0,3.0,0.0,0.0,0.0
1738841398144294738,125.1,0.0368,6.99,3.0,0.005222,-0.000317,-0.01072,0.07983,-0.1268,124.44,0.05444,7.0,2.992,0.01563,-0.0,-0.01108,0.0795,-0.0374,128.4,0.0,7.0,3.0,0.0,0.0,0.0
1738841398194269657,125.25,0.03705,6.99,3.0,0.00562,-0.000521,-0.00957,0.08014,-0.1268,124.56,0.05444,7.0,2.996,0.01563,-0.0,-0.011,0.0798,-0.0374,128.8,0.0,7.0,3.0,0.0,0.0,0.0
1738841398244297504,125.44,0.03735,6.984,3.002,0.00538,-0.000573,-0.00824,0.08014,-0.127,124.75,0.05444,7.0,2.996,0.01563,-0.0,-0.00928,0.08014,-0.03745,128.8,0.0,7.0,3.0,0.0,0.0,0.0
1738841398294290065,125.56,0.0376,6.984,3.002,0.004673,-0.000795,-0.007317,0.079,-0.1271,124.9,0.05444,7.0,2.996,0.01563,-0.0,-0.008415,0.07996,-0.03748,129.0,0.0,7.0,3.0,0.0,0.0,0.0
1738841398344276428,125.75,0.0378,6.984,3.002,0.003597,-0.000768,-0.00665,0.0777,-0.1271,125.06,0.05444,7.0,2.996,0.01563,-0.0,-0.007256,0.0782,-0.0375,129.0,0.0,7.0,3.0,0.0,0.0,0.0
1738841398394268274,125.9,0.03796,6.984,3.002,0.002436,-0.000664,-0.006264,0.0769,-0.1272,125.1,0.05444,7.0,2.996,0.01563,-0.0,-0.00698,0.0776,-0.0374,129.2,0.0,7.0,3.0,0.0,0.0,0.0
1738841398444270372,126.0,0.03806,6.984,3.002,0.001074,-0.000706,-0.006004,0.07623,-0.1272,125.3,0.05447,7.0,2.996,0.01172,-0.0,-0.006443,0.07654,-0.03738,129.2,0.0,7.0,3.0,0.0,0.0,0.0
1738841398494308710,126.2,0.03806,6.984,3.0,-0.000241,-0.000574,-0.005856,0.07587,-0.1273,125.44,0.05447,7.0,2.996,0.01172,-0.0,-0.006344,0.0761,-0.0373,129.6,0.0,7.0,3.0,0.0,0.0,0.0
1738841398544285297,126.3,0.03802,6.984,2.998,-0.001654,-0.000116,-0.00594,0.0757,-0.1274,125.6,0.05447,6.996,2.996,0.01172,-0.0,-0.006096,0.0757,-0.0378,129.6,0.0,7.0,3.0,0.0,0.0,0.0
1738841398594303369,126.44,0.0379,6.984,2.998,-0.002651,0.000226,-0.00713,0.07556,-0.1274,125.75,0.05447,6.996,2.996,0.007812,-0.0,-0.00619,0.0756,-0.0381,129.9,0.0,7.0,3.0,0.0,0.0,0.0
1738841398644279956,126.6,0.03775,6.984,2.996,-0.003065,0.000461,-0.00839,0.07544,-0.1274,125.94,0.05447,6.996,2.992,0.007812,-0.0,-0.00793,0.07544,-0.0384,129.9,0.0,7.0,3.0,0.0,0.0,0.0
1738841398694314479,126.75,0.0376,6.984,2.996,-0.002956,0.000488,-0.009254,0.0754,-0.1273,126.06,0.05447,6.996,2.992,0.007812,-0.0,-0.008804,0.0754,-0.0387,130.2,0.0,7.0,3.0,0.0,0.0,0.0
1738841398744271755,126.94,0.03748,6.984,2.994,-0.00244,0.000349,-0.00991,0.0753,-0.1272,126.25,0.05447,7.0,2.992,0.007812,-0.0,-0.00993,0.07526,-0.0389,130.2,0.0,7.0,3.0,0.0,0.0,0.0
1738841398794301986,127.06,0.03735,6.984,2.994,-0.001722,0.000114,-0.01029,0.07526,-0.1271,126.3,0.05447,7.0,2.992,0.007812,-0.0,-0.0102,0.0752,-0.0391,130.5,0.0,7.0,3.0,0.0,0.0,0.0
1738841398844296455,127.2,0.0373,6.984,2.992,-0.00086,-0.000262,-0.01055,0.0752,-0.127,126.56,0.05447,7.0,2.988,0.007812,-0.0,-0.01072,0.0752,-0.03928,130.5,0.0,7.0,3.0,0.0,0.0,0.0
1738841398894295454,127.4,0.0373,6.984,2.992,0.000178,-0.000583,-0.01072,0.07526,-0.1268,126.6,0.0545,7.0,2.988,0.01172,-0.0,-0.010895,0.0752,-0.03928,130.8,0.0,7.0,3.0,0.0,0.0,0.0
1738841398944312095,127.5,0.03732,6.984,2.99,0.001194,-0.000884,-0.01081,0.0754,-0.1266,126.8,0.0545,7.0,2.988,0.01172,-0.0,-0.01108,0.0752,-0.03946,130.8,0.0,7.0,3.0,0.0,0.0,0.0
1738841398994304418,127.7,0.0374,6.984,2.99,0.002274,-0.000961,-0.01087,0.07666,-0.1265,126.94,0.0545,7.0,2.984,0.01172,-0.0,-0.01108,0.0753,-0.03946,131.1,0.0,7.0,3.0,0.0,0.0,0.0
1738841399044320344,127.8,0.03757,6.984,2.99,0.00328,-0.000939,-0.010895,0.07806,-0.1262,127.1,0.0545,7.0,2.984,0.01172,-0.0,-0.011185,0.07715,-0.03912,131.1,0.0,7.0,3.0,0.0,0.0,0.0
1738841399094372034,127.94,0.03775,6.984,2.99,0.004147,-0.000801,-0.0109,0.079,-0.1261,127.25,0.0545,7.0,2.984,0.01563,-0.0,-0.0112,0.0782,-0.03888,131.4,0.0,7.0,3.0,0.0,0.0,0.0
1738841399144368410,128.1,0.03796,6.984,2.992,0.004967,-0.000632,-0.010925,0.0796,-0.126,127.44,0.0545,7.0,2.988,0.01563,-0.0,-0.01121,0.0792,-0.03854,131.4,0.0,7.0,3.0,0.0,0.0,0.0
1738841399194404602,128.2,0.03824,6.984,2.992,0.00581,-0.000629,-0.010895,0.08,-0.1259,127.5,0.0545,7.0,2.988,0.01563,-0.0,-0.01121,0.0796,-0.03845,131.8,0.0,7.0,3.0,0.0,0.0,0.0
1738841399244369745,128.4,0.03854,6.984,2.994,0.006622,-0.000787,-0.010864,0.0802,-0.1257,127.75,0.0545,7.0,2.988,0.01563,-0.0,-0.01112,0.08,-0.0383,131.8,0.0,7.0,3.0,0.0,0.0,0.0
