time,x_sphinx,y_sphinx,z_sphinx,vx_sphinx,vy_sphinx,vz_sphinx,roll_sphinx,pitch_sphinx,yaw_sphinx,x_anafi,y_anafi,z_anafi,vx_anafi,vy_anafi,vz_anafi,roll_anafi,pitch_anafi,yaw_anafi,wp_x,wp_y,wp_z,wp_vx,wp_vy,wp_vz,wp_yaw
1738834021365123271,58.6,0.0881,7.0,2.004,-0.001831,0.000396,0.000802,0.0469,0.003359,58.22,0.05365,6.996,2.004,-0.007812,-0.0,0.002872,0.04623,0.0346,58.6,0.0,7.0,2.0,0.0,0.0,0.0
1738834021415116548,58.72,0.08795,7.0,2.004,-0.002323,-0.000546,0.001795,0.04645,0.003277,58.3,0.05365,7.0,2.004,-0.007812,-0.0,0.003473,0.04596,0.0346,58.6,0.0,7.0,2.0,0.0,0.0,0.0
1738834021465077877,58.8,0.0878,7.0,2.004,-0.003166,-0.000951,0.002447,0.0457,0.003166,58.34,0.05365,7.0,2.004,-0.007812,-0.0,0.003983,0.04544,0.03464,58.8,0.0,7.0,2.0,0.0,0.0,0.0
1738834021515100479,58.9,0.08765,7.0,2.002,-0.004353,-0.000975,0.002901,0.04626,0.00309,58.5,0.05365,6.996,2.004,-0.01172,-0.0,0.00475,0.04517,0.0345,58.8,0.0,7.0,2.0,0.0,0.0,0.0
1738834021565258979,59.03,0.08734,7.0,2.002,-0.005714,-0.000926,0.003202,0.0472,0.00299,58.62,0.05365,6.996,2.004,-0.01172,-0.0,0.00512,0.04654,0.0345,59.0,0.0,7.0,2.0,0.0,0.0,0.0
1738834021615220069,59.12,0.08704,7.0,2.004,-0.007072,-0.000714,0.00338,0.04675,0.002916,58.7,0.05365,6.996,2.004,-0.01172,-0.0,0.005287,0.04617,0.0345,59.0,0.0,7.0,2.0,0.0,0.0,0.0
1738834021665201425,59.22,0.0867,7.0,2.004,-0.00849,-9.8e-05,0.003487,0.04596,0.002829,58.75,0.05365,6.996,2.004,-0.01172,-0.0,0.005363,0.04575,0.0344,59.2,0.0,7.0,2.0,0.0,0.0,0.0
1738834021715129137,59.3,0.0862,7.0,2.002,-0.01004,0.000592,0.003544,0.04645,0.002762,58.88,0.05365,6.996,2.004,-0.01563,-0.0,0.005527,0.0454,0.03433,59.2,0.0,7.0,2.0,0.0,0.0,0.0
1738834021765105009,59.4,0.0857,7.0,2.002,-0.01149,0.000711,0.003586,0.0472,0.002703,59.0,0.05365,6.996,2.004,-0.01563,-0.0,0.005547,0.04645,0.03433,59.4,0.0,7.0,2.0,0.0,0.0,0.0
1738834021815102815,59.5,0.0851,7.0,2.004,-0.01293,0.000574,0.003622,0.04675,0.002632,59.1,0.05365,6.996,2.004,-0.01953,-0.0,0.00563,0.04617,0.03433,59.4,0.0,7.0,2.0,0.0,0.0,0.0
1738834021865149259,59.6,0.08435,7.0,2.004,-0.01449,0.000613,0.00358,0.0458,0.002548,59.16,0.05365,6.996,2.004,-0.01953,-0.0,0.00553,0.0456,0.03433,59.6,0.0,7.0,2.0,0.0,0.0,0.0
1738834021915153741,59.72,0.0836,7.0,2.002,-0.01575,0.00072,0.002447,0.04514,0.002499,59.28,0.05365,6.996,2.004,-0.01953,-0.0,0.00491,0.04465,0.0343,59.6,0.0,7.0,2.0,0.0,0.0,0.0
1738834021965197563,59.8,0.0828,7.0,2.002,-0.0163,0.000751,0.001179,0.04474,0.002441,59.4,0.05365,6.996,2.0,-0.01953,-0.0,0.003,0.04398,0.03433,59.8,0.0,7.0,2.0,0.0,0.0,0.0
1738834022015174627,59.9,0.08203,7.0,2.0,-0.01634,0.000706,0.000248,0.04544,0.002357,59.5,0.05365,6.996,2.0,-0.01953,-0.0,0.00232,0.04453,0.03433,59.8,0.0,7.0,2.0,0.0,0.0,0.0
1738834022065209865,60.0,0.0812,7.0,2.0,-0.01598,9.1e-05,-0.000461,0.0466,0.002295,59.56,0.05365,6.996,2.0,-0.01953,-0.0,0.001814,0.0452,0.0344,60.0,0.0,7.0,2.0,0.0,0.0,0.0
1738834022115163326,60.12,0.0804,7.0,2.0,-0.01532,-0.000148,-0.000918,0.04636,0.00222,59.7,0.05365,6.996,2.0,-0.01953,-0.0,0.001135,0.04593,0.0344,60.0,0.0,7.0,2.0,0.0,0.0,0.0
1738834022165194272,60.22,0.07965,7.0,2.0,-0.01455,0.000205,-0.001187,0.04575,0.002157,59.8,0.05365,6.996,2.0,-0.01953,-0.0,0.000687,0.04498,0.0344,60.2,0.0,7.0,2.0,0.0,0.0,0.0
1738834022215170145,60.3,0.0789,7.0,2.0,-0.01361,0.000116,-0.001375,0.04633,0.00205,59.88,0.05365,6.996,2.0,-0.01953,-0.0,0.00052,0.04532,0.03436,60.2,0.0,7.0,2.0,0.0,0.0,0.0
1738834022265200614,60.4,0.0783,7.0,2.0,-0.01269,-0.000363,-0.001466,0.04718,0.001968,59.97,0.05365,6.996,2.0,-0.01563,-0.0,0.0004442,0.04593,0.03436,60.4,0.0,7.0,2.0,0.0,0.0,0.0
1738834022315210819,60.5,0.07764,7.0,2.0,-0.01167,-0.000723,-0.00153,0.04785,0.001892,60.1,0.05365,7.0,2.0,-0.01563,-0.0,0.00037,0.04688,0.0342,60.4,0.0,7.0,2.0,0.0,0.0,0.0
1738834022365529060,60.62,0.0771,7.0,2.002,-0.01063,-0.001152,-0.001589,0.04834,0.001818,60.22,0.05365,7.0,2.0,-0.01563,-0.0,0.000382,0.04758,0.0342,60.6,0.0,7.0,2.0,0.0,0.0,0.0
1738834022415100336,60.72,0.0766,7.0,2.002,-0.009674,-0.001168,-0.001591,0.04868,0.001758,60.28,0.05365,6.996,2.0,-0.01172,-0.0,0.000298,0.04782,0.03412,60.6,0.0,7.0,2.0,0.0,0.0,0.0
1738834022465138673,60.8,0.0762,7.0,2.004,-0.00872,-0.000679,-0.00158,0.04892,0.0017,60.34,0.05365,6.996,2.0,-0.01172,-0.0,0.000301,0.048,0.03412,60.8,0.0,7.0,2.0,0.0,0.0,0.0
1738834022515140771,60.9,0.07574,7.0,2.006,-0.007717,-0.000409,-0.001558,0.0491,0.001661,60.47,0.05365,6.996,2.004,-0.01172,-0.0,0.0003026,0.04834,0.03394,60.8,0.0,7.0,2.0,0.0,0.0,0.0
1738834022565191507,61.0,0.0754,7.0,2.006,-0.006805,-0.000314,-0.001547,0.0491,0.001611,60.56,0.05365,6.996,2.004,-0.01172,-0.0,0.0003026,0.04834,0.03394,61.0,0.0,7.0,2.0,0.0,0.0,0.0
1738834022615137338,61.1,0.0751,7.0,2.008,-0.005913,-0.000432,-0.001561,0.0491,0.001592,60.7,0.05365,6.996,2.004,-0.007812,-0.0,0.0003004,0.04834,0.03384,61.0,0.0,7.0,2.0,0.0,0.0,0.0
1738834022665131092,61.22,0.07477,7.0,2.008,-0.004948,-0.000282,-0.001541,0.04904,0.001567,60.75,0.05368,6.996,2.004,-0.007812,-0.0,0.0003004,0.04834,0.03384,61.2,0.0,7.0,2.0,0.0,0.0,0.0
1738834022715116500,61.3,0.0746,7.0,2.01,-0.004307,-0.00019,-0.000514,0.0481,0.001569,60.88,0.05368,6.996,2.008,-0.007812,-0.0,0.000893,0.04773,0.03378,61.2,0.0,7.0,2.0,0.0,0.0,0.0
1738834022765221357,61.4,0.07434,7.0,2.01,-0.00424,-0.000111,0.000845,0.04672,0.001531,61.03,0.05368,6.996,2.008,-0.007812,-0.0,0.002848,0.0459,0.03375,61.4,0.0,7.0,2.0,0.0,0.0,0.0
1738834022815124034,61.53,0.0741,7.0,2.01,-0.004776,-5.8e-05,0.001842,0.04688,0.001528,61.1,0.05368,6.996,2.008,-0.007812,-0.0,0.003456,0.04596,0.03394,61.4,0.0,7.0,2.0,0.0,0.0,0.0
1738834022865087985,61.62,0.07385,7.0,2.01,-0.00565,2.9e-05,0.002516,0.04758,0.001498,61.16,0.05368,6.996,2.008,-0.007812,-0.0,0.003983,0.0463,0.03394,61.6,0.0,7.0,2.0,0.0,0.0,0.0
1738834022915127515,61.72,0.07355,7.0,2.01,-0.00689,0.000284,0.002998,0.04813,0.001484,61.28,0.05368,6.996,2.008,-0.007812,-0.0,0.004684,0.04715,0.03387,61.6,0.0,7.0,2.0,0.0,0.0,0.0
1738834022965219736,61.8,0.0732,7.0,2.012,-0.008194,0.000492,0.003275,0.0485,0.001451,61.44,0.05368,6.996,2.008,-0.01172,-0.0,0.005123,0.04776,0.03378,61.8,0.0,7.0,2.0,0.0,0.0,0.0
1738834023015111446,61.9,0.07275,7.0,2.012,-0.00959,0.000849,0.00347,0.04776,0.001451,61.5,0.05368,6.996,2.008,-0.01172,-0.0,0.005287,0.0472,0.0338,61.8,0.0,7.0,2.0,0.0,0.0,0.0
1738834023065093517,62.0,0.0722,7.0,2.012,-0.01117,0.001116,0.003574,0.0465,0.001426,61.56,0.05368,6.996,2.008,-0.01172,-0.0,0.005363,0.04645,0.0338,62.0,0.0,7.0,2.0,0.0,0.0,0.0
1738834023115140914,62.12,0.0716,7.0,2.012,-0.01277,0.000765,0.003635,0.04556,0.00141,61.7,0.05368,6.996,2.008,-0.01563,-0.0,0.00543,0.04514,0.03387,62.0,0.0,7.0,2.0,0.0,0.0,0.0
1738834023165288448,62.22,0.071,7.0,2.012,-0.01413,0.000487,0.003683,0.04498,0.001408,61.84,0.05368,6.996,2.008,-0.01563,-0.0,0.0055,0.0442,0.03397,62.2,0.0,7.0,2.0,0.0,0.0,0.0
1738834023215143442,62.3,0.07025,7.0,2.01,-0.01573,0.000162,0.003696,0.04456,0.001356,61.9,0.05368,6.996,2.008,-0.01563,-0.0,0.005497,0.04385,0.03406,62.2,0.0,7.0,2.0,0.0,0.0,0.0
1738834023265090227,62.4,0.06934,7.0,2.008,-0.01732,-5e-05,0.00364,0.0443,0.001327,61.94,0.05368,6.996,2.008,-0.01953,-0.0,0.005493,0.04367,0.03406,62.4,0.0,7.0,2.0,0.0,0.0,0.0
1738834023315126180,62.53,0.0684,7.0,2.008,-0.01857,-0.000448,0.00238,0.04416,0.001248,62.1,0.02716,7.0,2.004,-0.01953,-0.0,0.004707,0.04343,0.03387,62.4,0.0,7.0,2.0,0.0,0.0,0.0
1738834023365113973,62.62,0.0675,7.0,2.006,-0.0191,-0.000817,0.00115,0.04407,0.001247,62.16,0.02716,7.0,2.004,-0.01953,-0.0,0.00358,0.04337,0.03366,62.6,0.0,7.0,2.0,0.0,0.0,0.0
1738834023415099143,62.72,0.0665,7.0,2.006,-0.01912,-0.00122,0.000187,0.04404,0.001272,62.3,0.02718,7.0,2.004,-0.01953,-0.0,0.002272,0.0433,0.0331,62.6,0.0,7.0,2.0,0.0,0.0,0.0
1738834023465068101,62.8,0.0656,7.0,2.004,-0.01878,-0.001137,-0.000422,0.04407,0.001335,62.34,0.02718,7.0,2.0,-0.01953,-0.0,0.00175,0.0433,0.03293,62.8,0.0,7.0,2.0,0.0,0.0,0.0
1738834023515122652,62.94,0.06464,7.0,2.002,-0.01813,-0.000854,-0.000851,0.04413,0.001446,62.5,0.02718,7.0,2.0,-0.01953,-0.0,0.001053,0.04333,0.03265,62.8,0.0,7.0,2.0,0.0,0.0,0.0
1738834023565155744,63.03,0.0638,7.0,2.002,-0.0174,-0.000702,-0.001099,0.04416,0.001573,62.56,0.02718,6.996,2.0,-0.01953,-0.0,0.000877,0.04333,0.03247,63.0,0.0,7.0,2.0,0.0,0.0,0.0
1738834023615149259,63.12,0.063,7.0,2.0,-0.01656,-0.000125,-0.001258,0.04416,0.001724,62.72,0.02718,6.996,1.996,-0.01953,-0.0,0.0005403,0.04333,0.0329,63.0,0.0,7.0,2.0,0.0,0.0,0.0
1738834023665174007,63.22,0.06216,7.0,1.999,-0.01559,8.6e-05,-0.001358,0.04413,0.001841,62.75,0.02718,6.996,1.996,-0.01563,-0.0,0.0004592,0.04343,0.03308,63.2,0.0,7.0,2.0,0.0,0.0,0.0
1738834023715144157,63.3,0.06137,7.0,1.998,-0.01459,0.000207,-0.001415,0.04407,0.001943,62.9,0.02718,6.996,1.996,-0.01563,-0.0,0.000379,0.04333,0.03342,63.2,0.0,7.0,2.0,0.0,0.0,0.0
1738834023765150785,63.4,0.0607,7.0,1.997,-0.01366,5.1e-05,-0.001443,0.044,0.001995,62.97,0.02718,7.0,1.996,-0.01563,-0.0,0.000293,0.04324,0.0335,63.4,0.0,7.0,2.0,0.0,0.0,0.0
1738834023815174818,63.53,0.06,7.0,1.995,-0.01264,-0.000103,-0.001455,0.0439,0.002033,63.1,0.02718,7.0,1.992,-0.01563,-0.0,0.0003836,0.04315,0.03378,63.4,0.0,7.0,2.0,0.0,0.0,0.0
1738834023865202188,63.62,0.05948,7.0,1.994,-0.011795,-0.000127,-0.001474,0.04395,0.00204,63.16,0.02718,6.996,1.992,-0.01172,-0.0,0.0003836,0.04315,0.03378,63.6,0.0,7.0,2.0,0.0,0.0,0.0
1738834023915170192,63.72,0.05887,7.0,1.993,-0.01079,-8e-05,-0.001494,0.04514,0.002052,63.3,0.02718,6.996,1.992,-0.01172,-0.0,0.0003152,0.04413,0.03384,63.6,0.0,7.0,2.0,0.0,0.0,0.0
1738834023965184926,63.8,0.05835,7.0,1.993,-0.0098,6.8e-05,-0.001456,0.04657,0.00205,63.38,0.02718,6.996,1.992,-0.01172,-0.0,0.0003347,0.04514,0.03394,63.8,0.0,7.0,2.0,0.0,0.0,0.0
1738834024015152454,63.9,0.0579,7.0,1.994,-0.00891,0.000153,-0.001445,0.0475,0.00206,63.5,0.02719,7.0,1.992,-0.01172,-0.0,0.0003603,0.04654,0.03403,63.8,0.0,7.0,2.0,0.0,0.0,0.0
1738834024065176486,64.0,0.05746,7.0,1.994,-0.00796,-0.000236,-0.001412,0.0481,0.002031,63.56,0.02719,7.0,1.992,-0.007812,-0.0,0.000369,0.04706,0.03403,64.0,0.0,7.0,2.0,0.0,0.0,0.0
1738834024115190505,64.1,0.0571,7.0,1.995,-0.007107,-0.000227,-0.001414,0.04846,0.002014,63.7,0.02719,6.996,1.992,-0.007812,-0.0,0.0004656,0.04764,0.03403,64.0,0.0,7.0,2.0,0.0,0.0,0.0
1738834024165161371,64.2,0.05676,7.0,1.997,-0.006187,-0.000252,-0.001409,0.04877,0.001987,63.78,0.02719,6.996,1.992,-0.007812,-0.0,0.0003836,0.0479,0.03403,64.2,0.0,7.0,2.0,0.0,0.0,0.0
1738834024215171575,64.3,0.05646,7.0,1.998,-0.005295,-0.000153,-0.001387,0.04895,0.001972,63.9,0.02719,6.996,1.996,-0.007812,-0.0,0.0003846,0.0481,0.03394,64.2,0.0,7.0,2.0,0.0,0.0,0.0
1738834024265188455,64.44,0.0562,7.0,1.999,-0.004482,-0.000165,-0.001373,0.04904,0.001963,63.94,0.02719,7.0,1.996,-0.003906,-0.0,0.0003874,0.04825,0.03394,64.4,0.0,7.0,2.0,0.0,0.0,0.0
1738834024315190792,64.5,0.056,7.0,2.0,-0.003618,-0.000258,-0.001392,0.0491,0.001944,64.06,0.02719,6.996,1.996,-0.003906,-0.0,0.0004733,0.04834,0.03387,64.4,0.0,7.0,2.0,0.0,0.0,0.0
1738834024365077733,64.6,0.05585,7.0,2.002,-0.002813,-0.000126,-0.001401,0.04913,0.001945,64.1,0.02719,6.996,1.996,-0.003906,-0.0,0.0004733,0.04834,0.03387,64.6,0.0,7.0,2.0,0.0,0.0,0.0
1738834024415126562,64.7,0.05576,7.0,2.004,-0.00202,7.8e-05,-0.001428,0.0492,0.001943,64.3,0.02719,6.996,2.0,-0.003906,-0.0,0.0003862,0.04843,0.03378,64.6,0.0,7.0,2.0,0.0,0.0,0.0
1738834024465180158,64.8,0.05566,7.0,2.004,-0.001155,-6.2e-05,-0.001431,0.04916,0.001955,64.4,0.02719,6.996,2.0,0.0,-0.0,0.0003862,0.04843,0.03378,64.8,0.0,7.0,2.0,0.0,0.0,0.0
1738834024515141487,64.94,0.05563,7.0,2.006,-0.000299,5.9e-05,-0.001444,0.0492,0.001974,64.5,0.02719,6.996,2.0,0.0,-0.0,0.0003862,0.04843,0.03378,64.8,0.0,7.0,2.0,0.0,0.0,0.0
1738834024565270423,65.0,0.05563,7.0,2.006,0.0005,-4.9e-05,-0.001469,0.04922,0.001987,64.6,0.02719,6.996,2.004,0.0,-0.0,0.0003862,0.04843,0.03378,65.0,0.0,7.0,2.0,0.0,0.0,0.0
1738834024615113735,65.1,0.05566,7.0,2.008,0.001283,-0.000214,-0.001468,0.04916,0.001984,64.7,0.02719,7.0,2.004,0.0,-0.0,0.0003862,0.04843,0.03378,65.0,0.0,7.0,2.0,0.0,0.0,0.0
1738834024665141105,65.25,0.05576,7.0,2.01,0.002188,-0.000356,-0.001441,0.04916,0.001984,64.75,0.0272,7.0,2.004,0.0,-0.0,0.0003862,0.04843,0.03378,65.2,0.0,7.0,2.0,0.0,0.0,0.0
1738834024715177536,65.3,0.0559,7.0,2.01,0.002945,-0.000262,-0.001453,0.0492,0.002005,64.9,0.0272,6.996,2.008,0.0,-0.0,0.0003862,0.04843,0.03378,65.2,0.0,7.0,2.0,0.0,0.0,0.0
1738834024765379905,65.44,0.05606,7.0,2.012,0.003708,6e-06,-0.001454,0.04916,0.00202,65.0,0.0272,6.996,2.008,0.0,-0.0,0.0003862,0.04843,0.03378,65.4,0.0,7.0,2.0,0.0,0.0,0.0
1738834024815198421,65.5,0.05627,7.0,2.012,0.00451,0.000141,-0.001424,0.0479,0.002012,65.1,0.0272,6.996,2.008,0.0,-0.0,0.0003717,0.04758,0.03378,65.4,0.0,7.0,2.0,0.0,0.0,0.0
1738834024865166425,65.6,0.0565,7.0,2.014,0.005234,0.00047,-0.001439,0.04666,0.002037,65.1,0.0272,6.996,2.008,0.0,-0.0,0.00044,0.04663,0.0337,65.6,0.0,7.0,2.0,0.0,0.0,0.0
1738834024915177583,65.75,0.0568,7.0,2.012,0.00602,0.000423,-0.001424,0.0457,0.00205,65.3,0.0272,6.996,2.008,0.003906,-0.0,0.0004206,0.04523,0.03384,65.6,0.0,7.0,2.0,0.0,0.0,0.0
1738834024965279817,65.8,0.0571,7.0,2.012,0.006725,0.000633,-0.001428,0.04504,0.002043,65.44,0.0272,6.996,2.008,0.003906,-0.0,0.0004067,0.0442,0.03403,65.8,0.0,7.0,2.0,0.0,0.0,0.0
1738834025015197753,65.94,0.0575,7.0,2.01,0.007545,0.001019,-0.001439,0.04465,0.002014,65.5,0.0272,6.996,2.008,0.003906,-0.0,0.000404,0.04404,0.03403,65.8,0.0,7.0,2.0,0.0,0.0,0.0
1738834025065215587,66.0,0.0578,7.0,2.01,0.008125,0.001461,-0.001446,0.04446,0.002003,65.56,0.0272,6.996,2.008,0.003906,-0.0,0.0004027,0.04385,0.03412,66.0,0.0,7.0,2.0,0.0,0.0,0.0
1738834025115206241,66.1,0.0583,7.0,2.008,0.00894,0.001799,-0.001461,0.04428,0.001965,65.7,0.0272,6.996,2.004,0.003906,-0.0,0.0004005,0.04352,0.0343,66.0,0.0,7.0,2.0,0.0,0.0,0.0
1738834025165314674,66.2,0.0587,7.0,2.008,0.00957,0.001987,-0.001452,0.04416,0.001934,65.8,0.0272,6.996,2.004,0.007812,0.003906,0.0003996,0.04333,0.03436,66.2,0.0,7.0,2.0,0.0,0.0,0.0
1738834025215117216,66.3,0.0592,7.0,2.006,0.01029,0.001815,-0.001421,0.0441,0.001899,65.9,0.0272,6.996,2.0,0.007812,0.003906,0.0003996,0.04333,0.03436,66.2,0.0,7.0,2.0,0.0,0.0,0.0
1738834025265088796,66.44,0.05978,7.0,2.004,0.01101,0.001392,-0.001445,0.04398,0.001833,65.94,0.0272,6.996,2.0,0.007812,-0.0,0.0004015,0.04333,0.03445,66.4,0.0,7.0,2.0,0.0,0.0,0.0
1738834025315097808,66.5,0.0603,7.0,2.004,0.011665,0.001014,-0.001467,0.04398,0.001757,66.1,0.02722,7.0,2.0,0.007812,-0.0,0.0003872,0.04315,0.03394,66.4,0.0,7.0,2.0,0.0,0.0,0.0
1738834025365083932,66.6,0.06094,7.0,2.002,0.01236,0.000358,-0.001386,0.04395,0.001734,66.2,0.02722,7.0,2.0,0.007812,-0.0,0.0003817,0.04315,0.0337,66.6,0.0,7.0,2.0,0.0,0.0,0.0
1738834025415086030,66.75,0.06158,7.0,2.0,0.0127,-0.00025,-0.000122,0.04395,0.001759,66.3,0.02722,7.0,1.996,0.007812,-0.0,0.001324,0.04324,0.03326,66.6,0.0,7.0,2.0,0.0,0.0,0.0
1738834025465076923,66.8,0.06226,7.0,2.0,0.012375,-0.000481,0.001208,0.0441,0.001826,66.4,0.02722,7.0,1.996,0.007812,-0.0,0.002184,0.0432,0.0331,66.8,0.0,7.0,2.0,0.0,0.0,0.0
1738834025515118598,66.94,0.0628,7.0,1.999,0.01165,-0.000578,0.00202,0.04523,0.001916,66.5,0.02722,7.0,1.996,0.007812,-0.0,0.003666,0.04398,0.03314,66.8,0.0,7.0,2.0,0.0,0.0,0.0
1738834025565086126,67.0,0.06335,7.0,1.998,0.01042,-0.001142,0.00271,0.0465,0.001991,66.56,0.02722,7.0,1.992,0.007812,-0.0,0.00429,0.04526,0.03326,67.0,0.0,7.0,2.0,0.0,0.0,0.0
1738834025615111589,67.1,0.06384,7.0,1.998,0.00893,-0.001596,0.003168,0.0462,0.002073,66.7,0.05374,7.0,1.992,0.003906,-0.0,0.00491,0.0457,0.03345,67.0,0.0,7.0,2.0,0.0,0.0,0.0
1738834025665105104,67.25,0.0643,7.0,1.998,0.00725,-0.001473,0.003445,0.0457,0.002115,66.75,0.05374,7.0,1.992,0.003906,-0.0,0.005165,0.04523,0.03363,67.2,0.0,7.0,2.0,0.0,0.0,0.0
1738834025715115785,67.3,0.0646,7.0,1.998,0.00577,-0.001451,0.003572,0.04636,0.002153,66.9,0.05374,7.0,1.992,0.003906,-0.0,0.00543,0.04532,0.0338,67.2,0.0,7.0,2.0,0.0,0.0,0.0
1738834025765100240,67.44,0.0648,7.0,1.998,0.003983,-0.001561,0.003677,0.04733,0.002155,67.0,0.05374,7.0,1.992,0.0,-0.0,0.005527,0.0461,0.0338,67.4,0.0,7.0,2.0,0.0,0.0,0.0
1738834025815117835,67.5,0.065,7.0,1.999,0.002169,-0.001669,0.003744,0.048,0.002172,67.1,0.05374,7.0,1.996,0.0,-0.0,0.00563,0.04706,0.0338,67.4,0.0,7.0,2.0,0.0,0.0,0.0
1738834025865087270,67.6,0.06506,7.0,2.0,0.0005,-0.001772,0.003763,0.04846,0.002169,67.2,0.05374,7.0,1.996,0.0,-0.0,0.00564,0.0474,0.0339,67.6,0.0,7.0,2.0,0.0,0.0,0.0
1738834025915094375,67.75,0.065,7.0,2.0,-0.001308,-0.00179,0.003784,0.04877,0.00218,67.3,0.05374,7.0,1.996,0.0,-0.0,0.00565,0.0479,0.0339,67.6,0.0,7.0,2.0,0.0,0.0,0.0
1738834025965113162,67.8,0.06494,7.0,2.002,-0.002962,-0.001532,0.003803,0.04898,0.002174,67.4,0.05374,7.0,1.996,-0.003906,-0.0,0.00565,0.0481,0.0339,67.8,0.0,7.0,2.0,0.0,0.0,0.0
1738834026015113115,67.94,0.0647,7.0,2.004,-0.00474,-0.000793,0.003803,0.04913,0.002186,67.5,0.05374,6.996,2.0,-0.003906,-0.0,0.00574,0.04834,0.0338,67.8,0.0,7.0,2.0,0.0,0.0,0.0
1738834026065087556,68.0,0.06445,7.0,2.004,-0.006367,1e-05,0.003805,0.04916,0.002209,67.56,0.05374,6.996,2.0,-0.003906,-0.0,0.005653,0.04843,0.0338,68.0,0.0,7.0,2.0,0.0,0.0,0.0
1738834026115104675,68.1,0.0641,7.0,2.006,-0.0081,0.000344,0.003803,0.0479,0.002201,67.7,0.05374,6.996,2.0,-0.007812,-0.0,0.005642,0.04773,0.0338,68.0,0.0,7.0,2.0,0.0,0.0,0.0
1738834026165099620,68.25,0.0636,7.0,2.006,-0.00981,0.000731,0.003778,0.04663,0.00221,67.75,0.05374,6.996,2.004,-0.007812,-0.0,0.005623,0.04654,0.0338,68.2,0.0,7.0,2.0,0.0,0.0,0.0
1738834026215109348,68.3,0.0631,7.0,2.006,-0.01124,0.000893,0.00377,0.0469,0.002207,67.9,0.05374,6.996,2.0,-0.01172,-0.0,0.005615,0.04602,0.0339,68.2,0.0,7.0,2.0,0.0,0.0,0.0
1738834026265120029,68.44,0.0625,7.0,2.006,-0.01291,0.000765,0.003794,0.0475,0.002207,67.94,0.05374,6.996,2.004,-0.01172,-0.0,0.00554,0.04645,0.03397,68.4,0.0,7.0,2.0,0.0,0.0,0.0
1738834026315140008,68.5,0.06186,7.0,2.006,-0.01444,0.000661,0.00382,0.04684,0.0022,68.1,0.02724,6.996,2.004,-0.01563,-0.0,0.005707,0.04626,0.03397,68.4,0.0,7.0,2.0,0.0,0.0,0.0
1738834026365128993,68.6,0.06107,7.0,2.006,-0.0161,0.000849,0.003801,0.046,0.002186,68.2,0.02724,6.996,2.004,-0.01563,-0.0,0.005695,0.04556,0.03397,68.6,0.0,7.0,2.0,0.0,0.0,0.0
1738834026415122985,68.75,0.06024,7.0,2.006,-0.0176,0.001209,0.00378,0.0465,0.002155,68.3,0.02724,6.996,2.004,-0.01563,-0.0,0.005695,0.04556,0.03397,68.6,0.0,7.0,2.0,0.0,0.0,0.0
1738834026465132474,68.8,0.0593,7.0,2.006,-0.01917,0.00122,0.003675,0.04736,0.002155,68.4,0.02724,6.996,2.004,-0.01953,-0.0,0.005623,0.04617,0.03406,68.8,0.0,7.0,2.0,0.0,0.0,0.0
1738834026515112638,68.94,0.05835,7.0,2.006,-0.02032,0.001061,0.002567,0.04678,0.002127,68.5,0.02725,6.996,2.004,-0.01953,-0.0,0.00476,0.0462,0.03412,68.8,0.0,7.0,2.0,0.0,0.0,0.0
1738834026565088033,69.0,0.05734,7.0,2.006,-0.0209,0.000813,0.001327,0.0459,0.002125,68.56,0.02725,7.0,2.004,-0.01953,-0.0,0.003712,0.04553,0.03412,69.0,0.0,7.0,2.0,0.0,0.0,0.0
1738834026615093708,69.1,0.05624,7.0,2.006,-0.02095,0.000529,0.000338,0.0452,0.002077,68.7,0.02725,7.0,2.004,-0.01953,-0.0,0.002403,0.0446,0.03415,69.0,0.0,7.0,2.0,0.0,0.0,0.0
1738834026665079593,69.25,0.05518,7.0,2.006,-0.0206,0.000443,-0.000345,0.04474,0.002052,68.75,0.02725,6.996,2.004,-0.01953,-0.0,0.001881,0.04425,0.03424,69.2,0.0,7.0,2.0,0.0,0.0,0.0
1738834026715102195,69.3,0.0542,7.0,2.004,-0.02,0.000895,-0.000766,0.04453,0.00199,68.9,0.02725,6.996,2.0,-0.01953,-0.0,0.001183,0.04376,0.0343,69.2,0.0,7.0,2.0,0.0,0.0,0.0
1738834026765083551,69.44,0.05325,7.0,2.004,-0.01926,0.00107,-0.001029,0.04437,0.001952,69.0,0.02725,6.996,2.0,-0.01953,-0.0,0.0009236,0.04367,0.0344,69.4,0.0,7.0,2.0,0.0,0.0,0.0
1738834026815099954,69.5,0.05228,7.0,2.002,-0.01836,0.001479,-0.001191,0.04425,0.001874,69.1,0.02725,6.996,2.0,-0.01953,-0.0,0.000748,0.04352,0.0344,69.4,0.0,7.0,2.0,0.0,0.0,0.0
1738834026865096330,69.6,0.05142,7.0,2.0,-0.01747,0.002016,-0.001282,0.04422,0.001804,69.2,0.02725,6.996,2.0,-0.01953,-0.0,0.000577,0.04352,0.03445,69.6,0.0,7.0,2.0,0.0,0.0,0.0
1738834026915098905,69.75,0.05054,7.0,2.0,-0.01651,0.002237,-0.001338,0.04413,0.001736,69.3,0.02725,6.996,1.996,-0.01563,0.003906,0.000491,0.04343,0.03455,69.6,0.0,7.0,2.0,0.0,0.0,0.0
1738834026965148448,69.8,0.0497,7.004,1.999,-0.01552,0.002165,-0.001371,0.04404,0.001631,69.4,0.02725,6.996,1.996,-0.01563,0.003906,0.0004883,0.04324,0.03455,69.8,0.0,7.0,2.0,0.0,0.0,0.0
1738834027015123128,69.94,0.04898,7.004,1.997,-0.01462,0.001769,-0.00138,0.04398,0.001566,69.5,0.02725,6.996,1.992,-0.01563,-0.0,0.0004752,0.04324,0.03394,69.8,0.0,7.0,2.0,0.0,0.0,0.0
1738834027065102100,70.0,0.04825,7.004,1.996,-0.01364,0.001378,-0.001398,0.044,0.001533,69.56,0.02725,6.996,1.992,-0.01563,-0.0,0.0004714,0.04324,0.03378,70.0,0.0,7.0,2.0,0.0,0.0,0.0
1738834027115102767,70.1,0.0476,7.004,1.995,-0.01274,0.001083,-0.001429,0.04514,0.001539,69.7,0.02727,7.0,1.992,-0.01172,-0.0,0.0003943,0.04404,0.0336,70.0,0.0,7.0,2.0,0.0,0.0,0.0
1738834027165087938,70.25,0.04697,7.004,1.995,-0.011765,0.000521,-0.001424,0.04645,0.001576,69.75,0.02727,7.0,1.992,-0.01172,-0.0,0.0004137,0.04507,0.0337,70.2,0.0,7.0,2.0,0.0,0.0,0.0
1738834027215102672,70.3,0.04645,7.004,1.995,-0.01088,0.000136,-0.001398,0.0462,0.001577,69.94,0.02727,7.0,1.992,-0.01172,-0.0,0.0004244,0.0456,0.03378,70.2,0.0,7.0,2.0,0.0,0.0,0.0
1738834027265085697,70.44,0.0459,7.004,1.995,-0.00995,9.6e-05,-0.00139,0.04562,0.001591,69.94,0.02727,7.0,1.992,-0.01172,-0.0,0.0005054,0.04514,0.03387,70.4,0.0,7.0,2.0,0.0,0.0,0.0
1738834027315114736,70.5,0.04544,7.004,1.994,-0.00909,0.000408,-0.001404,0.04633,0.001614,70.1,0.02727,6.996,1.992,-0.007812,-0.0,0.0004225,0.04523,0.03394,70.4,0.0,7.0,2.0,0.0,0.0,0.0
1738834027365102291,70.6,0.045,7.004,1.995,-0.00823,0.000778,-0.001383,0.04724,0.001579,70.2,0.02727,6.996,1.992,-0.007812,-0.0,0.0004392,0.0461,0.03403,70.6,0.0,7.0,2.0,0.0,0.0,0.0
1738834027415093183,70.7,0.04465,7.004,1.995,-0.007404,0.001131,-0.001355,0.04688,0.001567,70.3,0.02727,6.996,1.992,-0.007812,-0.0,0.000527,0.04617,0.03403,70.6,0.0,7.0,2.0,0.0,0.0,0.0
1738834027465094566,70.8,0.04425,7.004,1.995,-0.006462,0.001697,-0.001366,0.046,0.00154,70.4,0.02727,6.996,1.992,-0.007812,-0.0,0.0004303,0.0456,0.03403,70.8,0.0,7.0,2.0,0.0,0.0,0.0
1738834027515107154,70.94,0.04398,7.004,1.995,-0.005646,0.001615,-0.001394,0.04645,0.001512,70.5,0.02727,6.996,1.992,-0.003906,-0.0,0.0004303,0.0456,0.03403,70.8,0.0,7.0,2.0,0.0,0.0,0.0
1738834027565091609,71.0,0.04373,7.004,1.995,-0.00485,0.001346,-0.001364,0.04724,0.001482,70.56,0.02727,6.996,1.992,-0.003906,-0.0,0.0004392,0.0461,0.03403,71.0,0.0,7.0,2.0,0.0,0.0,0.0
1738834027615118026,71.1,0.0435,7.004,1.996,-0.004,0.001361,-0.001348,0.04788,0.001424,70.7,0.02727,6.996,1.992,-0.003906,-0.0,0.000454,0.04697,0.03403,71.0,0.0,7.0,2.0,0.0,0.0,0.0
1738834027665090560,71.2,0.0433,7.004,1.997,-0.003244,0.001236,-0.001312,0.04837,0.001393,70.75,0.02728,6.996,1.992,-0.003906,-0.0,0.0004597,0.0473,0.03403,71.2,0.0,7.0,2.0,0.0,0.0,0.0
1738834027715100765,71.3,0.04318,7.004,1.998,-0.002434,0.00111,-0.001326,0.04868,0.001347,70.9,0.02728,6.996,1.992,-0.003906,-0.0,0.0004685,0.04782,0.03403,71.2,0.0,7.0,2.0,0.0,0.0,0.0
1738834027765093088,71.44,0.04306,7.004,1.999,-0.001693,0.001205,-0.001354,0.0489,0.00132,71.0,0.02728,6.996,1.996,0.0,-0.0,0.0004694,0.048,0.03394,71.4,0.0,7.0,2.0,0.0,0.0,0.0
1738834027815165042,71.5,0.043,7.004,2.0,-0.00088,0.001141,-0.001364,0.0491,0.0013,71.1,0.02728,6.996,1.996,0.0,-0.0,0.0004754,0.04834,0.03394,71.4,0.0,7.0,2.0,0.0,0.0,0.0
1738834027865120410,71.6,0.04297,7.004,2.002,-0.00014,0.001186,-0.001384,0.04916,0.00129,71.2,0.02728,6.996,1.996,0.0,-0.0,0.0004754,0.04834,0.03394,71.6,0.0,7.0,2.0,0.0,0.0,0.0
1738834027915175199,71.75,0.043,7.004,2.004,0.000672,0.001534,-0.001394,0.04926,0.001263,71.3,0.02728,6.996,2.0,0.0,-0.0,0.0003884,0.04843,0.03384,71.6,0.0,7.0,2.0,0.0,0.0,0.0
1738834027965220928,71.8,0.04306,7.004,2.004,0.001459,0.00198,-0.001379,0.04926,0.001242,71.4,0.02728,6.996,2.0,0.0,-0.0,0.0003862,0.04843,0.03378,71.8,0.0,7.0,2.0,0.0,0.0,0.0
1738834028015155792,71.94,0.04315,7.004,2.006,0.002174,0.002407,-0.001357,0.0493,0.001247,71.5,0.02728,6.996,2.0,0.0,-0.0,0.0004742,0.04852,0.03378,71.8,0.0,7.0,2.0,0.0,0.0,0.0
1738834028065123558,72.0,0.04327,7.004,2.008,0.002886,0.002487,-0.00138,0.0492,0.001245,71.56,0.02728,6.996,2.0,0.0,-0.0,0.0004742,0.04852,0.03378,72.0,0.0,7.0,2.0,0.0,0.0,0.0
1738834028115148544,72.1,0.04343,7.004,2.008,0.003654,0.002302,-0.001403,0.048,0.001234,71.7,0.02728,6.996,2.004,0.0,-0.0,0.0004594,0.04767,0.03378,72.0,0.0,7.0,2.0,0.0,0.0,0.0
1738834028165126085,72.25,0.04364,7.004,2.008,0.00436,0.002035,-0.001406,0.0467,0.00122,71.75,0.02728,7.0,2.004,0.0,-0.0,0.000441,0.04645,0.03384,72.2,0.0,7.0,2.0,0.0,0.0,0.0
1738834028215156793,72.3,0.04385,7.004,2.008,0.005054,0.001535,-0.001388,0.04572,0.001199,71.9,0.0273,7.0,2.004,0.003906,-0.0,0.0004177,0.04507,0.03384,72.2,0.0,7.0,2.0,0.0,0.0,0.0
1738834028265113353,72.44,0.04413,7.004,2.008,0.00578,0.001154,-0.001366,0.04504,0.001191,71.94,0.0273,7.0,2.004,0.003906,-0.0,0.000409,0.04456,0.03384,72.4,0.0,7.0,2.0,0.0,0.0,0.0
1738834028315125942,72.5,0.04446,7.004,2.006,0.006504,0.000947,-0.001361,0.04465,0.001175,72.1,0.0273,7.0,2.0,0.003906,-0.0,0.000401,0.04385,0.03403,72.4,0.0,7.0,2.0,0.0,0.0,0.0
1738834028365075826,72.6,0.04477,7.004,2.006,0.007156,0.000737,-0.00137,0.04443,0.001151,72.2,0.0273,7.0,2.0,0.003906,-0.0,0.0003998,0.04367,0.03412,72.6,0.0,7.0,2.0,0.0,0.0,0.0
1738834028415083169,72.75,0.04517,7.004,2.004,0.00786,0.000663,-0.00136,0.0443,0.001087,72.3,0.0273,7.0,2.0,0.003906,-0.0,0.000395,0.04352,0.03403,72.6,0.0,7.0,2.0,0.0,0.0,0.0
1738834028465074777,72.8,0.04556,7.004,2.004,0.00849,0.000795,-0.001351,0.04428,0.001068,72.4,0.0273,7.0,2.0,0.003906,-0.0,0.0003893,0.04352,0.03378,72.8,0.0,7.0,2.0,0.0,0.0,0.0
1738834028515100240,72.94,0.04602,7.004,2.002,0.00915,0.000951,-0.00132,0.04422,0.001067,72.5,0.0273,7.0,1.996,0.003906,-0.0,0.000463,0.04343,0.03326,72.8,0.0,7.0,2.0,0.0,0.0,0.0
1738834028565074443,73.0,0.04648,7.004,2.0,0.00975,0.000975,-0.001317,0.0442,0.001134,72.56,0.0273,7.0,1.996,0.007812,-0.0,0.0004592,0.04343,0.03308,73.0,0.0,7.0,2.0,0.0,0.0,0.0
1738834028615086793,73.1,0.04697,7.004,2.0,0.010345,0.000695,-0.001337,0.04413,0.001231,72.7,0.0273,7.0,1.996,0.007812,-0.0,0.000364,0.04333,0.03275,73.0,0.0,7.0,2.0,0.0,0.0,0.0
1738834028665063858,73.25,0.04752,7.004,1.999,0.011,0.000164,-0.001355,0.04407,0.001367,72.75,0.0273,7.0,1.996,0.007812,-0.0,0.0003603,0.04333,0.03256,73.2,0.0,7.0,2.0,0.0,0.0,0.0
1738834028715096473,73.3,0.0481,7.004,1.997,0.011665,-0.000166,-0.001376,0.044,0.001514,72.9,0.0273,7.0,1.992,0.007812,-0.0,0.0003538,0.04315,0.03238,73.2,0.0,7.0,2.0,0.0,0.0,0.0
1738834028765076398,73.44,0.04868,7.004,1.996,0.01225,-0.000535,-0.001312,0.04404,0.001701,73.0,0.0273,7.0,1.992,0.007812,-0.0,0.00035,0.04315,0.03223,73.4,0.0,7.0,2.0,0.0,0.0,0.0
1738834028815073728,73.5,0.04932,7.004,1.995,0.0126,-0.00085,-0.000148,0.04407,0.001915,73.1,0.02731,7.0,1.988,0.007812,-0.0,0.001478,0.04324,0.0324,73.4,0.0,7.0,2.0,0.0,0.0,0.0
1738834028865065813,73.6,0.04993,7.004,1.994,0.012344,-0.001432,0.001118,0.04407,0.00209,73.2,0.02731,7.0,1.988,0.007812,-0.0,0.002172,0.0432,0.0326,73.6,0.0,7.0,2.0,0.0,0.0,0.0
1738834028915071725,73.75,0.05054,7.004,1.993,0.01148,-0.001943,0.002129,0.044,0.002264,73.3,0.02731,7.0,1.988,0.007812,-0.0,0.003736,0.04318,0.03305,73.6,0.0,7.0,2.0,0.0,0.0,0.0
1738834028965075016,73.8,0.0511,7.004,1.992,0.01032,-0.00209,0.0028,0.04407,0.002407,73.4,0.02731,7.0,1.988,0.007812,-0.0,0.00426,0.04318,0.03333,73.8,0.0,7.0,2.0,0.0,0.0,0.0
1738834029015068531,73.94,0.05157,7.004,1.99,0.00878,-0.001501,0.00326,0.04416,0.002487,73.5,0.02731,7.0,1.984,0.003906,-0.0,0.00496,0.04333,0.0336,73.8,0.0,7.0,2.0,0.0,0.0,0.0
1738834029065071582,74.0,0.05194,7.004,1.99,0.007206,-0.001164,0.003523,0.04422,0.002563,73.56,0.02731,7.0,1.984,0.003906,-0.0,0.005135,0.04333,0.0337,74.0,0.0,7.0,2.0,0.0,0.0,0.0
1738834029115064144,74.1,0.05228,7.004,1.989,0.005413,-0.001145,0.003708,0.0442,0.002586,73.7,0.02731,7.0,1.984,0.003906,-0.0,0.0054,0.04343,0.03397,74.0,0.0,7.0,2.0,0.0,0.0,0.0
1738834029165063858,74.2,0.0525,7.004,1.988,0.00371,-0.001246,0.003815,0.0442,0.002613,73.75,0.02731,7.0,1.984,0.0,-0.0,0.005486,0.04333,0.03406,74.2,0.0,7.0,2.0,0.0,0.0,0.0
1738834029215086698,74.3,0.05264,7.004,1.987,0.00198,-0.00126,0.003874,0.04517,0.002598,73.9,0.02731,7.0,1.98,0.0,-0.0,0.005592,0.0441,0.03424,74.2,0.0,7.0,2.0,0.0,0.0,0.0
1738834029265071630,74.44,0.0527,7.004,1.987,0.000119,-0.001345,0.003885,0.0466,0.00258,73.94,0.02731,7.0,1.98,0.0,-0.0,0.00561,0.04514,0.03433,74.4,0.0,7.0,2.0,0.0,0.0,0.0
1738834029315078258,74.5,0.05264,7.004,1.987,-0.001462,-0.00143,0.002747,0.04758,0.002548,74.1,0.02731,7.0,1.984,0.0,-0.0,0.004684,0.04663,0.0343,74.4,0.0,7.0,2.0,0.0,0.0,0.0
1738834029365063428,74.6,0.05255,7.004,1.988,-0.002317,-0.001309,0.001509,0.04825,0.002535,74.2,0.02733,7.0,1.984,0.0,-0.0,0.003744,0.0471,0.03427,74.6,0.0,7.0,2.0,0.0,0.0,0.0
1738834029415066719,74.7,0.05243,7.004,1.989,-0.002682,-0.00114,0.000532,0.0487,0.00249,74.3,0.02733,7.0,1.984,0.0,-0.0,0.002287,0.04788,0.03415,74.6,0.0,7.0,2.0,0.0,0.0,0.0
1738834029465063333,74.8,0.0523,7.004,1.991,-0.002632,-0.000757,-9.6e-05,0.049,0.002464,74.4,0.02733,7.0,1.984,0.0,-0.0,0.001944,0.04807,0.03415,74.8,0.0,7.0,2.0,0.0,0.0,0.0
1738834029515070438,74.94,0.0522,7.004,1.992,-0.002344,-0.000654,-0.000528,0.04916,0.002428,74.5,0.02733,7.0,1.988,0.0,-0.0,0.00117,0.04834,0.03415,74.8,0.0,7.0,2.0,0.0,0.0,0.0
1738834029565079212,75.0,0.05206,7.004,1.994,-0.00185,-0.000746,-0.000798,0.0492,0.002398,74.56,0.02733,7.0,1.988,0.0,-0.0,0.000998,0.04834,0.03412,75.0,0.0,7.0,2.0,0.0,0.0,0.0
1738834029615063667,75.1,0.052,7.004,1.995,-0.001304,-0.000635,-0.00097,0.04926,0.002394,74.7,0.02733,7.0,1.992,0.0,-0.0,0.000738,0.04843,0.03403,75.0,0.0,7.0,2.0,0.0,0.0,0.0
1738834029665071010,75.2,0.05194,7.004,1.997,-0.000642,-0.000685,-0.001071,0.0493,0.002382,74.75,0.02733,7.0,1.992,0.0,-0.0,0.000738,0.04843,0.03403,75.2,0.0,7.0,2.0,0.0,0.0,0.0
1738834029715063571,75.3,0.05194,7.004,1.998,4e-05,-0.000799,-0.001113,0.04926,0.002365,74.9,0.02733,7.0,1.992,0.0,-0.0,0.000563,0.04843,0.03394,75.2,0.0,7.0,2.0,0.0,0.0,0.0
1738834029765198945,75.44,0.05194,7.004,2.0,0.000686,-0.000511,-0.001132,0.04926,0.002369,74.94,0.02733,7.0,1.992,0.0,-0.0,0.000563,0.04843,0.03394,75.4,0.0,7.0,2.0,0.0,0.0,0.0
1738834029815224885,75.5,0.052,7.004,2.002,0.001389,-0.000251,-0.001168,0.04932,0.002337,74.94,0.02733,7.0,1.992,0.0,-0.0,0.000563,0.04843,0.03394,75.4,0.0,7.0,2.0,0.0,0.0,0.0
1738834029865218162,75.6,0.0521,7.004,2.002,0.002028,0.000122,-0.001162,0.04932,0.00236,74.94,0.02733,7.0,1.992,0.0,-0.0,0.000563,0.04843,0.03394,75.6,0.0,7.0,2.0,0.0,0.0,0.0
1738834029915173053,75.7,0.05222,7.004,2.004,0.002726,0.000397,-0.001173,0.04935,0.002354,74.94,0.02733,7.0,1.992,0.0,-0.0,0.000563,0.04843,0.03394,75.6,0.0,7.0,2.0,0.0,0.0,0.0
1738834029965074062,75.8,0.05234,7.004,2.006,0.003365,0.000198,-0.001192,0.0493,0.002348,75.0,0.02733,7.0,1.996,0.0,-0.0,0.000563,0.04843,0.03394,75.8,0.0,7.0,2.0,0.0,0.0,0.0
1738834030015067815,75.94,0.05255,7.004,2.006,0.004055,0.000124,-0.001203,0.04922,0.002361,75.5,0.02734,7.0,2.0,0.003906,-0.0,0.0004733,0.04834,0.03387,75.8,0.0,7.0,2.0,0.0,0.0,0.0
1738834030065063476,76.0,0.05276,7.004,2.008,0.0047,0.000518,-0.001215,0.05087,0.002369,75.56,0.02734,6.996,2.0,0.003906,-0.0,0.000479,0.04868,0.03387,76.0,0.0,7.0,2.0,0.0,0.0,0.0
1738834030115062713,76.1,0.053,7.004,2.012,0.005398,0.000411,-0.001263,0.0596,0.002377,75.7,0.02734,7.0,2.004,0.003906,-0.0,0.0004392,0.05682,0.0337,76.0,0.0,7.0,2.0,0.0,0.0,0.0
1738834030165072202,76.2,0.05328,7.004,2.02,0.006054,-0.000861,-0.00121,0.0676,0.002375,75.75,0.02734,6.996,2.012,0.003906,-0.0,0.000468,0.06366,0.0337,76.2,0.0,7.0,2.0,0.0,0.0,0.0
1738834030215091228,76.3,0.05362,7.004,2.031,0.00672,-0.001657,-0.001113,0.06604,0.002417,75.94,0.02734,6.996,2.023,0.007812,-0.0,0.000582,0.0656,0.03354,76.2,0.0,7.0,2.0,0.0,0.0,0.0
1738834030265065431,76.44,0.05396,7.004,2.04,0.00731,-0.00071,-0.001131,0.06116,0.002447,75.94,0.02734,6.996,2.027,0.007812,-0.0,0.0006266,0.0629,0.03363,76.4,0.0,7.0,2.0,0.0,0.0,0.0
1738834030315109968,76.5,0.05435,7.004,2.043,0.007935,-0.000601,-0.001141,0.05612,0.00251,76.1,0.02734,7.0,2.04,0.007812,-0.0,0.000513,0.0562,0.0336,76.4,0.0,7.0,2.0,0.0,0.0,0.0
1738834030365081787,76.6,0.05475,7.004,2.047,0.00851,-0.000173,-0.001124,0.052,0.00256,76.2,0.02734,6.996,2.04,0.007812,-0.0,0.0005403,0.05283,0.0335,76.6,0.0,7.0,2.0,0.0,0.0,0.0
1738834030415091991,76.75,0.0552,7.004,2.049,0.00883,-2.6e-05,4.2e-05,0.04904,0.002634,76.3,0.05386,7.0,2.043,0.01172,-0.0,0.001587,0.0484,0.03345,76.6,0.0,7.0,2.0,0.0,0.0,0.0
1738834030465079545,76.8,0.05563,7.004,2.049,0.00854,-0.000157,0.0013,0.04712,0.002705,76.4,0.05386,7.0,2.043,0.01172,-0.0,0.002346,0.04727,0.03348,76.8,0.0,7.0,2.0,0.0,0.0,0.0
1738834030515111207,76.94,0.05606,7.004,2.047,0.00765,-1.6e-05,0.002296,0.04474,0.00275,76.5,0.05386,7.0,2.04,0.007812,-0.0,0.00377,0.0444,0.03366,76.8,0.0,7.0,2.0,0.0,0.0,0.0
1738834030565082550,77.06,0.0564,7.004,2.045,0.00645,0.000308,0.002949,0.04282,0.002817,76.56,0.05386,7.0,2.04,0.007812,-0.0,0.00435,0.04276,0.0337,77.0,0.0,7.0,2.0,0.0,0.0,0.0
1738834030615110874,77.1,0.05667,7.004,2.043,0.004887,0.000781,0.00341,0.0414,0.002874,76.7,0.05386,6.996,2.035,0.007812,-0.0,0.004997,0.04068,0.03336,77.0,0.0,7.0,2.0,0.0,0.0,0.0
1738834030665110349,77.25,0.0569,7.004,2.04,0.003277,0.001062,0.00369,0.04056,0.002945,76.75,0.05386,6.996,2.035,0.003906,-0.0,0.005157,0.04016,0.03326,77.2,0.0,7.0,2.0,0.0,0.0,0.0
1738834030715114831,77.3,0.057,7.004,2.035,0.001583,0.001249,0.003883,0.03995,0.003042,76.94,0.05386,6.996,2.027,0.003906,-0.0,0.00548,0.0391,0.03308,77.2,0.0,7.0,2.0,0.0,0.0,0.0
1738834030765097379,77.44,0.05704,7.004,2.031,-0.000312,0.001579,0.004,0.03958,0.003145,77.0,0.05386,6.996,2.027,0.0,-0.0,0.005566,0.03885,0.03308,77.4,0.0,7.0,2.0,0.0,0.0,0.0
1738834030815114974,77.56,0.05698,7.004,2.027,-0.00209,0.001951,0.004086,0.03937,0.003277,77.1,0.05386,6.996,2.02,0.0,-0.0,0.00573,0.0385,0.03293,77.4,0.0,7.0,2.0,0.0,0.0,0.0
1738834030865091085,77.6,0.0568,7.004,2.023,-0.00401,0.00203,0.00411,0.0392,0.003424,77.2,0.05386,6.996,2.02,0.0,-0.0,0.005814,0.03842,0.03293,77.6,0.0,7.0,2.0,0.0,0.0,0.0
1738834030915102481,77.75,0.05655,7.004,2.02,-0.005917,0.001512,0.00411,0.0391,0.003597,77.3,0.0539,7.0,2.016,0.0,-0.0,0.00581,0.03824,0.03293,77.6,0.0,7.0,2.0,0.0,0.0,0.0
1738834030965150833,77.9,0.0562,7.004,2.016,-0.007645,0.001091,0.00409,0.039,0.003733,77.4,0.0539,7.0,2.012,-0.003906,-0.0,0.005722,0.03815,0.03284,77.8,0.0,7.0,2.0,0.0,0.0,0.0
1738834031015109539,77.94,0.05582,7.004,2.012,-0.00935,0.000804,0.0041,0.03897,0.003902,77.56,0.0539,7.0,2.004,-0.003906,-0.0,0.005806,0.03806,0.03275,77.8,0.0,7.0,2.0,0.0,0.0,0.0
1738834031065078973,78.06,0.05527,7.004,2.008,-0.01118,0.000624,0.004116,0.03903,0.004097,77.56,0.0539,7.0,2.004,-0.003906,-0.0,0.00572,0.03815,0.03275,78.0,0.0,7.0,2.0,0.0,0.0,0.0
1738834031115085840,78.1,0.0547,7.004,2.004,-0.01285,0.000145,0.00412,0.039,0.004242,77.75,0.0539,7.0,2.0,-0.007812,-0.0,0.00572,0.03815,0.03275,78.0,0.0,7.0,2.0,0.0,0.0,0.0
1738834031165070295,78.25,0.054,7.004,2.0,-0.01464,-9.5e-05,0.00413,0.03906,0.004433,77.8,0.0539,7.0,1.996,-0.007812,-0.0,0.005806,0.03806,0.03275,78.2,0.0,7.0,2.0,0.0,0.0,0.0
1738834031215093135,78.3,0.05325,7.004,1.997,-0.01628,-0.000172,0.004154,0.04013,0.004593,77.94,0.0539,7.0,1.992,-0.01172,-0.0,0.005737,0.03918,0.03275,78.2,0.0,7.0,2.0,0.0,0.0,0.0
1738834031265079975,78.44,0.05234,7.004,1.995,-0.01804,-0.000742,0.00418,0.04153,0.004787,78.0,0.0539,7.0,1.988,-0.01172,-0.0,0.005836,0.03998,0.03275,78.4,0.0,7.0,2.0,0.0,0.0,0.0
1738834031315071821,78.56,0.05145,7.004,1.992,-0.01965,-0.001127,0.00421,0.04242,0.004982,78.1,0.02737,7.0,1.988,-0.01563,-0.0,0.00577,0.04144,0.03268,78.4,0.0,7.0,2.0,0.0,0.0,0.0
1738834031365061998,78.6,0.05038,7.004,1.991,-0.02138,-0.001304,0.00421,0.04312,0.00521,78.2,0.02737,7.0,1.984,-0.01563,-0.0,0.005783,0.04196,0.03284,78.6,0.0,7.0,2.0,0.0,0.0,0.0
1738834031415059804,78.75,0.04932,7.004,1.989,-0.02295,-0.001448,0.004227,0.04355,0.005367,78.3,0.02737,7.0,1.984,-0.01953,-0.0,0.005806,0.04263,0.03336,78.6,0.0,7.0,2.0,0.0,0.0,0.0
1738834031465066432,78.8,0.04807,7.004,1.988,-0.02463,-0.001588,0.004204,0.04382,0.005493,78.4,0.02737,7.0,1.984,-0.01953,-0.0,0.005814,0.04282,0.03354,78.8,0.0,7.0,2.0,0.0,0.0,0.0
1738834031515065908,78.94,0.04684,7.004,1.987,-0.02592,-0.001553,0.003195,0.044,0.005608,78.5,0.02739,7.0,1.98,-0.01953,-0.0,0.004875,0.0431,0.03387,78.8,0.0,7.0,2.0,0.0,0.0,0.0
1738834031565053701,79.06,0.0455,7.004,1.986,-0.02669,-0.001616,0.001818,0.0441,0.00569,78.56,0.02739,7.0,1.98,-0.02344,-0.0,0.00393,0.04318,0.03403,79.0,0.0,7.0,2.0,0.0,0.0,0.0
1738834031615066528,79.1,0.0442,7.004,1.985,-0.02686,-0.001684,0.000899,0.04413,0.00573,78.75,0.02739,7.0,1.98,-0.02344,-0.0,0.002554,0.0432,0.03424,79.0,0.0,7.0,2.0,0.0,0.0,0.0
1738834031665073394,79.25,0.0429,7.004,1.984,-0.02664,-0.001356,0.000236,0.04434,0.005745,78.75,0.02739,7.0,1.98,-0.02344,-0.0,0.002125,0.0433,0.03433,79.2,0.0,7.0,2.0,0.0,0.0,0.0
1738834031715082645,79.3,0.04153,7.004,1.984,-0.02612,-0.00096,-0.000249,0.0479,0.00574,78.94,0.02739,7.0,1.977,-0.01953,-0.0,0.0013275,0.04694,0.0345,79.2,0.0,7.0,2.0,0.0,0.0,0.0
1738834031765073060,79.44,0.0403,7.004,1.986,-0.02547,-0.001157,-0.000494,0.0516,0.005726,79.0,0.02739,7.0,1.98,-0.01953,-0.0,0.0012,0.04953,0.0345,79.4,0.0,7.0,2.0,0.0,0.0,0.0
1738834031815073966,79.56,0.039,7.004,1.989,-0.02466,-0.001134,-0.000631,0.05215,0.0057,79.1,0.02739,7.0,1.984,-0.01953,-0.0,0.00088,0.05127,0.0343,79.4,0.0,7.0,2.0,0.0,0.0,0.0
1738834031865075826,79.6,0.03784,7.004,1.992,-0.02388,-0.000969,-0.000735,0.05157,0.00572,79.2,0.02739,7.0,1.984,-0.01953,-0.0,0.0008717,0.05093,0.0342,79.6,0.0,7.0,2.0,0.0,0.0,0.0
1738834031915074825,79.75,0.03662,7.004,1.995,-0.02298,-0.001014,-0.000816,0.05328,0.0057,79.3,0.02739,7.0,1.988,-0.01563,-0.0,0.0007153,0.05215,0.03406,79.6,0.0,7.0,2.0,0.0,0.0,0.0
1738834031965133428,79.8,0.03546,7.004,1.999,-0.02208,-0.001751,-0.000842,0.05515,0.00571,79.4,0.02739,7.0,1.992,-0.01563,-0.0,0.000739,0.05368,0.03397,79.8,0.0,7.0,2.0,0.0,0.0,0.0
1738834032015098571,79.94,0.03442,7.004,2.004,-0.02124,-0.002142,-0.000819,0.05316,0.005764,79.5,0.0274,7.0,1.996,-0.01563,-0.0,0.000711,0.0523,0.03378,79.8,0.0,7.0,2.0,0.0,0.0,0.0
1738834032065078020,80.0,0.03342,7.004,2.006,-0.02042,-0.001626,-0.00085,0.05054,0.005817,79.56,0.0274,7.0,2.0,-0.01563,-0.0,0.0006847,0.05075,0.03378,80.0,0.0,7.0,2.0,0.0,0.0,0.0
1738834032115071773,80.1,0.03238,7.004,2.008,-0.01953,-0.001247,-0.000871,0.05078,0.0059,79.75,0.0274,7.0,2.0,-0.01172,-0.0,0.000667,0.0497,0.03378,80.0,0.0,7.0,2.0,0.0,0.0,0.0
1738834032165071249,80.25,0.03146,7.004,2.01,-0.01869,-0.001054,-0.00086,0.05188,0.005966,79.8,0.0274,6.996,2.004,-0.01172,-0.0,0.000682,0.0506,0.03378,80.2,0.0,7.0,2.0,0.0,0.0,0.0
1738834032215073823,80.3,0.03058,7.004,2.012,-0.01788,-0.000673,-0.000842,0.05273,0.006016,79.94,0.0274,6.996,2.004,-0.01172,-0.0,0.0007033,0.05197,0.0337,80.2,0.0,7.0,2.0,0.0,0.0,0.0
1738834032265065670,80.44,0.02966,7.004,2.016,-0.01703,-0.000512,-0.000804,0.0533,0.006104,80.0,0.0274,6.996,2.008,-0.01172,-0.0,0.000709,0.0523,0.0337,80.4,0.0,7.0,2.0,0.0,0.0,0.0
1738834032315109014,80.56,0.02881,7.004,2.018,-0.0162,-4.2e-05,-0.000779,0.05145,0.00618,80.1,0.0274,6.996,2.012,-0.007812,-0.0,0.000768,0.05084,0.0336,80.4,0.0,7.0,2.0,0.0,0.0,0.0
1738834032365088224,80.6,0.02805,7.004,2.02,-0.01546,0.000584,-0.00076,0.0492,0.006287,80.2,0.0274,6.996,2.012,-0.007812,-0.0,0.000824,0.04904,0.0336,80.6,0.0,7.0,2.0,0.0,0.0,0.0
1738834032415059089,80.75,0.02727,7.004,2.02,-0.01466,0.001321,-0.000753,0.04745,0.006363,80.3,0.0274,6.996,2.012,-0.007812,-0.0,0.0007854,0.0466,0.0337,80.6,0.0,7.0,2.0,0.0,0.0,0.0
1738834032465071916,80.8,0.02658,7.004,2.02,-0.013954,0.001662,-0.000762,0.04633,0.006435,80.4,0.0274,6.996,2.012,-0.007812,-0.0,0.0007777,0.04593,0.03387,80.8,0.0,7.0,2.0,0.0,0.0,0.0
1738834032515064716,80.94,0.02588,7.004,2.02,-0.013176,0.001547,-0.000799,0.0466,0.006493,80.5,0.02742,6.996,2.012,-0.007812,-0.0,0.000776,0.04556,0.03403,80.8,0.0,7.0,2.0,0.0,0.0,0.0
1738834032565076828,81.06,0.0252,7.004,2.02,-0.01239,0.001229,-0.000793,0.04736,0.00654,80.6,0.02742,6.996,2.012,-0.003906,-0.0,0.0007,0.04617,0.03403,81.0,0.0,7.0,2.0,0.0,0.0,0.0
1738834032615102291,81.1,0.02467,7.004,2.02,-0.01174,0.001134,-0.000763,0.04694,0.006557,80.75,0.02742,6.996,2.012,-0.003906,-0.0,0.000786,0.04593,0.0342,81.0,0.0,7.0,2.0,0.0,0.0,0.0
1738834032665110588,81.25,0.0241,7.004,2.02,-0.011,0.001148,-0.000757,0.0461,0.0066,80.8,0.02742,6.996,2.012,-0.003906,-0.0,0.0007796,0.04556,0.0342,81.2,0.0,7.0,2.0,0.0,0.0,0.0
1738834032715096473,81.4,0.02353,7.004,2.02,-0.01027,0.000718,-0.000743,0.0466,0.00661,80.94,0.02742,6.996,2.012,-0.003906,-0.0,0.000784,0.04556,0.0344,81.2,0.0,7.0,2.0,0.0,0.0,0.0
1738834032765106678,81.44,0.02306,7.004,2.02,-0.00961,0.00076,-0.000706,0.04742,0.006622,81.0,0.02742,6.996,2.012,-0.003906,-0.0,0.000796,0.04626,0.0344,81.4,0.0,7.0,2.0,0.0,0.0,0.0
1738834032815099239,81.56,0.02258,7.004,2.02,-0.00891,0.000754,-0.000708,0.04697,0.006626,81.1,0.000909,6.996,2.012,0.0,-0.0,0.0007925,0.04608,0.0344,81.4,0.0,7.0,2.0,0.0,0.0,0.0
1738834032865109682,81.6,0.02217,7.004,2.02,-0.00827,0.000915,-0.000726,0.0462,0.0066,81.2,0.00091,6.996,2.012,0.0,-0.0,0.000869,0.0455,0.0344,81.6,0.0,7.0,2.0,0.0,0.0,0.0
1738834032915089845,81.75,0.02176,7.004,2.02,-0.00758,0.001312,-0.000756,0.04675,0.00659,81.3,0.0009117,6.996,2.012,0.0,-0.0,0.0007906,0.04575,0.03455,81.6,0.0,7.0,2.0,0.0,0.0,0.0
1738834032965104818,81.9,0.02141,7.004,2.02,-0.006943,0.001295,-0.000733,0.04755,0.00655,81.4,0.0009127,6.996,2.012,0.0,-0.0,0.0008025,0.04645,0.03455,81.8,0.0,7.0,2.0,0.0,0.0,0.0
1738834033015114068,81.94,0.02104,7.004,2.02,-0.006214,0.0011,-0.000737,0.0469,0.00652,81.56,0.000915,6.996,2.012,0.0,-0.0,0.000797,0.04608,0.03455,81.8,0.0,7.0,2.0,0.0,0.0,0.0
1738834033065089702,82.06,0.02078,7.004,2.02,-0.00565,0.000972,-0.000751,0.04617,0.00647,81.56,0.0009155,6.996,2.012,0.0,-0.0,0.0007877,0.04556,0.03455,82.0,0.0,7.0,2.0,0.0,0.0,0.0
1738834033115087985,82.1,0.02052,7.004,2.018,-0.005035,0.001069,-0.000762,0.04663,0.006447,81.75,0.000918,6.996,2.012,0.0,-0.0,0.0008755,0.04565,0.03455,82.0,0.0,7.0,2.0,0.0,0.0,0.0
1738834033165082931,82.25,0.02028,7.004,2.018,-0.004368,0.0009,-0.000755,0.04745,0.0064,81.8,0.000919,6.996,2.012,0.0,-0.0,0.0008874,0.04636,0.03455,82.2,0.0,7.0,2.0,0.0,0.0,0.0
1738834033215085506,82.4,0.02007,7.004,2.018,-0.00372,0.000599,-0.000741,0.04578,0.006332,81.94,0.0009212,7.0,2.012,0.0,-0.0,0.000776,0.0449,0.03455,82.2,0.0,7.0,2.0,0.0,0.0,0.0
1738834033265081644,82.44,0.0199,7.004,2.018,-0.003096,0.000609,-0.000736,0.04367,0.006283,82.0,0.0009217,7.0,2.012,0.0,-0.0,0.000755,0.04367,0.03455,82.4,0.0,7.0,2.0,0.0,0.0,0.0
1738834033315116405,82.56,0.01976,7.004,2.016,-0.002575,0.000451,-0.000756,0.04434,0.00626,82.1,0.000924,7.0,2.008,0.0,-0.0,0.0008383,0.04343,0.03464,82.4,0.0,7.0,2.0,0.0,0.0,0.0
1738834033365107536,82.6,0.01965,7.004,2.016,-0.001947,-6.5e-05,-0.000738,0.04587,0.00618,82.2,0.000925,7.0,2.008,0.0,-0.0,0.0007734,0.04453,0.03473,82.6,0.0,7.0,2.0,0.0,0.0,0.0
1738834033415117502,82.75,0.01956,7.004,2.014,-0.001402,-0.000233,-0.000708,0.04486,0.006107,82.3,0.0009274,7.0,2.008,0.003906,-0.0,0.0008464,0.04376,0.03473,82.6,0.0,7.0,2.0,0.0,0.0,0.0
1738834033465090751,82.9,0.01952,7.004,2.014,-0.00082,0.000313,-0.00071,0.04315,0.00603,82.4,0.000928,7.0,2.004,0.003906,-0.0,0.0008316,0.0429,0.03473,82.8,0.0,7.0,2.0,0.0,0.0,0.0
1738834033515112400,82.94,0.01949,7.004,2.012,-0.000297,0.000458,-0.000723,0.044,0.005966,82.56,0.0009303,7.0,2.004,0.003906,-0.0,0.0008364,0.04306,0.03482,82.8,0.0,7.0,2.0,0.0,0.0,0.0
1738834033565107822,83.06,0.01949,7.004,2.01,0.000284,4.5e-05,-0.000746,0.04562,0.00585,82.6,0.0009313,7.0,2.004,0.003906,-0.0,0.0008593,0.04428,0.0349,83.0,0.0,7.0,2.0,0.0,0.0,0.0
1738834033615130662,83.2,0.01952,7.004,2.01,0.000864,1.3e-05,-0.000768,0.04456,0.00573,82.75,0.0009336,6.996,2.0,0.003906,-0.0,0.0008454,0.04358,0.03482,83.0,0.0,7.0,2.0,0.0,0.0,0.0
1738834033665121316,83.25,0.01958,7.004,2.008,0.001442,0.000634,-0.000804,0.043,0.005615,82.8,0.000934,6.996,2.0,0.003906,-0.0,0.00083,0.04272,0.03482,83.2,0.0,7.0,2.0,0.0,0.0,0.0
1738834033715114355,83.4,0.01965,7.004,2.006,0.001976,0.001006,-0.000809,0.04407,0.005516,82.94,0.0009365,6.996,2.0,0.003906,-0.0,0.000747,0.04282,0.0349,83.2,0.0,7.0,2.0,0.0,0.0,0.0
1738834033765089035,83.44,0.01976,7.004,2.006,0.002508,0.000886,-0.000798,0.04562,0.005413,83.0,0.0009375,6.996,1.996,0.007812,-0.0,0.0008593,0.04428,0.0349,83.4,0.0,7.0,2.0,0.0,0.0,0.0
1738834033815099477,83.56,0.01991,7.004,2.006,0.003063,0.000762,-0.000761,0.04456,0.00527,83.1,0.00094,6.996,1.996,0.007812,-0.0,0.000851,0.04395,0.03482,83.4,0.0,7.0,2.0,0.0,0.0,0.0
1738834033865080833,83.7,0.02007,7.004,2.004,0.003557,0.001167,-0.000782,0.043,0.005184,83.2,0.0009403,7.0,1.996,0.007812,-0.0,0.00083,0.04272,0.03482,83.6,0.0,7.0,2.0,0.0,0.0,0.0
1738834033915099859,83.75,0.02026,7.004,2.002,0.00409,0.001047,-0.000789,0.044,0.005047,83.3,0.000942,7.0,1.992,0.007812,-0.0,0.000832,0.04272,0.0349,83.6,0.0,7.0,2.0,0.0,0.0,0.0
1738834033965103387,83.9,0.02048,7.004,2.0,0.004585,0.000349,-0.000786,0.0455,0.004932,83.44,0.0009437,7.0,1.992,0.007812,-0.0,0.0007715,0.0442,0.0349,83.8,0.0,7.0,2.0,0.0,0.0,0.0
1738834034015106678,83.94,0.02072,7.004,2.0,0.0051,7.3e-05,-0.000758,0.04446,0.0048,83.56,0.000946,6.996,1.992,0.007812,-0.0,0.0008473,0.04358,0.0349,83.8,0.0,7.0,2.0,0.0,0.0,0.0
1738834034065083742,84.06,0.02103,7.004,1.999,0.005634,0.000811,-0.000783,0.04294,0.00465,83.6,0.0009465,7.0,1.992,0.007812,-0.0,0.00083,0.04272,0.03482,84.0,0.0,7.0,2.0,0.0,0.0,0.0
1738834034115107297,84.1,0.02126,7.004,1.997,0.006023,0.001118,-0.000797,0.0439,0.004547,83.75,0.02747,6.996,1.988,0.007812,-0.0,0.00075,0.043,0.0349,84.0,0.0,7.0,2.0,0.0,0.0,0.0
1738834034165131330,84.25,0.02159,7.004,1.997,0.00653,0.000826,-0.000831,0.04562,0.00441,83.8,0.02747,6.996,1.988,0.01172,-0.0,0.0007715,0.0442,0.0349,84.2,0.0,7.0,2.0,0.0,0.0,0.0
1738834034215118646,84.4,0.02191,7.004,1.996,0.00701,0.000683,-0.00084,0.04575,0.00427,83.94,0.000952,6.996,1.988,0.01172,-0.0,0.0007796,0.0449,0.03473,84.2,0.0,7.0,2.0,0.0,0.0,0.0
1738834034265092134,84.44,0.0223,7.004,1.996,0.007515,0.000817,-0.000839,0.04538,0.004147,84.0,0.02747,6.996,1.988,0.01172,-0.0,0.0007734,0.04453,0.03473,84.4,0.0,7.0,2.0,0.0,0.0,0.0
1738834034315091371,84.56,0.02266,7.004,1.996,0.00797,0.001155,-0.000853,0.04614,0.00401,84.1,0.02747,6.996,1.988,0.01172,-0.0,0.0007825,0.04504,0.03473,84.4,0.0,7.0,2.0,0.0,0.0,0.0
1738834034365080118,84.7,0.02309,7.004,1.996,0.008484,0.001353,-0.000888,0.04724,0.003899,84.2,0.02747,6.996,1.988,0.01172,-0.0,0.000711,0.04602,0.03464,84.6,0.0,7.0,2.0,0.0,0.0,0.0
