time,x_sphinx,y_sphinx,z_sphinx,vx_sphinx,vy_sphinx,vz_sphinx,roll_sphinx,pitch_sphinx,yaw_sphinx,x_anafi,y_anafi,z_anafi,vx_anafi,vy_anafi,vz_anafi,roll_anafi,pitch_anafi,yaw_anafi,wp_x,wp_y,wp_z,wp_vx,wp_vy,wp_vz,wp_yaw
1738834397116677045,41.84,0.08405,6.99,3.975,0.03598,0.003248,0.001839,0.112,0.01347,40.84,0.05298,6.992,3.941,0.0,-0.0,0.002815,0.11224,0.03162,41.6,0.0,7.0,4.0,0.0,0.0,0.0
1738834397166457653,42.03,0.0859,6.99,3.975,0.03528,0.003235,0.001927,0.1122,0.0136,41.0,0.05298,6.992,3.938,0.0,-0.0,0.002798,0.1116,0.03156,41.6,0.0,7.0,4.0,0.0,0.0,0.0
1738834397216462373,42.22,0.0876,6.99,3.973,0.0346,0.0029,0.00199,0.1128,0.013725,41.12,0.05298,6.992,3.938,0.0,-0.0,0.002806,0.11176,0.03162,42.0,0.0,7.0,4.0,0.0,0.0,0.0
1738834397266458511,42.44,0.08936,6.99,3.973,0.03387,0.00281,0.002005,0.11334,0.01383,41.38,0.05298,6.992,3.941,0.0,-0.0,0.002995,0.1126,0.03165,42.0,0.0,7.0,4.0,0.0,0.0,0.0
1738834397316459894,42.62,0.09094,6.99,3.973,0.03323,0.002445,0.002014,0.1137,0.013954,41.66,0.053,6.992,3.941,0.0,-0.0,0.002913,0.1132,0.03156,42.4,0.0,7.0,4.0,0.0,0.0,0.0
1738834397366456270,42.84,0.09265,6.99,3.973,0.03253,0.002169,0.00202,0.11395,0.01408,41.8,0.053,6.992,3.941,0.0,-0.0,0.002918,0.1135,0.03156,42.4,0.0,7.0,4.0,0.0,0.0,0.0
1738834397416458845,43.03,0.09424,6.99,3.973,0.0319,0.001682,0.002035,0.114,0.01422,41.94,0.053,6.992,3.941,0.0,-0.0,0.003006,0.11365,0.03156,42.8,0.0,7.0,4.0,0.0,0.0,0.0
1738834397466463565,43.22,0.0958,6.99,3.973,0.03122,0.001433,0.002062,0.11273,0.014336,42.2,0.053,6.996,3.941,0.0,-0.0,0.003006,0.11365,0.03156,42.8,0.0,7.0,4.0,0.0,0.0,0.0
1738834397516670465,43.44,0.09735,6.99,3.97,0.03056,0.001511,0.002108,0.11176,0.01448,42.47,0.053,6.996,3.941,0.0,-0.0,0.002974,0.1119,0.03146,43.2,0.0,7.0,4.0,0.0,0.0,0.0
1738834397566457271,43.62,0.09894,6.99,3.97,0.02986,0.001381,0.002096,0.1122,0.01461,42.62,0.053,6.996,3.941,-0.003906,-0.0,0.003057,0.11145,0.03156,43.2,0.0,7.0,4.0,0.0,0.0,0.0
1738834397616461753,43.8,0.10034,6.99,3.969,0.02924,0.001199,0.00214,0.1126,0.01474,42.72,0.053,6.996,3.941,-0.003906,-0.0,0.00298,0.11176,0.03165,43.6,0.0,7.0,4.0,0.0,0.0,0.0
1738834397666458606,44.03,0.1018,6.99,3.969,0.02855,0.001217,0.002148,0.1118,0.01485,43.0,0.053,6.996,3.941,-0.003906,-0.003906,0.003077,0.1123,0.03165,43.6,0.0,7.0,4.0,0.0,0.0,0.0
1738834397716475963,44.22,0.1032,6.99,3.967,0.02791,0.001405,0.002148,0.1111,0.01496,43.12,0.053,6.996,3.941,-0.003906,-0.003906,0.00298,0.11176,0.03165,44.0,0.0,7.0,4.0,0.0,0.0,0.0
1738834397766458272,44.44,0.1046,6.99,3.967,0.02724,0.00129,0.002146,0.1117,0.015076,43.4,0.053,6.996,3.941,-0.003906,-0.0,0.00306,0.11096,0.03174,44.0,0.0,7.0,4.0,0.0,0.0,0.0
1738834397816462278,44.62,0.1059,6.99,3.965,0.02663,0.001014,0.002132,0.11237,0.01519,43.53,0.053,6.996,3.941,-0.003906,-0.0,0.003065,0.11127,0.03174,44.4,0.0,7.0,4.0,0.0,0.0,0.0
1738834397866461515,44.8,0.1072,6.99,3.965,0.02605,0.000688,0.002134,0.1129,0.015274,43.78,0.0795,6.996,3.941,-0.003906,-0.003906,0.002998,0.11224,0.0318,44.4,0.0,7.0,4.0,0.0,0.0,0.0
1738834397916462898,45.0,0.1085,6.99,3.965,0.02544,0.000323,0.002132,0.11334,0.0154,44.03,0.0795,6.996,3.941,-0.007812,-0.003906,0.003004,0.1129,0.03174,44.8,0.0,7.0,4.0,0.0,0.0,0.0
1738834397966459989,45.2,0.10974,6.99,3.965,0.02489,0.00021,0.002129,0.1136,0.015526,44.2,0.0795,6.996,3.941,-0.007812,-0.003906,0.003096,0.1132,0.03174,44.8,0.0,7.0,4.0,0.0,0.0,0.0
1738834398016462802,45.4,0.111,6.99,3.965,0.0243,0.000271,0.002129,0.1138,0.01564,44.3,0.053,6.996,3.941,-0.007812,-0.003906,0.003098,0.11334,0.03174,45.2,0.0,7.0,4.0,0.0,0.0,0.0
1738834398066457748,45.6,0.1121,6.99,3.965,0.02377,0.000366,0.00215,0.11383,0.01576,44.6,0.0795,6.996,3.941,-0.007812,-0.003906,0.003016,0.11365,0.03174,45.2,0.0,7.0,4.0,0.0,0.0,0.0
1738834398116461038,45.8,0.11334,6.99,3.965,0.02316,0.000577,0.002296,0.1139,0.01587,44.84,0.0795,6.996,3.945,-0.007812,-0.003906,0.003094,0.1137,0.03156,45.6,0.0,7.0,4.0,0.0,0.0,0.0
1738834398166458129,46.0,0.11444,6.99,3.965,0.02231,0.000701,0.003466,0.11383,0.01602,45.0,0.0795,6.996,3.945,-0.007812,-0.003906,0.00344,0.1137,0.0316,45.6,0.0,7.0,4.0,0.0,0.0,0.0
1738834398216465473,46.2,0.1156,6.99,3.965,0.0208,0.000791,0.004623,0.11365,0.01614,45.12,0.0795,6.996,3.945,-0.01172,-0.003906,0.00422,0.1136,0.03162,46.0,0.0,7.0,4.0,0.0,0.0,0.0
1738834398266462564,46.44,0.1167,6.99,3.965,0.01898,0.000944,0.004204,0.1121,0.0163,45.38,0.0795,6.996,3.945,-0.01172,-0.003906,0.005596,0.1134,0.03152,46.0,0.0,7.0,4.0,0.0,0.0,0.0
1738834398316505670,46.62,0.11755,6.99,3.965,0.01764,0.00119,0.003883,0.11115,0.01643,45.5,0.0795,6.996,3.945,-0.01172,-0.003906,0.005238,0.11237,0.0316,46.4,0.0,7.0,4.0,0.0,0.0,0.0
1738834398366502285,46.8,0.11847,6.99,3.963,0.01604,0.001056,0.0048,0.1116,0.01657,45.78,0.0795,6.996,3.945,-0.01563,-0.0,0.00487,0.111,0.03165,46.4,0.0,7.0,4.0,0.0,0.0,0.0
1738834398416478633,47.0,0.11914,6.99,3.963,0.01435,0.000478,0.00557,0.11206,0.01666,45.9,0.0795,6.996,3.945,-0.01563,-0.0,0.00548,0.11127,0.03168,46.8,0.0,7.0,4.0,0.0,0.0,0.0
1738834398466463327,47.2,0.1198,6.99,3.96,0.012,0.000256,0.006256,0.11255,0.0168,46.2,0.0795,6.996,3.945,-0.01563,-0.003906,0.00653,0.1121,0.03168,46.8,0.0,7.0,4.0,0.0,0.0,0.0
1738834398516461372,47.38,0.1203,6.99,3.96,0.0096,0.000371,0.00674,0.113,0.01689,46.3,0.0795,6.996,3.945,-0.01953,-0.003906,0.006977,0.11237,0.03177,47.2,0.0,7.0,4.0,0.0,0.0,0.0
1738834398566457271,47.6,0.1207,6.99,3.96,0.00704,0.000237,0.007072,0.1132,0.01701,46.6,0.0795,6.996,3.945,-0.02344,-0.003906,0.007767,0.113,0.03183,47.2,0.0,7.0,4.0,0.0,0.0,0.0
1738834398616460561,47.78,0.12103,6.99,3.96,0.004192,-0.000168,0.007133,0.11316,0.01715,46.72,0.0795,6.996,3.945,-0.02344,-0.003906,0.00794,0.1131,0.03183,47.6,0.0,7.0,4.0,0.0,0.0,0.0
1738834398666463375,47.97,0.12115,6.99,3.96,0.001843,-0.000217,0.00604,0.112,0.01723,46.97,0.0795,6.996,3.945,-0.02734,-0.003906,0.00785,0.11304,0.03183,47.6,0.0,7.0,4.0,0.0,0.0,0.0
1738834398716458797,48.2,0.1212,6.99,3.959,-9.1e-05,-1.5e-05,0.004864,0.1109,0.01738,47.12,0.0795,6.996,3.945,-0.02734,-0.003906,0.006886,0.11194,0.03186,48.0,0.0,7.0,4.0,0.0,0.0,0.0
1738834398766463041,48.38,0.12115,6.99,3.959,-0.001387,-0.000107,0.004044,0.11127,0.01747,47.38,0.0795,6.996,3.945,-0.03125,-0.003906,0.005486,0.1109,0.03186,48.0,0.0,7.0,4.0,0.0,0.0,0.0
1738834398816459894,48.6,0.12103,6.99,3.957,-0.002407,-0.000636,0.003448,0.11194,0.01756,47.5,0.0795,6.996,3.945,-0.03125,-0.003906,0.004974,0.1111,0.03192,48.4,0.0,7.0,4.0,0.0,0.0,0.0
1738834398866456747,48.78,0.1209,6.99,3.957,-0.003109,-0.001149,0.003117,0.11237,0.01767,47.78,0.0796,6.996,3.945,-0.03125,-0.003906,0.00412,0.11194,0.03186,48.4,0.0,7.0,4.0,0.0,0.0,0.0
1738834398916472673,48.97,0.1207,6.99,3.957,-0.00371,-0.00136,0.002895,0.1128,0.01776,47.94,0.0796,6.996,3.945,-0.03125,-0.003906,0.003952,0.1123,0.03186,48.8,0.0,7.0,4.0,0.0,0.0,0.0
1738834398966457605,49.16,0.12054,6.99,3.957,-0.00418,-0.001001,0.002771,0.1131,0.01787,48.2,0.0796,6.996,3.945,-0.03516,-0.003906,0.003614,0.11285,0.03186,48.8,0.0,7.0,4.0,0.0,0.0,0.0
1738834399016451835,49.38,0.1203,6.99,3.957,-0.004612,-0.000334,0.002684,0.11334,0.01797,48.28,0.0796,6.996,3.945,-0.03516,-0.003906,0.003618,0.11304,0.03186,49.2,0.0,7.0,4.0,0.0,0.0,0.0
1738834399066457509,49.56,0.1201,6.99,3.957,-0.004974,1.6e-05,0.002638,0.1134,0.01808,48.56,0.0796,6.996,3.945,-0.03516,-0.003906,0.00345,0.11334,0.03183,49.2,0.0,7.0,4.0,0.0,0.0,0.0
1738834399116458177,49.78,0.1198,6.99,3.957,-0.00534,0.000577,0.002632,0.1134,0.01819,48.7,0.0796,6.996,3.945,-0.03516,-0.003906,0.003445,0.11334,0.03177,49.6,0.0,7.0,4.0,0.0,0.0,0.0
1738834399166455984,49.97,0.11957,6.99,3.957,-0.005672,0.000938,0.002642,0.1134,0.01833,48.97,0.0796,6.996,3.945,-0.03516,-0.0,0.003445,0.11334,0.03177,49.6,0.0,7.0,4.0,0.0,0.0,0.0
1738834399216449260,50.16,0.11926,6.99,3.957,-0.00602,0.000994,0.002628,0.11334,0.01842,49.1,0.0796,6.996,3.945,-0.03516,-0.0,0.003445,0.11334,0.03177,50.0,0.0,7.0,4.0,0.0,0.0,0.0
1738834399266454935,50.34,0.11896,6.99,3.957,-0.006336,0.001012,0.002634,0.11334,0.01854,49.38,0.0796,6.996,3.95,-0.03516,-0.0,0.003445,0.11334,0.03177,50.0,0.0,7.0,4.0,0.0,0.0,0.0
1738834399316456079,50.56,0.11865,6.99,3.957,-0.00667,0.00065,0.002666,0.1133,0.01868,49.5,0.0796,6.996,3.95,-0.03516,-0.0,0.003357,0.1133,0.03174,50.4,0.0,7.0,4.0,0.0,0.0,0.0
1738834399366460084,50.75,0.1183,6.99,3.957,-0.00699,0.000219,0.00268,0.1132,0.0188,49.78,0.0796,6.996,3.95,-0.03516,-0.0,0.00353,0.1133,0.03177,50.4,0.0,7.0,4.0,0.0,0.0,0.0
1738834399416450500,50.94,0.1179,6.99,3.957,-0.00733,0.000193,0.002722,0.1132,0.01894,49.88,0.0796,6.996,3.95,-0.03516,-0.0,0.003437,0.11316,0.03168,50.8,0.0,7.0,4.0,0.0,0.0,0.0
1738834399466467857,51.16,0.11755,6.99,3.957,-0.007652,0.000271,0.002733,0.1133,0.01907,50.16,0.0796,6.996,3.95,-0.03516,-0.0,0.003525,0.1133,0.03168,50.8,0.0,7.0,4.0,0.0,0.0,0.0
1738834399516460180,51.34,0.1172,6.99,3.957,-0.00797,0.000599,0.00274,0.1133,0.0192,50.28,0.0796,6.996,3.95,-0.03516,-0.0,0.00353,0.1133,0.03177,51.2,0.0,7.0,4.0,0.0,0.0,0.0
1738834399566460371,51.56,0.11676,6.99,3.957,-0.00833,0.00078,0.002764,0.1133,0.01936,50.56,0.05307,6.996,3.95,-0.03516,-0.0,0.003525,0.1133,0.03168,51.2,0.0,7.0,4.0,0.0,0.0,0.0
1738834399616462945,51.78,0.1163,6.99,3.957,-0.00864,0.001292,0.002487,0.11334,0.0195,50.7,0.05307,6.996,3.95,-0.03516,-0.0,0.00353,0.1133,0.03177,51.6,0.0,7.0,4.0,0.0,0.0,0.0
1738834399666464567,51.94,0.1159,6.99,3.957,-0.00853,0.001317,0.001295,0.1133,0.01962,50.97,0.0796,6.996,3.95,-0.03516,-0.0,0.003271,0.11334,0.03174,51.6,0.0,7.0,4.0,0.0,0.0,0.0
1738834399716496706,52.12,0.1155,6.99,3.957,-0.00791,0.001002,0.000315,0.11334,0.01976,51.1,0.05307,6.996,3.953,-0.03516,-0.0,0.002316,0.1133,0.03168,52.0,0.0,7.0,4.0,0.0,0.0,0.0
1738834399766471147,52.34,0.1151,6.99,3.957,-0.007122,0.000386,0.000674,0.11444,0.01993,51.38,0.05307,6.996,3.953,-0.03516,-0.0,0.001029,0.1136,0.0318,52.0,0.0,7.0,4.0,0.0,0.0,0.0
1738834399816464662,52.53,0.11475,6.99,3.959,-0.006485,-0.000276,0.001143,0.1156,0.02002,51.47,0.05307,6.996,3.953,-0.03516,-0.0,0.001302,0.1143,0.0318,52.4,0.0,7.0,4.0,0.0,0.0,0.0
1738834399866461515,52.75,0.11444,6.99,3.959,-0.005775,-0.000726,0.000344,0.1152,0.02014,51.75,0.05307,6.996,3.953,-0.03125,-0.0,0.00184,0.1157,0.03177,52.4,0.0,7.0,4.0,0.0,0.0,0.0
1738834399916465997,52.9,0.1142,6.99,3.959,-0.00484,-0.000595,-0.000374,0.11475,0.02028,51.9,0.0531,6.996,3.953,-0.03125,-0.003906,0.001225,0.1153,0.0317,52.8,0.0,7.0,4.0,0.0,0.0,0.0
1738834399966454982,53.12,0.114,6.99,3.96,-0.00338,-0.000243,-0.001047,0.1156,0.02042,52.16,0.0531,6.996,3.957,-0.03125,-0.0,9.57e-05,0.11487,0.03174,52.8,0.0,7.0,4.0,0.0,0.0,0.0
1738834400016460180,53.3,0.1139,6.99,3.96,-0.001777,-0.000203,-0.001489,0.11633,0.02054,52.28,0.0531,6.996,3.957,-0.03125,-0.0,-0.0002378,0.1154,0.0318,53.2,0.0,7.0,4.0,0.0,0.0,0.0
1738834400066462516,53.53,0.11383,6.99,3.963,0.000147,0.000141,-0.001787,0.1157,0.02065,52.53,0.0531,6.996,3.96,-0.02734,-0.0,-0.0008044,0.1164,0.0322,53.2,0.0,7.0,4.0,0.0,0.0,0.0
1738834400116473674,53.72,0.1139,6.99,3.965,0.00216,0.000594,-0.001972,0.11487,0.0207,52.7,0.0531,6.996,3.96,-0.02734,-0.0,-0.0009713,0.11584,0.03247,53.6,0.0,7.0,4.0,0.0,0.0,0.0
1738834400166464567,53.9,0.1141,6.99,3.965,0.00405,0.000563,-0.002071,0.1142,0.02077,52.97,0.0531,6.996,3.96,-0.02344,-0.0,-0.00126,0.11475,0.03226,53.6,0.0,7.0,4.0,0.0,0.0,0.0
1738834400216472625,54.12,0.1143,6.99,3.965,0.006126,0.000613,-0.002134,0.1137,0.02084,53.06,0.0531,6.996,3.96,-0.02344,-0.0,-0.001353,0.1143,0.03226,54.0,0.0,7.0,4.0,0.0,0.0,0.0
1738834400266569375,54.3,0.1146,6.99,3.965,0.008026,0.000544,-0.002163,0.1134,0.0209,53.34,0.0531,6.996,3.96,-0.01953,-0.0,-0.001455,0.1137,0.03217,54.0,0.0,7.0,4.0,0.0,0.0,0.0
1738834400316618204,54.53,0.1151,6.99,3.965,0.01003,0.000145,-0.00198,0.11334,0.021,53.47,0.0531,6.996,3.96,-0.01953,-0.0,-0.001458,0.1135,0.03217,54.4,0.0,7.0,4.0,0.0,0.0,0.0
1738834400366599082,54.72,0.11566,6.99,3.965,0.01154,-0.000166,-0.000755,0.11444,0.02109,53.75,0.0531,6.996,3.965,-0.01563,-0.0,-0.001022,0.1136,0.0322,54.4,0.0,7.0,4.0,0.0,0.0,0.0
1738834400416560888,54.9,0.1163,6.99,3.965,0.01253,-0.000384,0.00053,0.11554,0.02115,53.88,0.0531,6.996,3.965,-0.01563,-0.0,-0.0002346,0.1144,0.03217,54.8,0.0,7.0,4.0,0.0,0.0,0.0
1738834400466576099,55.1,0.1169,6.99,3.967,0.012924,-0.000457,0.001434,0.1152,0.02124,54.12,0.0531,6.996,3.965,-0.01172,-0.0,0.001425,0.11566,0.03207,54.8,0.0,7.0,4.0,0.0,0.0,0.0
1738834400516572713,55.3,0.11755,6.99,3.967,0.01294,-0.000589,0.002121,0.11444,0.02133,54.28,0.0531,6.996,3.965,-0.01172,-0.0,0.002028,0.11536,0.0321,55.2,0.0,7.0,4.0,0.0,0.0,0.0
1738834400566540718,55.5,0.11816,6.99,3.967,0.01269,-0.000835,0.002537,0.11395,0.02144,54.56,0.0531,6.996,3.965,-0.01172,-0.0,0.002956,0.1144,0.03198,55.2,0.0,7.0,4.0,0.0,0.0,0.0
1738834400616543531,55.7,0.1188,6.99,3.967,0.0123,-0.001106,0.002779,0.1135,0.02151,54.66,0.0531,6.996,3.965,-0.01172,-0.0,0.003119,0.1141,0.03192,55.6,0.0,7.0,4.0,0.0,0.0,0.0
1738834400666581392,55.9,0.1194,6.99,3.967,0.01176,-0.00121,0.002949,0.1133,0.02164,54.94,0.05313,6.996,3.969,-0.01172,-0.0,0.003458,0.1135,0.03192,55.6,0.0,7.0,4.0,0.0,0.0,0.0
1738834400716583967,56.1,0.12,6.99,3.967,0.01117,-0.001345,0.003054,0.1132,0.02174,55.06,0.05313,6.996,3.969,-0.01172,-0.0,0.003624,0.11334,0.03186,56.0,0.0,7.0,4.0,0.0,0.0,0.0
1738834400766565322,56.28,0.12054,6.99,3.967,0.010605,-0.001426,0.003101,0.1144,0.02184,55.34,0.05313,6.996,3.969,-0.01563,-0.0,0.003712,0.11346,0.03186,56.0,0.0,7.0,4.0,0.0,0.0,0.0
1738834400816533565,56.47,0.12103,6.99,3.967,0.01004,-0.001568,0.003136,0.1155,0.02196,55.47,0.05313,6.996,3.969,-0.01563,-0.0,0.003721,0.1143,0.03177,56.4,0.0,7.0,4.0,0.0,0.0,0.0
1738834400866577386,56.7,0.1215,6.99,3.969,0.00944,-0.001638,0.003197,0.1151,0.02208,55.72,0.07965,6.996,3.969,-0.01563,-0.003906,0.003843,0.1156,0.03204,56.4,0.0,7.0,4.0,0.0,0.0,0.0
1738834400916578054,56.88,0.12195,6.99,3.969,0.00886,-0.001596,0.003208,0.1145,0.02214,55.88,0.07965,6.996,3.969,-0.01563,-0.0,0.003859,0.11523,0.03238,56.8,0.0,7.0,4.0,0.0,0.0,0.0
1738834400966569662,57.1,0.1224,6.99,3.969,0.00823,-0.001662,0.003227,0.11523,0.02223,56.16,0.05313,6.996,3.969,-0.01563,-0.0,0.00384,0.11475,0.03223,56.8,0.0,7.0,4.0,0.0,0.0,0.0
1738834401016549110,57.28,0.1228,6.99,3.97,0.007664,-0.002356,0.003262,0.11597,0.0223,56.25,0.05313,6.996,3.973,-0.01563,-0.0,0.003847,0.11523,0.03223,57.2,0.0,7.0,4.0,0.0,0.0,0.0
1738834401066566467,57.47,0.12317,6.99,3.97,0.007042,-0.002855,0.00331,0.1153,0.02235,56.5,0.07965,6.996,3.973,-0.01563,-0.003906,0.003883,0.11597,0.03265,57.2,0.0,7.0,4.0,0.0,0.0,0.0
1738834401116607189,57.7,0.1235,6.99,3.97,0.006443,-0.003084,0.00332,0.1145,0.02234,56.66,0.07965,6.996,3.973,-0.01563,-0.003906,0.003975,0.11554,0.03284,57.6,0.0,7.0,4.0,0.0,0.0,0.0
1738834401166579008,57.88,0.1238,6.99,3.97,0.005787,-0.003202,0.003355,0.1139,0.02234,56.94,0.07965,6.996,3.973,-0.01563,-0.003906,0.003864,0.1144,0.03275,57.6,0.0,7.0,4.0,0.0,0.0,0.0
1738834401216540813,58.06,0.1241,6.99,3.97,0.00517,-0.002945,0.003359,0.11346,0.02237,57.06,0.07965,6.996,3.977,-0.01563,-0.003906,0.004025,0.114,0.03265,58.0,0.0,7.0,4.0,0.0,0.0,0.0
1738834401266582489,58.28,0.1243,6.99,3.97,0.00451,-0.002686,0.003368,0.11316,0.02238,57.3,0.07965,6.996,3.977,-0.01563,-0.003906,0.00401,0.1135,0.03247,58.0,0.0,7.0,4.0,0.0,0.0,0.0
1738834401316578388,58.47,0.1245,6.99,3.97,0.003864,-0.002483,0.003502,0.1131,0.02243,57.47,0.07965,6.996,3.977,-0.01563,-0.003906,0.003994,0.11334,0.03232,58.4,0.0,7.0,4.0,0.0,0.0,0.0
1738834401366569995,58.7,0.1247,6.99,3.97,0.002834,-0.002277,0.004795,0.1142,0.02252,57.72,0.07965,6.996,3.977,-0.01953,-0.003906,0.004242,0.1133,0.03214,58.4,0.0,7.0,4.0,0.0,0.0,0.0
1738834401416538000,58.88,0.1248,6.99,3.97,0.001336,-0.002626,0.0059,0.11523,0.0226,57.88,0.07965,6.996,3.977,-0.01953,-0.0,0.005207,0.1142,0.0321,58.8,0.0,7.0,4.0,0.0,0.0,0.0
1738834401466574668,59.06,0.1248,6.99,3.973,-0.000471,-0.002693,0.005592,0.11487,0.02266,58.1,0.07965,6.996,3.977,-0.01953,-0.003906,0.006454,0.11536,0.03238,58.8,0.0,7.0,4.0,0.0,0.0,0.0
1738834401516570091,59.25,0.12476,6.99,3.973,-0.001941,-0.002447,0.00514,0.1142,0.02269,58.28,0.07965,6.996,3.977,-0.01953,-0.003906,0.006195,0.1149,0.03253,59.2,0.0,7.0,4.0,0.0,0.0,0.0
1738834401566573143,59.47,0.12463,6.99,3.973,-0.003586,-0.0026,0.005924,0.11365,0.02275,58.53,0.07965,6.996,3.977,-0.02344,-0.0,0.005825,0.1141,0.03232,59.2,0.0,7.0,4.0,0.0,0.0,0.0
1738834401616537809,59.66,0.1244,6.99,3.973,-0.00546,-0.002693,0.006657,0.1132,0.02278,58.66,0.07965,6.996,3.977,-0.02344,-0.0,0.00642,0.11383,0.03226,59.6,0.0,7.0,4.0,0.0,0.0,0.0
1738834401666592597,59.88,0.1241,6.99,3.973,-0.00753,-0.002651,0.00607,0.113,0.02283,58.9,0.07965,6.996,3.977,-0.02734,-0.0,0.007183,0.1132,0.03214,59.6,0.0,7.0,4.0,0.0,0.0,0.0
1738834401716613531,60.06,0.12366,6.99,3.97,-0.00909,-0.002476,0.005352,0.1129,0.0229,59.06,0.07965,6.996,3.977,-0.02734,-0.0,0.00666,0.11304,0.0321,60.0,0.0,7.0,4.0,0.0,0.0,0.0
1738834401766563892,60.25,0.12317,6.99,3.97,-0.01041,-0.002312,0.004738,0.1141,0.02298,59.34,0.07965,6.996,3.977,-0.03125,-0.0,0.005623,0.1132,0.03204,60.0,0.0,7.0,4.0,0.0,0.0,0.0
1738834401816546201,60.47,0.12256,6.99,3.97,-0.01143,-0.002632,0.004307,0.1151,0.02307,59.44,0.07965,6.996,3.977,-0.03125,-0.0,0.005375,0.114,0.03204,60.4,0.0,7.0,4.0,0.0,0.0,0.0
1738834401866581916,60.66,0.122,6.984,3.973,-0.012184,-0.002604,0.004047,0.11475,0.02316,59.72,0.0797,6.996,3.977,-0.03125,-0.0,0.00471,0.11523,0.03217,60.4,0.0,7.0,4.0,0.0,0.0,0.0
1738834401916603326,60.84,0.1214,6.984,3.973,-0.01283,-0.002245,0.003876,0.1142,0.0232,59.84,0.0797,6.996,3.977,-0.03125,-0.0,0.004547,0.11487,0.03244,60.8,0.0,7.0,4.0,0.0,0.0,0.0
1738834401966588973,61.06,0.1207,6.984,3.973,-0.013466,-0.002247,0.003761,0.1149,0.02322,60.1,0.0797,6.996,3.98,-0.03125,-0.0,0.00436,0.1144,0.03232,60.8,0.0,7.0,4.0,0.0,0.0,0.0
1738834402016535282,61.25,0.12006,6.984,3.973,-0.01399,-0.002691,0.003725,0.1156,0.02327,60.25,0.0797,6.996,3.98,-0.03125,-0.0,0.00428,0.115,0.03232,61.2,0.0,7.0,4.0,0.0,0.0,0.0
1738834402066563367,61.47,0.1193,6.984,3.975,-0.01454,-0.003042,0.003733,0.115,0.02327,60.5,0.0797,6.996,3.98,-0.03125,-0.0,0.004234,0.1158,0.03275,61.2,0.0,7.0,4.0,0.0,0.0,0.0
1738834402116569042,61.66,0.1186,6.984,3.975,-0.01506,-0.002956,0.003752,0.11426,0.02325,60.66,0.0797,6.996,3.98,-0.03125,-0.0,0.004234,0.11523,0.03293,61.6,0.0,7.0,4.0,0.0,0.0,0.0
1738834402166582822,61.84,0.11786,6.984,3.975,-0.01559,-0.002684,0.003763,0.1148,0.0232,60.9,0.0797,6.996,3.98,-0.03516,-0.0,0.00422,0.1144,0.03293,61.6,0.0,7.0,4.0,0.0,0.0,0.0
1738834402216552257,62.03,0.11707,6.984,3.975,-0.01614,-0.002298,0.003744,0.11566,0.02315,61.03,0.0797,6.996,3.984,-0.03516,-0.0,0.00422,0.1149,0.03275,62.0,0.0,7.0,4.0,0.0,0.0,0.0
1738834402266583919,62.25,0.1162,6.984,3.977,-0.0167,-0.00197,0.003777,0.11505,0.0231,61.3,0.0797,6.996,3.984,-0.03125,-0.0,0.00417,0.11584,0.0331,62.0,0.0,7.0,4.0,0.0,0.0,0.0
1738834402316580533,62.44,0.1154,6.984,3.977,-0.01721,-0.00165,0.003761,0.1144,0.02301,61.44,0.0797,6.996,3.984,-0.03516,-0.0,0.00417,0.11536,0.03326,62.4,0.0,7.0,4.0,0.0,0.0,0.0
1738834402366584539,62.66,0.1145,6.984,3.977,-0.01778,-0.001735,0.003761,0.115,0.02293,61.72,0.0532,6.996,3.984,-0.03516,-0.0,0.004227,0.11456,0.03302,62.4,0.0,7.0,4.0,0.0,0.0,0.0
1738834402416555881,62.84,0.1136,6.984,3.979,-0.01825,-0.001847,0.003672,0.11566,0.02286,61.84,0.0532,6.996,3.984,-0.03516,-0.0,0.004143,0.115,0.03293,62.8,0.0,7.0,4.0,0.0,0.0,0.0
1738834402466587066,63.03,0.1127,6.984,3.979,-0.01843,-0.00202,0.002407,0.11505,0.0228,62.1,0.0532,6.996,3.984,-0.03516,-0.0,0.00391,0.1158,0.03317,62.8,0.0,7.0,4.0,0.0,0.0,0.0
1738834402516573905,63.25,0.11176,6.984,3.979,-0.01805,-0.001868,0.001317,0.11426,0.02269,62.22,0.0532,6.996,3.988,-0.03516,-0.0,0.00305,0.1153,0.0334,63.2,0.0,7.0,4.0,0.0,0.0,0.0
1738834402566583156,63.44,0.11084,6.984,3.979,-0.01744,-0.001674,0.001646,0.11365,0.02261,62.5,0.0532,6.996,3.988,-0.03516,-0.0,0.001716,0.11414,0.03305,63.2,0.0,7.0,4.0,0.0,0.0,0.0
1738834402616550207,63.62,0.11005,6.984,3.979,-0.01709,-0.001653,0.002054,0.1132,0.02252,62.62,0.0532,6.996,3.988,-0.03516,-0.0,0.00196,0.1139,0.03287,63.6,0.0,7.0,4.0,0.0,0.0,0.0
1738834402666572332,63.84,0.10913,6.984,3.979,-0.01662,-0.001744,0.001211,0.11285,0.02246,62.9,0.0532,6.996,3.988,-0.03125,-0.0,0.00237,0.1133,0.03265,63.6,0.0,7.0,4.0,0.0,0.0,0.0
1738834402716571569,64.06,0.1084,6.984,3.977,-0.0158,-0.001831,0.000432,0.1128,0.02243,63.03,0.05322,6.996,3.988,-0.03125,-0.0,0.001754,0.11304,0.03253,64.0,0.0,7.0,4.0,0.0,0.0,0.0
1738834402766562700,64.25,0.1076,6.984,3.977,-0.01456,-0.001991,-0.000233,0.11395,0.02242,63.3,0.05322,6.996,3.984,-0.03125,-0.0,0.000708,0.11304,0.03238,64.0,0.0,7.0,4.0,0.0,0.0,0.0
1738834402816534519,64.44,0.1069,6.984,3.977,-0.013016,-0.002401,-0.000688,0.115,0.02243,63.44,0.05322,6.996,3.984,-0.03125,-0.0,0.000197,0.11395,0.03226,64.4,0.0,7.0,4.0,0.0,0.0,0.0
1738834402866569995,64.6,0.10626,6.984,3.977,-0.011444,-0.00231,-0.000962,0.11456,0.02243,63.7,0.05322,6.996,3.984,-0.02734,-0.0,-0.000387,0.11505,0.03232,64.4,0.0,7.0,4.0,0.0,0.0,0.0
1738834402916570186,64.8,0.1058,6.984,3.977,-0.00978,-0.001789,-0.001144,0.11414,0.02246,63.84,0.05322,6.996,3.984,-0.02734,-0.0,-0.0005713,0.11475,0.03223,64.8,0.0,7.0,4.0,0.0,0.0,0.0
1738834402966569185,65.06,0.1053,6.984,3.977,-0.00793,-0.001699,-0.00127,0.11487,0.02246,64.1,0.05322,6.996,3.988,-0.02344,-0.0,-0.000755,0.1144,0.03214,64.8,0.0,7.0,4.0,0.0,0.0,0.0
1738834403016545057,65.25,0.105,6.984,3.979,-0.006187,-0.001959,-0.001302,0.1156,0.02249,64.25,0.05322,6.996,3.988,-0.02344,-0.0,-0.000925,0.11487,0.032,65.2,0.0,7.0,4.0,0.0,0.0,0.0
1738834403066561222,65.44,0.1047,6.984,3.979,-0.0043,-0.002293,-0.001324,0.115,0.02252,64.5,0.05322,6.996,3.988,-0.01953,-0.0,-0.000979,0.11566,0.03238,65.2,0.0,7.0,4.0,0.0,0.0,0.0
1738834403116555213,65.6,0.10455,6.984,3.979,-0.002598,-0.002178,-0.001284,0.11426,0.02249,64.6,0.05322,6.996,3.988,-0.01953,-0.0,-0.0009727,0.1152,0.03262,65.6,0.0,7.0,4.0,0.0,0.0,0.0
1738834403166580677,65.8,0.10443,6.984,3.979,-0.001069,-0.002071,-9.9e-05,0.1148,0.0225,64.94,0.05322,6.996,3.988,-0.01563,-0.0,-0.00074,0.1144,0.03238,65.6,0.0,7.0,4.0,0.0,0.0,0.0
1738834403216536998,66.0,0.10443,6.984,3.979,-0.000251,-0.00222,0.001129,0.1155,0.02248,65.0,0.05322,6.996,3.988,-0.01563,-0.0,0.0001308,0.11487,0.03235,66.0,0.0,7.0,4.0,0.0,0.0,0.0
1738834403266571998,66.25,0.10443,6.984,3.98,5.6e-05,-0.002508,0.002117,0.11475,0.02246,65.3,0.05322,6.996,3.988,-0.01172,-0.0,0.001714,0.11554,0.03262,66.0,0.0,7.0,4.0,0.0,0.0,0.0
1738834403316558599,66.44,0.10443,6.984,3.98,-5.4e-05,-0.002474,0.002764,0.114,0.02242,65.44,0.05322,6.996,3.988,-0.01172,-0.0,0.002483,0.1149,0.03265,66.4,0.0,7.0,4.0,0.0,0.0,0.0
1738834403366608142,66.6,0.10443,6.984,3.98,-0.000471,-0.001927,0.003227,0.1135,0.02238,65.7,0.05325,6.996,3.992,-0.01563,-0.0,0.003235,0.11395,0.03244,66.4,0.0,7.0,4.0,0.0,0.0,0.0
1738834403416544437,66.8,0.1044,6.984,3.979,-0.001018,-0.001991,0.00348,0.1131,0.02237,65.8,0.05325,6.996,3.992,-0.01563,-0.0,0.00348,0.1137,0.0323,66.8,0.0,7.0,4.0,0.0,0.0,0.0
1738834403466563940,67.0,0.1043,6.984,3.979,-0.001659,-0.002184,0.003632,0.1128,0.02235,66.06,0.05325,6.996,3.988,-0.01563,-0.0,0.003809,0.11316,0.03214,66.8,0.0,7.0,4.0,0.0,0.0,0.0
1738834403516545295,67.2,0.1042,6.984,3.979,-0.002415,-0.00246,0.003721,0.1127,0.02237,66.25,0.05325,6.996,3.988,-0.01563,-0.0,0.003885,0.1129,0.03204,67.2,0.0,7.0,4.0,0.0,0.0,0.0
1738834403566554307,67.44,0.10406,6.984,3.977,-0.003126,-0.002747,0.003769,0.1138,0.02242,66.5,0.05325,6.996,3.988,-0.01563,-0.0,0.00405,0.1131,0.03186,67.2,0.0,7.0,4.0,0.0,0.0,0.0
1738834403616541147,67.6,0.1039,6.984,3.979,-0.00389,-0.002735,0.003801,0.1149,0.02246,66.6,0.05325,6.996,3.988,-0.01563,-0.0,0.00406,0.1138,0.0318,67.6,0.0,7.0,4.0,0.0,0.0,0.0
1738834403666576862,67.8,0.1037,6.98,3.979,-0.0046,-0.002592,0.003843,0.1146,0.02254,66.9,0.05325,6.996,3.988,-0.01563,-0.0,0.00416,0.11505,0.0317,67.6,0.0,7.0,4.0,0.0,0.0,0.0
1738834403716570377,68.0,0.1034,6.98,3.979,-0.00538,-0.00244,0.003857,0.114,0.02258,67.06,0.05325,6.996,3.988,-0.01563,-0.0,0.004158,0.11475,0.0317,68.0,0.0,7.0,4.0,0.0,0.0,0.0
1738834403766572475,68.2,0.10315,6.98,3.979,-0.006096,-0.002163,0.003864,0.11456,0.02266,67.3,0.05325,6.996,3.988,-0.01563,-0.0,0.004143,0.1142,0.03162,68.0,0.0,7.0,4.0,0.0,0.0,0.0
1738834403816544055,68.44,0.1028,6.98,3.979,-0.006847,-0.002146,0.003885,0.1154,0.02275,67.44,0.05325,6.996,3.988,-0.01953,-0.0,0.004147,0.11475,0.03152,68.4,0.0,7.0,4.0,0.0,0.0,0.0
1738834403866575956,68.6,0.1025,6.98,3.979,-0.00754,-0.00213,0.003933,0.1148,0.02284,67.7,0.05325,6.996,3.988,-0.01953,-0.0,0.004177,0.1154,0.0319,68.4,0.0,7.0,4.0,0.0,0.0,0.0
1738834403916556119,68.8,0.10205,6.98,3.98,-0.00831,-0.001757,0.003925,0.11414,0.02286,67.9,0.05325,6.996,3.988,-0.01953,-0.0,0.004185,0.1149,0.03214,68.8,0.0,7.0,4.0,0.0,0.0,0.0
1738834403966569900,69.0,0.1016,6.98,3.98,-0.00906,-0.001475,0.003914,0.11487,0.02292,68.1,0.05328,6.996,3.992,-0.01953,-0.0,0.00425,0.1143,0.03198,68.8,0.0,7.0,4.0,0.0,0.0,0.0
1738834404016546487,69.2,0.10114,6.98,3.98,-0.00973,-0.00154,0.003895,0.11554,0.02293,68.2,0.05328,6.996,3.992,-0.01953,-0.0,0.004253,0.1148,0.0319,69.2,0.0,7.0,4.0,0.0,0.0,0.0
1738834404066555500,69.4,0.10065,6.98,3.98,-0.01039,-0.001574,0.00396,0.1149,0.02296,68.5,0.05328,6.996,3.992,-0.01953,-0.0,0.0042,0.1156,0.03223,69.2,0.0,7.0,4.0,0.0,0.0,0.0
1738834404116531610,69.6,0.1001,6.98,3.98,-0.01115,-0.001672,0.004013,0.1141,0.02295,68.6,0.05328,6.996,3.992,-0.01953,-0.0,0.0042,0.11505,0.0324,69.6,0.0,7.0,4.0,0.0,0.0,0.0
1738834404166554689,69.8,0.09955,6.98,3.98,-0.011856,-0.00182,0.004025,0.11456,0.02296,68.9,0.05328,6.996,3.992,-0.02344,-0.0,0.004356,0.1142,0.03232,69.6,0.0,7.0,4.0,0.0,0.0,0.0
1738834404216540575,70.0,0.09894,6.98,3.98,-0.01262,-0.002317,0.00406,0.1155,0.02295,69.0,0.05328,6.996,3.992,-0.02344,-0.0,0.004272,0.1146,0.03223,70.0,0.0,7.0,4.0,0.0,0.0,0.0
1738834404266551733,70.2,0.0982,6.98,3.982,-0.01337,-0.00279,0.004036,0.11615,0.02292,69.25,0.05328,6.996,3.992,-0.02344,-0.0,0.004387,0.1158,0.0324,70.0,0.0,7.0,4.0,0.0,0.0,0.0
1738834404316537857,70.4,0.0976,6.98,3.982,-0.01402,-0.003023,0.00401,0.1167,0.02292,69.44,0.05328,6.996,3.992,-0.02344,-0.0,0.004322,0.1162,0.03268,70.4,0.0,7.0,4.0,0.0,0.0,0.0
1738834404366559267,70.56,0.09686,6.98,3.984,-0.01466,-0.00315,0.003998,0.11707,0.02284,69.7,0.05328,6.996,3.996,-0.02344,-0.0,0.004257,0.117,0.03284,70.4,0.0,7.0,4.0,0.0,0.0,0.0
1738834404416545629,70.8,0.0961,6.98,3.986,-0.01536,-0.003471,0.004036,0.11707,0.02275,69.8,0.05328,6.996,3.996,-0.02344,-0.0,0.00427,0.1171,0.03293,70.8,0.0,7.0,4.0,0.0,0.0,0.0
1738834404466549396,71.0,0.09534,6.98,3.986,-0.01602,-0.003778,0.004066,0.11597,0.02264,70.06,0.05328,6.996,3.996,-0.02344,-0.0,0.004364,0.11707,0.0331,70.8,0.0,7.0,4.0,0.0,0.0,0.0
1738834404516534328,71.2,0.0945,6.98,3.988,-0.01675,-0.003332,0.004063,0.1148,0.02249,70.25,0.05328,6.996,4.0,-0.02344,-0.0,0.00435,0.116,0.0332,71.2,0.0,7.0,4.0,0.0,0.0,0.0
1738834404566551446,71.4,0.0937,6.98,3.988,-0.01744,-0.003187,0.004063,0.1152,0.0224,70.5,0.0533,6.996,4.0,-0.02734,-0.0,0.004326,0.115,0.0331,71.2,0.0,7.0,4.0,0.0,0.0,0.0
1738834404616552591,71.6,0.0928,6.98,3.988,-0.01817,-0.003592,0.004074,0.1157,0.02226,70.6,0.0533,6.996,4.0,-0.02734,-0.0,0.004333,0.11536,0.0331,71.6,0.0,7.0,4.0,0.0,0.0,0.0
1738834404666582822,71.8,0.0918,6.98,3.988,-0.0189,-0.003502,0.004086,0.1149,0.02211,70.9,0.0533,6.996,4.0,-0.02734,-0.0,0.004345,0.11566,0.0332,71.6,0.0,7.0,4.0,0.0,0.0,0.0
1738834404716560840,72.0,0.09094,6.98,3.988,-0.01955,-0.003004,0.00409,0.1143,0.02199,71.0,0.0533,6.996,4.0,-0.02734,-0.0,0.004326,0.115,0.0331,72.0,0.0,7.0,4.0,0.0,0.0,0.0
1738834404766577005,72.2,0.0899,6.98,3.988,-0.0203,-0.002687,0.004078,0.11487,0.02187,71.3,0.0533,6.996,4.0,-0.02734,-0.0,0.0043,0.11444,0.03275,72.0,0.0,7.0,4.0,0.0,0.0,0.0
1738834404816564083,72.4,0.0888,6.98,3.988,-0.02103,-0.002802,0.00408,0.11554,0.02179,71.44,0.0533,6.996,4.0,-0.02734,-0.0,0.004295,0.115,0.0326,72.4,0.0,7.0,4.0,0.0,0.0,0.0
1738834404866585493,72.56,0.0878,6.98,3.99,-0.0217,-0.00281,0.004078,0.11487,0.02173,71.7,0.0533,6.996,4.0,-0.02734,-0.0,0.004395,0.1156,0.0326,72.4,0.0,7.0,4.0,0.0,0.0,0.0
1738834404916572093,72.8,0.0867,6.98,3.99,-0.02243,-0.00272,0.004032,0.11414,0.02164,71.8,0.0533,6.996,4.0,-0.03125,-0.0,0.004295,0.115,0.0326,72.8,0.0,7.0,4.0,0.0,0.0,0.0
1738834404966559886,73.0,0.0856,6.98,3.99,-0.02307,-0.002499,0.004032,0.11475,0.0216,72.1,0.0533,6.996,4.0,-0.03125,-0.0,0.00426,0.1143,0.03214,72.8,0.0,7.0,4.0,0.0,0.0,0.0
1738834405016572713,73.2,0.08435,6.98,3.99,-0.02377,-0.002537,0.004055,0.11554,0.02158,72.2,0.0533,6.996,4.0,-0.03125,-0.0,0.004265,0.1148,0.03207,73.2,0.0,7.0,4.0,0.0,0.0,0.0
1738834405066588401,73.4,0.0832,6.98,3.99,-0.0244,-0.002405,0.00405,0.11487,0.02158,72.44,0.0533,6.996,4.0,-0.03125,-0.0,0.004276,0.1155,0.03207,73.2,0.0,7.0,4.0,0.0,0.0,0.0
1738834405116565704,73.56,0.0819,6.98,3.99,-0.02507,-0.001869,0.00397,0.11414,0.02158,72.6,0.05334,6.996,4.0,-0.03125,-0.0,0.00427,0.115,0.03207,73.6,0.0,7.0,4.0,0.0,0.0,0.0
1738834405166561841,73.8,0.0807,6.977,3.99,-0.02544,-0.00166,0.002914,0.1146,0.02158,72.9,0.05334,6.996,4.004,-0.03125,-0.0,0.00398,0.1142,0.0318,73.6,0.0,7.0,4.0,0.0,0.0,0.0
1738834405216550588,74.0,0.07935,6.977,3.99,-0.02518,-0.0022,0.001563,0.11536,0.02164,73.0,0.05334,6.996,4.004,-0.03125,-0.0,0.0032,0.1147,0.03165,74.0,0.0,7.0,4.0,0.0,0.0,0.0
1738834405266557693,74.2,0.0782,6.977,3.99,-0.02441,-0.002893,0.000666,0.1147,0.0217,73.25,0.05334,6.996,4.0,-0.03125,-0.0,0.001477,0.11536,0.03156,74.0,0.0,7.0,4.0,0.0,0.0,0.0
1738834405316571712,74.4,0.07697,6.977,3.99,-0.02318,-0.00308,-3.9e-05,0.114,0.02177,73.44,0.05334,6.996,4.004,-0.03125,-0.0,0.000855,0.1148,0.03143,74.4,0.0,7.0,4.0,0.0,0.0,0.0
1738834405366576671,74.56,0.07587,6.977,3.99,-0.02182,-0.003036,-0.000443,0.11475,0.02184,73.7,0.05334,6.996,4.004,-0.02734,-0.0,-2.05e-05,0.11426,0.03137,74.4,0.0,7.0,4.0,0.0,0.0,0.0
1738834405416564226,74.8,0.07477,6.977,3.99,-0.02016,-0.003012,-0.000689,0.11554,0.02193,73.8,0.05334,6.996,4.004,-0.02734,-0.0,-0.0001857,0.1148,0.03137,74.8,0.0,7.0,4.0,0.0,0.0,0.0
1738834405466550827,75.0,0.07385,6.977,3.99,-0.01855,-0.002958,-0.000831,0.1149,0.022,74.06,0.05334,6.996,4.0,-0.02344,-0.0,-0.000587,0.1156,0.0317,74.8,0.0,7.0,4.0,0.0,0.0,0.0
1738834405516548156,75.2,0.07294,6.977,3.99,-0.01677,-0.002604,-0.000953,0.11426,0.02203,74.2,0.05334,6.996,4.004,-0.02344,-0.0,-0.0005803,0.11505,0.03195,75.2,0.0,7.0,4.0,0.0,0.0,0.0
1738834405566549301,75.4,0.07214,6.977,3.99,-0.01509,-0.002195,-0.001033,0.11487,0.02206,74.5,0.02684,6.996,4.004,-0.02344,-0.0,-0.000775,0.1144,0.03177,75.2,0.0,7.0,4.0,0.0,0.0,0.0
1738834405616559505,75.56,0.0714,6.977,3.99,-0.01331,-0.002325,-0.000875,0.1156,0.02211,74.6,0.02684,6.996,4.004,-0.01953,-0.0,-0.0007668,0.11487,0.03177,75.6,0.0,7.0,4.0,0.0,0.0,0.0
1738834405666551113,75.75,0.0708,6.977,3.992,-0.01199,-0.002348,0.000366,0.1149,0.02214,74.9,0.02684,6.996,4.004,-0.01953,-0.0,-0.0003886,0.1156,0.03214,75.6,0.0,7.0,4.0,0.0,0.0,0.0
1738834405716540575,76.0,0.0702,6.977,3.992,-0.01126,-0.001774,0.001628,0.1142,0.02213,75.0,0.02686,6.996,4.004,-0.01563,-0.0,0.000556,0.115,0.0322,76.0,0.0,7.0,4.0,0.0,0.0,0.0
1738834405766559839,76.2,0.0697,6.977,3.992,-0.011086,-0.001419,0.002487,0.1148,0.02214,75.25,0.02686,6.996,4.004,-0.01563,-0.0,0.002178,0.1143,0.03204,76.0,0.0,7.0,4.0,0.0,0.0,0.0
1738834405816544294,76.4,0.0691,6.977,3.992,-0.01123,-0.001643,0.002972,0.11554,0.02216,75.4,0.02686,6.996,4.004,-0.01563,-0.0,0.002703,0.11487,0.03198,76.4,0.0,7.0,4.0,0.0,0.0,0.0
1738834405866548299,76.56,0.06854,6.977,3.992,-0.01128,-0.001885,0.00212,0.11487,0.02217,75.7,0.02686,6.996,4.004,-0.01563,-0.0,0.00307,0.11554,0.03217,76.4,0.0,7.0,4.0,0.0,0.0,0.0
1738834405916563034,76.8,0.068,6.977,3.992,-0.01085,-0.001884,0.001115,0.11414,0.02216,75.8,0.02686,6.996,4.004,-0.01563,-0.0,0.002203,0.11487,0.0323,76.8,0.0,7.0,4.0,0.0,0.0,0.0
1738834405966560602,77.0,0.06744,6.977,3.992,-0.009995,-0.001918,0.000378,0.1148,0.02213,76.06,0.02687,6.996,4.004,-0.01563,-0.0,0.0010605,0.11426,0.03214,76.8,0.0,7.0,4.0,0.0,0.0,0.0
1738834406016549348,77.2,0.067,6.977,3.992,-0.00892,-0.00209,-9.9e-05,0.11566,0.02213,76.2,0.02687,6.996,4.004,-0.01563,-0.0,0.0006313,0.11487,0.03204,77.2,0.0,7.0,4.0,0.0,0.0,0.0
1738834406066557407,77.4,0.0666,6.977,3.992,-0.007652,-0.002193,-0.000427,0.11633,0.02211,76.44,0.02687,6.996,4.004,-0.01172,-0.0,-3.09e-05,0.1159,0.03226,77.2,0.0,7.0,4.0,0.0,0.0,0.0
1738834406116555452,77.56,0.0662,6.977,3.994,-0.006153,-0.002516,-0.000649,0.1168,0.02205,76.6,0.02687,6.996,4.004,-0.01172,-0.0,-0.000274,0.11633,0.0324,77.6,0.0,7.0,4.0,0.0,0.0,0.0
1738834406166554450,77.75,0.066,6.977,3.994,-0.004704,-0.002598,-0.000781,0.1171,0.02197,76.9,0.02687,6.996,4.004,-0.007812,-0.0,-0.000504,0.11694,0.03275,77.6,0.0,7.0,4.0,0.0,0.0,0.0
1738834406216508150,78.0,0.0658,6.977,3.996,-0.003096,-0.00267,-0.000853,0.1172,0.02188,77.0,0.02687,6.996,4.008,-0.007812,-0.0,-0.0005765,0.11725,0.0329,78.0,0.0,7.0,4.0,0.0,0.0,0.0
1738834406266547441,78.2,0.0657,6.977,3.996,-0.001623,-0.002695,-0.000891,0.116,0.02174,77.25,0.02689,6.996,4.008,-0.007812,-0.0,-0.0007424,0.11707,0.03308,78.0,0.0,7.0,4.0,0.0,0.0,0.0
1738834406316507577,78.4,0.0656,6.977,3.996,-3.7e-05,-0.002201,-0.00093,0.1149,0.02159,77.4,0.02689,6.996,4.008,-0.003906,-0.0,-0.0006614,0.1161,0.03326,78.4,0.0,7.0,4.0,0.0,0.0,0.0
1738834406366542339,78.56,0.0657,6.977,3.996,0.001402,-0.001697,-0.000934,0.1153,0.02144,77.7,0.02689,6.996,4.008,-0.003906,-0.0,-0.000772,0.115,0.03317,78.4,0.0,7.0,4.0,0.0,0.0,0.0
1738834406416506290,78.75,0.06573,6.977,3.998,0.002829,-0.001573,-0.00096,0.11584,0.0213,77.8,0.02689,6.996,4.008,-0.003906,-0.0,-0.0007863,0.11536,0.0328,78.8,0.0,7.0,4.0,0.0,0.0,0.0
1738834406466549873,79.0,0.0659,6.977,3.998,0.00437,-0.001516,-0.000994,0.1151,0.02118,78.06,0.02689,6.996,4.008,0.0,-0.0,-0.0007677,0.11584,0.033,78.8,0.0,7.0,4.0,0.0,0.0,0.0
1738834406516511678,79.2,0.06616,6.977,3.998,0.005753,-0.00145,-0.00094,0.1143,0.02106,78.2,0.0269,6.996,4.008,0.0,-0.0,-0.000779,0.1152,0.033,79.2,0.0,7.0,4.0,0.0,0.0,0.0
1738834406566546201,79.4,0.0665,6.977,3.998,0.006927,-0.001584,0.000257,0.1148,0.02095,78.5,0.0269,6.996,4.008,0.0,-0.0,-0.0003834,0.1144,0.03256,79.2,0.0,7.0,4.0,0.0,0.0,0.0
1738834406616514444,79.56,0.06683,6.977,3.998,0.007412,-0.001766,0.001478,0.11554,0.02086,78.6,0.0269,6.996,4.008,0.0,-0.0,0.0003896,0.1148,0.03235,79.6,0.0,7.0,4.0,0.0,0.0,0.0
1738834406666570186,79.75,0.06726,6.977,3.998,0.007378,-0.001719,0.002443,0.1149,0.02081,78.9,0.0534,6.996,4.008,0.0,-0.0,0.00203,0.11554,0.0321,79.6,0.0,7.0,4.0,0.0,0.0,0.0
1738834406716512918,80.0,0.0676,6.977,3.998,0.006916,-0.001684,0.0031,0.1142,0.0208,79.0,0.05344,6.996,4.008,0.0,-0.0,0.002617,0.1149,0.03198,80.0,0.0,7.0,4.0,0.0,0.0,0.0
1738834406766585588,80.2,0.06793,6.977,3.998,0.006256,-0.001771,0.003489,0.1148,0.02078,79.25,0.05344,6.996,4.008,0.0,-0.0,0.003374,0.1143,0.03174,80.0,0.0,7.0,4.0,0.0,0.0,0.0
1738834406816528320,80.4,0.06824,6.977,3.998,0.005383,-0.002127,0.003744,0.11554,0.0208,79.4,0.05344,6.996,4.008,0.0,-0.0,0.00372,0.1148,0.0316,80.4,0.0,7.0,4.0,0.0,0.0,0.0
1738834406866579532,80.56,0.0685,6.977,3.998,0.004498,-0.002201,0.003906,0.1149,0.02087,79.7,0.05344,6.996,4.008,0.0,-0.0,0.003975,0.1156,0.03137,80.4,0.0,7.0,4.0,0.0,0.0,0.0
1738834406916559219,80.75,0.06866,6.977,3.998,0.003483,-0.001993,0.003994,0.11426,0.02097,79.8,0.05344,6.996,4.008,0.0,-0.0,0.004044,0.115,0.03119,80.8,0.0,7.0,4.0,0.0,0.0,0.0
1738834406966574430,81.0,0.06885,6.977,3.998,0.00253,-0.00195,0.004013,0.115,0.02104,80.06,0.05344,6.996,4.008,0.0,-0.0,0.004204,0.11444,0.03111,80.8,0.0,7.0,4.0,0.0,0.0,0.0
1738834407016535282,81.2,0.0689,6.973,3.998,0.001514,-0.002268,0.004066,0.11566,0.02116,80.2,0.05344,6.996,4.008,0.0,-0.0,0.004208,0.115,0.03102,81.2,0.0,7.0,4.0,0.0,0.0,0.0
1738834407066570281,81.4,0.069,6.973,3.998,0.000575,-0.00252,0.004086,0.115,0.02124,80.44,0.05344,6.996,4.008,0.0,-0.0,0.004234,0.11566,0.03128,81.2,0.0,7.0,4.0,0.0,0.0,0.0
1738834407116559505,81.56,0.069,6.973,3.998,-0.000454,-0.00235,0.004112,0.1142,0.02133,80.6,0.05344,6.996,4.008,0.0,-0.0,0.00431,0.11505,0.03128,81.6,0.0,7.0,4.0,0.0,0.0,0.0
1738834407166570425,81.75,0.069,6.973,3.998,-0.001398,-0.001716,0.004143,0.11475,0.02144,80.9,0.05344,6.996,4.008,-0.003906,-0.0,0.0042,0.1143,0.03111,81.6,0.0,7.0,4.0,0.0,0.0,0.0
1738834407216561555,81.94,0.06885,6.973,3.998,-0.002337,-0.001503,0.004166,0.11554,0.02153,81.0,0.05344,6.996,4.008,-0.003906,-0.0,0.004295,0.11475,0.03111,82.0,0.0,7.0,4.0,0.0,0.0,0.0
1738834407266568183,82.2,0.0687,6.973,3.998,-0.003347,-0.001601,0.00421,0.1149,0.02165,81.25,0.05347,6.996,4.008,-0.003906,-0.0,0.004322,0.1156,0.03137,82.0,0.0,7.0,4.0,0.0,0.0,0.0
1738834407316561937,82.4,0.06854,6.973,3.998,-0.004284,-0.00099,0.004208,0.1142,0.02173,81.44,0.05347,6.996,4.008,-0.003906,-0.0,0.004314,0.1149,0.03137,82.4,0.0,7.0,4.0,0.0,0.0,0.0
1738834407366580009,82.56,0.0683,6.973,3.998,-0.00529,-0.00047,0.0042,0.11487,0.02184,81.7,0.05347,6.996,4.008,-0.007812,-0.0,0.004295,0.1144,0.0312,82.4,0.0,7.0,4.0,0.0,0.0,0.0
1738834407416567325,82.75,0.068,6.973,3.998,-0.00618,-0.000326,0.004185,0.11554,0.02194,81.8,0.05347,6.996,4.008,-0.007812,-0.0,0.004303,0.1149,0.0312,82.8,0.0,7.0,4.0,0.0,0.0,0.0
1738834407466581583,83.0,0.0676,6.973,3.998,-0.00713,-7.3e-05,0.004215,0.1149,0.02203,82.06,0.05347,6.996,4.008,-0.007812,-0.0,0.004333,0.1156,0.03156,82.8,0.0,7.0,4.0,0.0,0.0,0.0
1738834407516554355,83.2,0.06726,6.973,3.998,-0.008095,0.000387,0.004227,0.1142,0.0221,82.25,0.05347,6.996,4.008,-0.007812,-0.0,0.004326,0.1149,0.03165,83.2,0.0,7.0,4.0,0.0,0.0,0.0
1738834407566570758,83.4,0.06683,6.973,3.998,-0.008965,0.000457,0.004223,0.1148,0.02216,82.5,0.05347,6.996,4.01,-0.007812,-0.0,0.0044,0.1143,0.03156,83.2,0.0,7.0,4.0,0.0,0.0,0.0
1738834407616548061,83.56,0.0664,6.973,3.998,-0.00983,-0.000227,0.004246,0.1155,0.02223,82.6,0.05347,6.996,4.01,-0.01172,-0.0,0.004402,0.1148,0.03146,83.6,0.0,7.0,4.0,0.0,0.0,0.0
1738834407666574239,83.75,0.06586,6.973,3.998,-0.01075,-0.000594,0.004288,0.1148,0.02231,82.9,0.05347,6.996,4.008,-0.01172,-0.0,0.00434,0.1154,0.03174,83.6,0.0,7.0,4.0,0.0,0.0,0.0
1738834407716566324,83.94,0.0653,6.973,3.998,-0.01162,-0.000501,0.004276,0.1142,0.02235,83.0,0.05347,6.996,4.008,-0.01172,-0.0,0.00443,0.1148,0.0319,84.0,0.0,7.0,4.0,0.0,0.0,0.0
1738834407766579866,84.2,0.0647,6.973,3.998,-0.012535,-0.000555,0.004265,0.1148,0.02238,83.3,0.0535,6.996,4.008,-0.01172,-0.0,0.00441,0.1143,0.03174,84.0,0.0,7.0,4.0,0.0,0.0,0.0
1738834407816550254,84.4,0.0641,6.973,3.998,-0.01336,-0.000853,0.004257,0.11554,0.02246,83.44,0.0535,6.996,4.008,-0.01172,-0.0,0.00441,0.1148,0.03156,84.4,0.0,7.0,4.0,0.0,0.0,0.0
1738834407866582870,84.56,0.06335,6.973,3.998,-0.01423,-0.00094,0.004257,0.1149,0.02249,83.6,0.0535,6.996,4.008,-0.01563,-0.0,0.00444,0.1155,0.0319,84.4,0.0,7.0,4.0,0.0,0.0,0.0
1738834407916576862,84.75,0.0626,6.973,3.998,-0.01504,-0.000837,0.0043,0.11426,0.0225,83.8,0.0535,6.996,4.008,-0.01563,-0.0,0.00445,0.115,0.03226,84.8,0.0,7.0,4.0,0.0,0.0,0.0
1738834407966567993,84.94,0.06183,6.973,3.998,-0.01593,-0.000604,0.00431,0.11487,0.0225,84.06,0.0535,6.996,4.008,-0.01563,-0.0,0.004425,0.1143,0.03198,84.8,0.0,7.0,4.0,0.0,0.0,0.0
1738834408016522169,85.2,0.06107,6.973,3.998,-0.01674,-0.000588,0.004356,0.1156,0.02255,84.2,0.0535,6.996,4.01,-0.01563,-0.0,0.00442,0.1148,0.0318,85.2,0.0,7.0,4.0,0.0,0.0,0.0
1738834408066607713,85.4,0.06015,6.973,3.998,-0.01762,-0.000501,0.004368,0.115,0.02255,84.44,0.0535,6.996,4.008,-0.01563,-0.0,0.004547,0.1156,0.03226,85.2,0.0,7.0,4.0,0.0,0.0,0.0
1738834408116541147,85.56,0.0593,6.973,3.998,-0.01845,-0.000359,0.004368,0.11426,0.02252,84.6,0.0535,6.996,4.008,-0.01953,-0.0,0.00446,0.115,0.0324,85.6,0.0,7.0,4.0,0.0,0.0,0.0
1738834408166563749,85.75,0.05832,6.973,3.998,-0.01933,-0.000594,0.00436,0.1146,0.02249,84.9,0.027,6.996,4.008,-0.01953,-0.0,0.00452,0.1142,0.03217,85.6,0.0,7.0,4.0,0.0,0.0,0.0
1738834408216531515,85.94,0.05737,6.973,3.998,-0.02011,-0.001129,0.00436,0.1154,0.0225,85.0,0.027,6.996,4.008,-0.01953,-0.0,0.004517,0.11456,0.03198,86.0,0.0,7.0,4.0,0.0,0.0,0.0
1738834408266577482,86.2,0.0563,6.973,3.998,-0.02097,-0.001394,0.00436,0.1148,0.02252,85.25,0.02701,6.996,4.008,-0.01953,-0.0,0.004456,0.11536,0.03226,86.0,0.0,7.0,4.0,0.0,0.0,0.0
1738834408316552877,86.4,0.05527,6.973,3.998,-0.02173,-0.001207,0.004295,0.1142,0.02252,85.4,0.02701,6.996,4.008,-0.01953,-0.0,0.00446,0.1148,0.0324,86.4,0.0,7.0,4.0,0.0,0.0,0.0
1738834408366581201,86.56,0.05423,6.973,3.998,-0.02222,-0.000912,0.00322,0.11475,0.02248,85.7,0.02701,6.996,4.008,-0.02344,-0.0,0.004173,0.1142,0.03214,86.4,0.0,7.0,4.0,0.0,0.0,0.0
1738834408416544198,86.75,0.05307,6.973,3.998,-0.02213,-0.001036,0.001898,0.1156,0.02249,85.8,0.02701,6.996,4.008,-0.02344,-0.0,0.00331,0.11475,0.032,86.8,0.0,7.0,4.0,0.0,0.0,0.0
1738834408466576814,86.94,0.052,6.973,3.998,-0.0215,-0.000912,0.001002,0.11505,0.02249,86.06,0.02701,6.996,4.008,-0.02344,-0.0,0.001703,0.11554,0.03244,86.8,0.0,7.0,4.0,0.0,0.0,0.0
1738834408516540527,87.2,0.05093,6.973,3.998,-0.02045,-0.000862,0.000305,0.11426,0.02243,86.25,0.02702,6.996,4.008,-0.01953,-0.0,0.001008,0.11487,0.03256,87.2,0.0,7.0,4.0,0.0,0.0,0.0
1738834408566550970,87.4,0.0499,6.973,3.998,-0.01913,-0.000845,-0.00011,0.11487,0.02238,86.5,0.02702,6.996,4.008,-0.01953,-0.0,0.0002077,0.11426,0.03235,87.2,0.0,7.0,4.0,0.0,0.0,0.0
1738834408616547107,87.56,0.049,6.973,3.998,-0.01778,-0.001059,-0.000334,0.1156,0.02235,86.6,0.02702,6.996,4.008,-0.01953,-0.0,3.755e-05,0.1148,0.03226,87.6,0.0,7.0,4.0,0.0,0.0,0.0
1738834408666562318,87.75,0.04813,6.973,3.998,-0.01622,-0.001151,-0.000494,0.115,0.0223,86.9,0.02702,6.996,4.008,-0.01563,-0.0,-0.000273,0.1155,0.03265,87.6,0.0,7.0,4.0,0.0,0.0,0.0
1738834408716543436,87.94,0.04736,6.973,3.998,-0.01476,-0.001086,-0.000591,0.1143,0.02222,87.0,0.02702,6.996,4.008,-0.01563,-0.0,-0.000357,0.11505,0.03284,88.0,0.0,7.0,4.0,0.0,0.0,0.0
1738834408766543149,88.1,0.0467,6.973,3.998,-0.01328,-0.000848,-0.000655,0.1148,0.02216,87.3,0.02704,6.996,4.008,-0.01172,-0.0,-0.0004764,0.1143,0.03247,88.0,0.0,7.0,4.0,0.0,0.0,0.0
1738834408816535472,88.4,0.04605,6.973,3.998,-0.01166,-0.000976,-0.00071,0.11566,0.0221,87.4,0.02704,6.996,4.008,-0.01172,-0.0,-0.0005584,0.11487,0.03238,88.4,0.0,7.0,4.0,0.0,0.0,0.0
1738834408866564512,88.56,0.0455,6.973,3.998,-0.01003,-0.001109,-0.000739,0.11505,0.022,87.7,0.02704,6.996,4.008,-0.01172,-0.0,-0.0005317,0.1156,0.03265,88.4,0.0,7.0,4.0,0.0,0.0,0.0
1738834408916561126,88.75,0.04504,6.973,3.998,-0.00855,-0.000769,-0.000764,0.1144,0.02194,87.8,0.02704,6.996,4.008,-0.007812,-0.0,-0.0006285,0.115,0.03265,88.8,0.0,7.0,4.0,0.0,0.0,0.0
1738834408966585636,88.94,0.04468,6.973,3.998,-0.00709,-0.000461,-0.000755,0.11487,0.02187,88.06,0.02705,6.996,4.008,-0.007812,-0.0,-0.0005665,0.1144,0.03238,88.8,0.0,7.0,4.0,0.0,0.0,0.0
1738834409016562700,89.2,0.04434,6.973,3.998,-0.005524,-0.000864,-0.000755,0.1158,0.02184,88.2,0.02705,6.996,4.008,-0.007812,-0.0,-0.000563,0.11487,0.03232,89.2,0.0,7.0,4.0,0.0,0.0,0.0
1738834409066581726,89.4,0.0441,6.973,4.0,-0.003963,-0.001042,-0.000752,0.1164,0.02176,88.44,0.02705,6.996,4.008,-0.003906,-0.0,-0.000705,0.1159,0.03256,89.2,0.0,7.0,4.0,0.0,0.0,0.0
1738834409116584300,89.56,0.04395,6.973,4.0,-0.002537,-0.001062,-0.000743,0.11694,0.02167,88.6,0.02705,6.996,4.008,-0.003906,-0.0,-0.000601,0.1164,0.03275,89.6,0.0,7.0,4.0,0.0,0.0,0.0
1738834409166586399,89.75,0.04385,6.973,4.0,-0.001018,-0.001021,-0.000732,0.1173,0.02155,88.9,0.02705,6.996,4.01,0.0,-0.0,-0.0006623,0.117,0.033,89.6,0.0,7.0,4.0,0.0,0.0,0.0
1738834409216561317,89.94,0.04385,6.973,4.004,0.000344,-0.000952,-0.000648,0.1174,0.0214,89.0,0.02707,6.996,4.01,0.0,-0.0,-0.0005665,0.11725,0.03308,90.0,0.0,7.0,4.0,0.0,0.0,0.0
1738834409266599416,90.1,0.04388,6.973,4.004,0.001388,-0.000811,0.000547,0.11633,0.02127,89.25,0.02707,6.996,4.01,0.0,-0.0,-0.0003023,0.1171,0.0332,90.0,0.0,7.0,4.0,0.0,0.0,0.0
1738834409316589355,90.4,0.04398,6.973,4.004,0.001831,-0.000322,0.001831,0.1152,0.02107,89.44,0.02707,6.996,4.01,0.0,-0.0,0.0009,0.1161,0.03336,90.4,0.0,7.0,4.0,0.0,0.0,0.0
1738834409366590499,90.56,0.04407,6.973,4.004,0.001717,-0.000233,0.002724,0.11536,0.0209,89.7,0.02707,6.996,4.01,0.0,-0.0,0.002333,0.1151,0.033,90.4,0.0,7.0,4.0,0.0,0.0,0.0
1738834409416585206,90.75,0.04413,6.973,4.004,0.001187,-0.000609,0.003405,0.11597,0.02074,89.8,0.02708,6.996,4.01,0.0,-0.0,0.002844,0.1154,0.03278,90.8,0.0,7.0,4.0,0.0,0.0,0.0
1738834409466581106,90.94,0.04416,6.973,4.004,0.000444,-0.00084,0.003807,0.1153,0.02065,90.06,0.02708,6.996,4.01,0.0,-0.0,0.003714,0.1158,0.0327,90.8,0.0,7.0,4.0,0.0,0.0,0.0
1738834409516577243,91.2,0.04416,6.973,4.004,-0.000524,-0.000705,0.00404,0.1145,0.02052,90.2,0.02708,6.996,4.01,0.0,-0.0,0.003952,0.1152,0.03256,91.2,0.0,7.0,4.0,0.0,0.0,0.0
1738834409566588401,91.4,0.04413,6.973,4.004,-0.001502,-0.000761,0.004166,0.1151,0.02043,90.5,0.02708,6.996,4.01,0.0,-0.0,0.004177,0.11456,0.03214,91.2,0.0,7.0,4.0,0.0,0.0,0.0
1738834409616537809,91.56,0.044,6.973,4.004,-0.002598,-0.001059,0.00426,0.11584,0.0204,90.6,0.02708,6.996,4.01,0.0,-0.0,0.004265,0.1152,0.03198,91.6,0.0,7.0,4.0,0.0,0.0,0.0
1738834409666584253,91.75,0.04385,6.973,4.004,-0.003622,-0.001124,0.004295,0.1153,0.0204,90.9,0.0271,6.996,4.01,-0.003906,-0.0,0.004345,0.1158,0.03174,91.6,0.0,7.0,4.0,0.0,0.0,0.0
1738834409716526031,91.94,0.04364,6.973,4.004,-0.00475,-0.001078,0.004326,0.1145,0.02043,91.0,0.0271,6.996,4.01,-0.003906,-0.0,0.004414,0.1152,0.03156,92.0,0.0,7.0,4.0,0.0,0.0,0.0
1738834409766576290,92.1,0.0434,6.973,4.004,-0.00578,-0.000838,0.004314,0.115,0.02048,91.25,0.0271,6.996,4.01,-0.003906,-0.0,0.004387,0.11444,0.03128,92.0,0.0,7.0,4.0,0.0,0.0,0.0
1738834409816513776,92.4,0.04306,6.973,4.004,-0.00686,-0.001228,0.004288,0.1158,0.02052,91.4,0.0271,6.996,4.01,-0.003906,-0.0,0.00439,0.115,0.0312,92.4,0.0,7.0,4.0,0.0,0.0,0.0
1738834409866575241,92.56,0.0427,6.973,4.004,-0.00792,-0.001517,0.004272,0.115,0.02061,91.7,0.02711,6.996,4.01,-0.007812,-0.0,0.00439,0.1155,0.03104,92.4,0.0,7.0,4.0,0.0,0.0,0.0
1738834409916511297,92.75,0.04227,6.973,4.004,-0.00888,-0.001232,0.00427,0.1144,0.02074,91.8,0.02711,6.996,4.01,-0.007812,-0.0,0.00437,0.1148,0.03094,92.8,0.0,7.0,4.0,0.0,0.0,0.0
1738834409966571331,92.94,0.04184,6.973,4.004,-0.00983,-0.000837,0.004272,0.115,0.02083,92.06,0.02711,6.996,4.01,-0.007812,-0.0,0.00428,0.1144,0.03094,92.8,0.0,7.0,4.0,0.0,0.0,0.0
1738834410016556501,93.2,0.0413,6.973,4.004,-0.0108,-0.00059,0.004147,0.11584,0.02097,92.2,0.02711,6.996,4.01,-0.007812,-0.0,0.004284,0.1149,0.03085,93.2,0.0,7.0,4.0,0.0,0.0,0.0
1738834410066936254,93.4,0.0407,6.973,4.004,-0.0114,-0.000207,0.002863,0.11523,0.02107,92.5,0.02711,6.996,4.01,-0.01172,-0.0,0.003881,0.11566,0.03117,93.2,0.0,7.0,4.0,0.0,0.0,0.0
1738834410116540431,93.56,0.04016,6.973,4.004,-0.01136,0.000255,0.001682,0.1145,0.0212,92.6,0.02713,6.996,4.01,-0.01172,-0.0,0.002922,0.1151,0.0312,93.6,0.0,7.0,4.0,0.0,0.0,0.0
1738834410166538000,93.75,0.03958,6.973,4.004,-0.01077,0.000324,0.000747,0.1149,0.02132,92.9,0.02713,6.996,4.01,-0.01172,0.003906,0.001355,0.11444,0.0312,93.6,0.0,7.0,4.0,0.0,0.0,0.0
1738834410216524124,93.94,0.0391,6.973,4.004,-0.009865,-0.000143,0.000152,0.1156,0.02141,93.0,0.02713,6.996,4.01,-0.01172,0.003906,0.00084,0.1148,0.03117,94.0,0.0,7.0,4.0,0.0,0.0,0.0
1738834410266582727,94.1,0.03864,6.973,4.004,-0.008736,-0.000282,-0.000231,0.115,0.02148,93.25,0.02713,6.996,4.01,-0.007812,-0.0,8.905e-05,0.1154,0.0315,94.0,0.0,7.0,4.0,0.0,0.0,0.0
1738834410316562175,94.4,0.0382,6.973,4.004,-0.00736,-2e-05,-0.000513,0.1143,0.02158,93.44,0.02715,6.996,4.01,-0.007812,-0.0,-0.000269,0.11475,0.03146,94.4,0.0,7.0,4.0,0.0,0.0,0.0
1738834410366596460,94.56,0.03787,6.973,4.004,-0.005886,3.2e-05,-0.000676,0.115,0.02165,93.7,0.02715,6.996,4.01,-0.003906,-0.0,-0.0005407,0.11426,0.03134,94.4,0.0,7.0,4.0,0.0,0.0,0.0
1738834410416551113,94.75,0.03763,6.973,4.004,-0.004467,-0.000299,-0.000763,0.1157,0.02171,93.8,0.02715,6.996,4.01,-0.003906,-0.0,-0.000613,0.11487,0.03143,94.8,0.0,7.0,4.0,0.0,0.0,0.0
1738834410466587066,95.0,0.03745,6.973,4.004,-0.002918,-0.000443,-0.000796,0.115,0.02179,94.06,0.02715,6.996,4.01,-0.003906,-0.0,-0.000758,0.1154,0.03177,94.8,0.0,7.0,4.0,0.0,0.0,0.0
1738834410516553163,95.1,0.03735,6.973,4.004,-0.001611,-0.000516,-0.000821,0.11444,0.02184,94.2,0.02715,6.996,4.01,0.0,-0.0,-0.0007567,0.11487,0.03195,95.2,0.0,7.0,4.0,0.0,0.0,0.0
1738834410566585063,95.4,0.0373,6.973,4.004,-7.8e-05,-0.000681,-0.000833,0.1151,0.02185,94.5,0.02716,6.996,4.01,0.0,-0.0,-0.000775,0.1144,0.03177,95.2,0.0,7.0,4.0,0.0,0.0,0.0
1738834410616536378,95.56,0.03732,6.973,4.004,0.001409,-0.000684,-0.000619,0.1159,0.0219,94.6,0.02716,6.996,4.01,0.0,-0.0,-0.000852,0.115,0.03177,95.6,0.0,7.0,4.0,0.0,0.0,0.0
1738834410666563510,95.75,0.0374,6.973,4.004,0.002415,-0.00047,0.000655,0.1153,0.02191,94.9,0.02716,6.996,4.01,0.0,-0.0,-0.0003004,0.11566,0.03214,95.6,0.0,7.0,4.0,0.0,0.0,0.0
1738834410716585397,95.94,0.03757,6.973,4.004,0.002829,-0.000126,0.001929,0.1146,0.02188,95.0,0.02716,6.996,4.01,0.0,-0.0,0.000742,0.1151,0.03238,96.0,0.0,7.0,4.0,0.0,0.0,0.0
1738834410766577482,96.2,0.0377,6.973,4.004,0.002705,4.4e-05,0.002754,0.11523,0.02185,95.3,0.02718,6.996,4.01,0.0,-0.0,0.002275,0.11456,0.03214,96.0,0.0,7.0,4.0,0.0,0.0,0.0
1738834410816545724,96.4,0.03784,6.973,4.004,0.002214,-0.000508,0.003384,0.1159,0.02184,95.44,0.02718,6.996,4.01,0.0,-0.0,0.002804,0.1151,0.03217,96.4,0.0,7.0,4.0,0.0,0.0,0.0
1738834410866577386,96.56,0.03793,6.973,4.004,0.001526,-0.00076,0.003784,0.11523,0.02179,95.7,0.02718,6.996,4.01,0.0,-0.0,0.003521,0.1156,0.03247,96.4,0.0,7.0,4.0,0.0,0.0,0.0
1738834410916561365,96.75,0.03796,6.973,4.004,0.000603,-0.000447,0.004055,0.11456,0.02173,95.8,0.02718,6.996,4.01,0.0,-0.0,0.003862,0.1149,0.03256,96.8,0.0,7.0,4.0,0.0,0.0,0.0
1738834410966573715,96.94,0.038,6.973,4.004,-0.000345,-0.000102,0.004204,0.1151,0.02168,96.06,0.02719,6.996,4.01,0.0,-0.0,0.00409,0.11444,0.03214,96.8,0.0,7.0,4.0,0.0,0.0,0.0
1738834411016484022,97.2,0.03793,6.973,4.004,-0.001409,-0.000198,0.00432,0.11597,0.02165,96.2,0.02719,6.996,4.01,0.0,-0.0,0.00427,0.115,0.03207,97.2,0.0,7.0,4.0,0.0,0.0,0.0
1738834411067366123,97.4,0.03784,6.973,4.004,-0.002432,1.6e-05,0.004395,0.1154,0.02164,96.5,0.02719,6.996,4.01,0.0,-0.0,0.004383,0.1158,0.03235,97.2,0.0,7.0,4.0,0.0,0.0,0.0
1738834411116554260,97.56,0.0377,6.973,4.004,-0.003557,0.000683,0.004414,0.1146,0.02156,96.6,0.02719,6.996,4.01,0.0,-0.0,0.004387,0.11505,0.0326,97.6,0.0,7.0,4.0,0.0,0.0,0.0
1738834411166560411,97.75,0.03748,6.973,4.004,-0.0047,0.001197,0.00444,0.1141,0.02151,96.9,0.0272,6.996,4.01,-0.003906,0.003906,0.004433,0.1143,0.03217,97.6,0.0,7.0,4.0,0.0,0.0,0.0
1738834411216562747,97.94,0.03723,6.973,4.004,-0.00575,0.001427,0.00445,0.1136,0.02151,97.0,0.0272,6.996,4.01,-0.003906,0.003906,0.004417,0.11395,0.03198,98.0,0.0,7.0,4.0,0.0,0.0,0.0
1738834411266574144,98.2,0.0369,6.973,4.004,-0.006886,0.001494,0.004467,0.1133,0.0215,97.25,0.0272,6.996,4.008,-0.003906,0.003906,0.004486,0.11334,0.0318,98.0,0.0,7.0,4.0,0.0,0.0,0.0
1738834411316589355,98.4,0.03656,6.973,4.004,-0.00785,0.00133,0.00446,0.1131,0.02151,97.4,0.0272,6.996,4.008,-0.003906,0.003906,0.00448,0.11316,0.03174,98.4,0.0,7.0,4.0,0.0,0.0,0.0
1738834411366560220,98.56,0.03613,6.973,4.0,-0.00896,0.001116,0.004444,0.11304,0.02155,97.7,0.0272,6.996,4.008,-0.007812,0.003906,0.004467,0.11285,0.03165,98.4,0.0,7.0,4.0,0.0,0.0,0.0
1738834411416565656,98.75,0.03564,6.973,4.0,-0.01005,0.001216,0.004456,0.113,0.02162,97.8,0.02722,6.996,4.008,-0.007812,0.003906,0.004463,0.1128,0.03156,98.8,0.0,7.0,4.0,0.0,0.0,0.0
1738834411466571331,99.0,0.0351,6.973,4.0,-0.01114,0.001438,0.004463,0.113,0.02167,98.06,0.02722,6.996,4.004,-0.007812,0.003906,0.00446,0.11285,0.03146,98.8,0.0,7.0,4.0,0.0,0.0,0.0
1738834411516565322,99.2,0.03452,6.973,3.998,-0.012115,0.001683,0.004448,0.11304,0.02174,98.2,0.02722,6.996,4.004,-0.007812,0.003906,0.00454,0.11273,0.03137,99.2,0.0,7.0,4.0,0.0,0.0,0.0
