time,x_sphinx,y_sphinx,z_sphinx,vx_sphinx,vy_sphinx,vz_sphinx,roll_sphinx,pitch_sphinx,yaw_sphinx,x_anafi,y_anafi,z_anafi,vx_anafi,vy_anafi,vz_anafi,roll_anafi,pitch_anafi,yaw_anafi,wp_x,wp_y,wp_z,wp_vx,wp_vy,wp_vz,wp_yaw
1738778011542225122,48.8,0.0342,7.027,0.995,-0.008766,0.00016,-0.001735,0.01741,-0.1138,48.56,0.02682,6.996,0.992,-0.003906,-0.0,-0.002108,0.01767,-0.03326,49.9,0.0,7.0,1.0,0.0,0.0,0.0
1738778011592214584,48.84,0.03378,7.027,0.9946,-0.00897,0.000564,-0.001731,0.01735,-0.1137,48.6,0.02682,6.996,0.992,-0.003906,-0.0,-0.002106,0.01767,-0.03317,49.9,0.0,7.0,1.0,0.0,0.0,0.0
1738778011642221212,48.9,0.0333,7.027,0.994,-0.009186,0.000562,-0.001723,0.01721,-0.11365,48.66,0.02682,6.996,0.992,-0.003906,-0.0,-0.002104,0.01749,-0.03317,50.0,0.0,7.0,1.0,0.0,0.0,0.0
1738778011692209005,48.94,0.03287,7.027,0.993,-0.00938,0.000251,-0.001712,0.0171,-0.11365,48.7,0.02682,7.0,0.992,-0.003906,-0.0,-0.002188,0.0174,-0.03317,50.0,0.0,7.0,1.0,0.0,0.0,0.0
1738778011742217063,49.0,0.03238,7.027,0.9927,-0.00959,-0.000283,-0.001676,0.01703,-0.11365,48.75,0.02682,7.0,0.992,-0.007812,-0.0,-0.0021,0.01732,-0.03308,50.1,0.0,7.0,1.0,0.0,0.0,0.0
1738778011792219400,49.03,0.0319,7.027,0.9917,-0.00979,-0.00087,-0.001702,0.01701,-0.11365,48.78,0.02682,7.0,0.9883,-0.007812,-0.0,-0.0021,0.01732,-0.03308,50.1,0.0,7.0,1.0,0.0,0.0,0.0
1738778011842211246,49.1,0.03143,7.027,0.991,-0.00998,-0.000908,-0.001693,0.01704,-0.1136,48.84,0.02682,7.0,0.9883,-0.007812,-0.0,-0.0021,0.01732,-0.03308,50.2,0.0,7.0,1.0,0.0,0.0,0.0
1738778011892218589,49.16,0.0309,7.027,0.99,-0.01018,-0.001041,-0.001681,0.01709,-0.1136,48.88,0.02682,7.0,0.9883,-0.007812,-0.0,-0.0021,0.01732,-0.03308,50.2,0.0,7.0,1.0,0.0,0.0,0.0
1738778011942237854,49.2,0.03041,7.027,0.9897,-0.01038,-0.001556,-0.001652,0.01703,-0.1136,48.97,0.02684,7.0,0.9883,-0.007812,-0.0,-0.0021,0.01732,-0.03308,50.3,0.0,7.0,1.0,0.0,0.0,0.0
1738778011992238521,49.25,0.02986,7.027,0.989,-0.01061,-0.001535,-0.001649,0.01746,-0.1136,49.0,0.02684,7.0,0.9883,-0.007812,-0.0,-0.0021,0.01732,-0.03308,50.3,0.0,7.0,1.0,0.0,0.0,0.0
1738778012042183637,49.28,0.0293,7.027,0.989,-0.010895,-0.001279,-0.001652,0.01898,-0.1136,49.06,0.02684,6.996,0.9844,-0.007812,-0.0,-0.002123,0.01869,-0.03308,50.4,0.0,7.0,1.0,0.0,0.0,0.0
1738778012092235088,49.34,0.02878,7.027,0.9893,-0.01123,-0.000774,-0.001641,0.02003,-0.1136,49.1,0.02684,6.996,0.9844,-0.007812,-0.0,-0.002052,0.01965,-0.03308,50.4,0.0,7.0,1.0,0.0,0.0,0.0
1738778012142230749,49.4,0.02818,7.027,0.99,-0.01164,-0.00037,-0.001642,0.02075,-0.1135,49.16,0.02684,6.996,0.9883,-0.007812,-0.0,-0.00216,0.02077,-0.03326,50.5,0.0,7.0,1.0,0.0,0.0,0.0
1738778012192229747,49.47,0.02747,7.027,0.9917,-0.01214,3.5e-05,-0.001683,0.02126,-0.1135,49.2,0.02684,6.996,0.9883,-0.007812,-0.0,-0.002165,0.02112,-0.03326,50.5,0.0,7.0,1.0,0.0,0.0,0.0
1738778012242213487,49.5,0.02692,7.027,0.993,-0.012505,6.5e-05,-0.001685,0.0215,-0.11346,49.25,0.02684,6.996,0.9883,-0.007812,-0.0,-0.002174,0.02164,-0.03336,50.6,0.0,7.0,1.0,0.0,0.0,0.0
1738778012292249202,49.53,0.02641,7.027,0.994,-0.01283,0.000147,-0.001697,0.02165,-0.1134,49.28,0.02684,6.996,0.992,-0.007812,-0.0,-0.002174,0.0218,-0.03308,50.6,0.0,7.0,1.0,0.0,0.0,0.0
1738778012342223882,49.6,0.02568,7.027,0.996,-0.01329,0.000105,-0.00173,0.02184,-0.11346,49.38,0.02684,6.996,0.992,-0.007812,-0.0,-0.00217,0.02197,-0.03256,50.7,0.0,7.0,1.0,0.0,0.0,0.0
1738778012392212629,49.62,0.02504,7.027,0.9976,-0.01368,0.000183,-0.001706,0.02153,-0.11346,49.4,0.02684,6.996,0.992,-0.007812,-0.0,-0.002172,0.02216,-0.0324,50.7,0.0,7.0,1.0,0.0,0.0,0.0
1738778012442232131,49.7,0.0243,7.027,0.9985,-0.01405,0.000498,-0.001724,0.02019,-0.1136,49.47,0.02684,6.996,0.996,-0.007812,-0.0,-0.002151,0.02095,-0.03223,50.8,0.0,7.0,1.0,0.0,0.0,0.0
1738778012492227792,49.75,0.02364,7.027,0.999,-0.01432,0.001034,-0.001745,0.01929,-0.1137,49.5,0.02684,6.996,0.996,-0.01172,-0.0,-0.002138,0.02008,-0.0324,50.8,0.0,7.0,1.0,0.0,0.0,0.0
1738778012542237520,49.78,0.02293,7.027,0.999,-0.01454,0.001337,-0.001755,0.01869,-0.1138,49.56,0.02684,6.996,0.996,-0.01172,-0.0,-0.002125,0.01904,-0.03265,50.9,0.0,7.0,1.0,0.0,0.0,0.0
1738778012592242002,49.84,0.02217,7.027,0.999,-0.01475,0.001018,-0.001739,0.01855,-0.11383,49.6,0.02684,6.996,0.996,-0.01172,-0.0,-0.002207,0.01878,-0.03275,50.9,0.0,7.0,1.0,0.0,0.0,0.0
1738778012642227411,49.88,0.02147,7.027,0.999,-0.01498,0.000672,-0.00171,0.01956,-0.11383,49.66,0.02684,6.996,0.996,-0.01172,-0.0,-0.00213,0.0194,-0.03284,51.0,0.0,7.0,1.0,0.0,0.0,0.0
1738778012692217826,49.94,0.02068,7.027,1.0,-0.01529,0.000137,-0.00171,0.02043,-0.1139,49.7,0.02684,7.0,0.996,-0.01172,-0.0,-0.002146,0.02025,-0.03293,51.0,0.0,7.0,1.0,0.0,0.0,0.0
1738778012742229938,50.0,0.01987,7.027,1.001,-0.01564,-0.000441,-0.001733,0.02098,-0.1139,49.75,0.0003269,7.0,0.996,-0.01172,-0.0,-0.002163,0.02112,-0.03308,51.1,0.0,7.0,1.0,0.0,0.0,0.0
1738778012792240858,50.03,0.01912,7.027,1.002,-0.01596,-0.000721,-0.001735,0.02098,-0.1139,49.78,0.0003269,7.0,0.996,-0.01172,-0.0,-0.002167,0.02129,-0.03317,51.1,0.0,7.0,1.0,0.0,0.0,0.0
1738778012842232942,50.1,0.01834,7.027,1.003,-0.01625,-0.000979,-0.001725,0.01988,-0.1139,49.84,0.0003276,7.0,1.0,-0.01172,-0.0,-0.002155,0.0206,-0.03326,51.2,0.0,7.0,1.0,0.0,0.0,0.0
1738778012892261981,50.12,0.01749,7.027,1.003,-0.01651,-0.000551,-0.00174,0.01944,-0.1139,49.88,0.000328,7.0,1.0,-0.01172,-0.0,-0.002144,0.01973,-0.03342,51.2,0.0,7.0,1.0,0.0,0.0,0.0
1738778012942194223,50.2,0.0167,7.027,1.004,-0.01675,-0.000285,-0.001756,0.02032,-0.11383,49.97,0.0003285,6.996,1.0,-0.01172,-0.0,-0.002155,0.02043,-0.03342,51.3,0.0,7.0,1.0,0.0,0.0,0.0
1738778012992222547,50.25,0.01581,7.027,1.005,-0.01697,-0.000235,-0.002167,0.02097,-0.1138,50.0,0.000329,6.996,1.0,-0.01172,-0.0,-0.002161,0.02077,-0.03342,51.3,0.0,7.0,1.0,0.0,0.0,0.0
1738778013042227506,50.28,0.015,7.027,1.006,-0.01677,-0.000197,-0.003542,0.02136,-0.1138,50.06,0.0003297,6.996,1.004,-0.01172,-0.0,-0.003553,0.02144,-0.03354,51.4,0.0,7.0,1.0,0.0,0.0,0.0
1738778013092251300,50.34,0.014145,7.027,1.007,-0.01591,-0.000332,-0.004715,0.02167,-0.1137,50.1,0.00033,7.0,1.004,-0.01172,-0.0,-0.004425,0.02177,-0.03354,51.4,0.0,7.0,1.0,0.0,0.0,0.0
1738778013142240524,50.38,0.01341,7.027,1.009,-0.014694,-0.000421,-0.005516,0.0218,-0.11365,50.16,0.0003307,7.0,1.004,-0.01172,-0.0,-0.005714,0.022,-0.03296,51.5,0.0,7.0,1.0,0.0,0.0,0.0
1738778013192233562,50.44,0.01269,7.027,1.01,-0.01303,-0.000415,-0.006096,0.02155,-0.11365,50.2,0.0003307,6.996,1.004,-0.007812,-0.0,-0.006145,0.02208,-0.03278,51.5,0.0,7.0,1.0,0.0,0.0,0.0
1738778013242221117,50.5,0.01206,7.027,1.012,-0.01111,-0.000183,-0.006447,0.02022,-0.1137,50.25,0.0003314,7.0,1.008,-0.007812,-0.0,-0.00673,0.02095,-0.03262,51.6,0.0,7.0,1.0,0.0,0.0,0.0
1738778013292252302,50.56,0.01154,7.027,1.012,-0.009,-0.000211,-0.006676,0.01923,-0.1138,50.28,0.0003319,6.996,1.008,-0.003906,-0.0,-0.00689,0.0201,-0.03278,51.6,0.0,7.0,1.0,0.0,0.0,0.0
1738778013342209815,50.6,0.011185,7.027,1.012,-0.00712,-0.000237,-0.006783,0.01865,-0.1138,50.34,0.0003326,6.996,1.008,-0.003906,-0.0,-0.00722,0.01904,-0.03287,51.7,0.0,7.0,1.0,0.0,0.0,0.0
1738778013392209053,50.66,0.01088,7.027,1.012,-0.00486,-6.7e-05,-0.00684,0.01819,-0.11383,50.4,0.0003328,7.0,1.008,0.0,-0.0,-0.007214,0.0187,-0.03296,51.7,0.0,7.0,1.0,0.0,0.0,0.0
1738778013442224025,50.7,0.0107,7.027,1.012,-0.00276,-0.000302,-0.006866,0.01787,-0.11383,50.47,0.0003335,7.0,1.008,0.0,-0.0,-0.007294,0.01826,-0.03296,51.8,0.0,7.0,1.0,0.0,0.0,0.0
1738778013492190122,50.75,0.01061,7.027,1.012,-0.000126,-0.000651,-0.00691,0.01756,-0.11383,50.5,0.0003338,7.0,1.008,0.0,-0.0,-0.00729,0.01793,-0.03305,51.8,0.0,7.0,1.0,0.0,0.0,0.0
1738778013542240619,50.78,0.01064,7.027,1.011,0.001627,-0.000895,-0.006924,0.01744,-0.11383,50.56,0.0003345,7.0,1.008,0.0,-0.0,-0.007286,0.01775,-0.03314,51.9,0.0,7.0,1.0,0.0,0.0,0.0
1738778013592227697,50.84,0.01079,7.027,1.011,0.003904,-0.001117,-0.006947,0.01735,-0.11383,50.6,0.0003347,7.0,1.004,0.003906,-0.0,-0.007374,0.01767,-0.03314,51.9,0.0,7.0,1.0,0.0,0.0,0.0
1738778013642245292,50.9,0.011024,7.027,1.01,0.005997,-0.000779,-0.006954,0.01732,-0.11383,50.66,0.0003355,6.996,1.004,0.003906,-0.0,-0.00737,0.01749,-0.03314,52.0,0.0,7.0,1.0,0.0,0.0,0.0
1738778013692269802,50.94,0.0114,7.027,1.01,0.00823,-0.000659,-0.006954,0.01732,-0.11383,50.7,0.0003357,7.0,1.004,0.007812,-0.0,-0.00737,0.01749,-0.03314,52.0,0.0,7.0,1.0,0.0,0.0,0.0
1738778013742216348,51.0,0.01184,7.027,1.009,0.01028,-0.0007,-0.00697,0.01723,-0.11383,50.75,0.0003364,6.996,1.004,0.007812,-0.0,-0.00737,0.01749,-0.03314,52.1,0.0,7.0,1.0,0.0,0.0,0.0
1738778013792242527,51.06,0.012436,7.027,1.009,0.0125,-0.000387,-0.006992,0.01721,-0.11383,50.78,0.0003366,6.996,1.004,0.01172,-0.0,-0.00737,0.01749,-0.03314,52.1,0.0,7.0,1.0,0.0,0.0,0.0
1738778013842212915,51.1,0.013084,7.027,1.008,0.01451,-0.000233,-0.007004,0.01723,-0.11383,50.88,0.0003374,7.0,1.0,0.01563,-0.0,-0.00737,0.01749,-0.03314,52.2,0.0,7.0,1.0,0.0,0.0,0.0
1738778013892191886,51.16,0.01389,7.027,1.008,0.01656,-0.000423,-0.006428,0.01717,-0.1138,50.9,0.0003376,7.0,1.0,0.01563,-0.0,-0.007282,0.01741,-0.03314,52.2,0.0,7.0,1.0,0.0,0.0,0.0
1738778013942198514,51.2,0.014725,7.027,1.007,0.01796,-0.000206,-0.005062,0.01714,-0.1138,50.97,0.0003383,6.996,1.0,0.01563,-0.0,-0.005642,0.01735,-0.0331,52.3,0.0,7.0,1.0,0.0,0.0,0.0
1738778013992197513,51.25,0.01569,7.027,1.006,0.01881,-0.000169,-0.003937,0.01714,-0.1138,51.0,0.0003386,6.996,1.0,0.01953,-0.0,-0.00504,0.01744,-0.0331,52.3,0.0,7.0,1.0,0.0,0.0,0.0
1738778014042198181,51.3,0.0166,7.027,1.005,0.01917,-0.000152,-0.003166,0.0171,-0.1138,51.06,0.0003393,6.996,1.0,0.01953,-0.0,-0.00374,0.01738,-0.0331,52.4,0.0,7.0,1.0,0.0,0.0,0.0
1738778014092175960,51.34,0.0176,7.027,1.005,0.01921,-0.000295,-0.002605,0.01709,-0.1138,51.1,0.0003395,7.0,1.0,0.01953,-0.0,-0.003307,0.0173,-0.03308,52.4,0.0,7.0,1.0,0.0,0.0,0.0
1738778014142196178,51.4,0.01851,7.027,1.004,0.01904,-0.000579,-0.002287,0.01707,-0.1138,51.16,0.0003402,7.0,0.996,0.01953,-0.0,-0.00279,0.0173,-0.03308,52.5,0.0,7.0,1.0,0.0,0.0,0.0
1738778014192225456,51.44,0.01942,7.027,1.003,0.01875,-0.000751,-0.002087,0.01707,-0.1138,51.2,0.0003407,6.996,0.996,0.01953,-0.0,-0.002617,0.0173,-0.03308,52.5,0.0,7.0,1.0,0.0,0.0,0.0
1738778014242210388,51.5,0.02039,7.027,1.002,0.01837,-0.000668,-0.001963,0.01712,-0.1137,51.28,0.0003412,7.0,0.996,0.01563,-0.0,-0.00236,0.0174,-0.03308,52.6,0.0,7.0,1.0,0.0,0.0,0.0
1738778014292232751,51.56,0.02126,7.027,1.001,0.01797,-0.000745,-0.00189,0.01744,-0.1137,51.3,0.02686,7.0,0.996,0.01563,-0.0,-0.002272,0.01732,-0.03308,52.6,0.0,7.0,1.0,0.0,0.0,0.0
1738778014342208862,51.6,0.02219,7.027,1.001,0.01747,-0.00128,-0.00186,0.01884,-0.1138,51.38,0.02686,7.0,0.996,0.01563,-0.0,-0.00221,0.01878,-0.03308,52.7,0.0,7.0,1.0,0.0,0.0,0.0
1738778014392213582,51.66,0.02307,7.027,1.001,0.01688,-0.001892,-0.001868,0.01988,-0.1137,51.38,0.02686,7.0,0.996,0.01563,-0.0,-0.002222,0.01947,-0.03317,52.7,0.0,7.0,1.0,0.0,0.0,0.0
1738778014442194223,51.7,0.02386,7.027,1.002,0.0163,-0.00222,-0.001874,0.02058,-0.1137,51.47,0.02686,7.0,0.996,0.01563,-0.0,-0.002243,0.02068,-0.03326,52.8,0.0,7.0,1.0,0.0,0.0,0.0
1738778014492209672,51.75,0.0247,7.027,1.003,0.01564,-0.002567,-0.00184,0.02061,-0.1137,51.5,0.02686,7.0,0.996,0.01563,-0.0,-0.002249,0.02103,-0.03326,52.8,0.0,7.0,1.0,0.0,0.0,0.0
1738778014542204856,51.8,0.02544,7.027,1.004,0.015076,-0.002369,-0.001822,0.01959,-0.11365,51.56,0.02686,7.0,0.996,0.01563,-0.0,-0.002237,0.02017,-0.03342,52.9,0.0,7.0,1.0,0.0,0.0,0.0
1738778014592207908,51.84,0.02615,7.027,1.004,0.01456,-0.001712,-0.001819,0.0189,-0.1136,51.6,0.02686,7.0,0.996,0.01563,-0.0,-0.002226,0.01947,-0.03342,52.9,0.0,7.0,1.0,0.0,0.0,0.0
1738778014642208576,51.9,0.02689,7.027,1.004,0.01402,-0.00132,-0.001785,0.01839,-0.1136,51.66,0.02686,7.0,0.996,0.01172,-0.0,-0.002213,0.01878,-0.03342,53.0,0.0,7.0,1.0,0.0,0.0,0.0
1738778014692220449,51.94,0.0276,7.027,1.003,0.01351,-0.001364,-0.001788,0.01791,-0.1135,51.72,0.02686,7.0,0.996,0.01172,-0.0,-0.002207,0.01843,-0.03342,53.0,0.0,7.0,1.0,0.0,0.0,0.0
1738778014742230415,52.0,0.02824,7.027,1.003,0.01308,-0.00153,-0.001801,0.01765,-0.11346,51.78,0.02686,7.0,0.996,0.01172,-0.0,-0.002113,0.018,-0.03342,53.1,0.0,7.0,1.0,0.0,0.0,0.0
1738778014792217969,52.06,0.02885,7.027,1.002,0.01265,-0.001421,-0.001814,0.01796,-0.1134,51.8,0.02686,7.0,0.996,0.01172,-0.0,-0.002111,0.01784,-0.03342,53.1,0.0,7.0,1.0,0.0,0.0,0.0
1738778014842246055,52.1,0.02951,7.027,1.002,0.01216,-0.00146,-0.001849,0.01932,-0.11334,51.88,0.02686,7.0,0.996,0.01172,-0.0,-0.002134,0.01921,-0.03336,53.2,0.0,7.0,1.0,0.0,0.0,0.0
1738778014892229557,52.16,0.03008,7.027,1.003,0.01166,-0.001795,-0.001843,0.01978,-0.11334,51.9,0.02686,7.0,0.996,0.01172,-0.0,-0.002234,0.01999,-0.03342,53.2,0.0,7.0,1.0,0.0,0.0,0.0
1738778014942229747,52.2,0.03067,7.027,1.003,0.01113,-0.00198,-0.001815,0.01894,-0.1133,51.97,0.02686,7.0,0.996,0.007812,-0.0,-0.002138,0.0194,-0.03342,53.3,0.0,7.0,1.0,0.0,0.0,0.0
1738778014992220640,52.25,0.03119,7.027,1.003,0.01069,-0.002262,-0.001827,0.01839,-0.1132,52.0,0.02686,7.0,0.996,0.007812,-0.0,-0.00213,0.01904,-0.03342,53.3,0.0,7.0,1.0,0.0,0.0,0.0
1738778015042226791,52.3,0.03174,7.027,1.003,0.01024,-0.0025,-0.0018,0.01796,-0.11316,52.06,0.02687,7.0,0.996,0.007812,-0.0,-0.00212,0.01836,-0.03342,53.4,0.0,7.0,1.0,0.0,0.0,0.0
1738778015092248916,52.34,0.03223,7.027,1.002,0.00984,-0.002361,-0.001808,0.01772,-0.1131,52.1,0.02687,7.0,0.996,0.007812,-0.0,-0.002201,0.0181,-0.03342,53.4,0.0,7.0,1.0,0.0,0.0,0.0
1738778015142230749,52.4,0.0327,7.027,1.002,0.00944,-0.001874,-0.001832,0.01761,-0.1131,52.16,0.02687,6.996,0.996,0.007812,-0.0,-0.002197,0.01791,-0.03336,53.5,0.0,7.0,1.0,0.0,0.0,0.0
1738778015192235469,52.44,0.03317,7.023,1.001,0.00907,-0.001286,-0.001825,0.01755,-0.11304,52.2,0.02687,6.996,0.996,0.007812,-0.0,-0.00211,0.01784,-0.03333,53.5,0.0,7.0,1.0,0.0,0.0,0.0
1738778015242234230,52.5,0.03363,7.023,1.0,0.00869,-0.000705,-0.001824,0.01744,-0.113,52.25,0.02687,6.996,0.996,0.007812,-0.0,-0.002195,0.01775,-0.03326,53.6,0.0,7.0,1.0,0.0,0.0,0.0
1738778015292244911,52.56,0.03406,7.023,0.9995,0.00831,6.4e-05,-0.001806,0.01736,-0.113,52.3,0.02687,6.996,0.992,0.007812,-0.0,-0.002108,0.01767,-0.03326,53.6,0.0,7.0,1.0,0.0,0.0,0.0
1738778015342245340,52.6,0.03445,7.023,0.999,0.00796,0.00031,-0.001779,0.01726,-0.1129,52.38,0.02687,6.996,0.992,0.003906,-0.0,-0.002192,0.01758,-0.03326,53.7,0.0,7.0,1.0,0.0,0.0,0.0
1738778015392198562,52.66,0.03482,7.023,0.9985,0.007618,0.000542,-0.001816,0.01717,-0.1129,52.4,0.02687,6.996,0.992,0.003906,-0.0,-0.002104,0.01749,-0.03317,53.7,0.0,7.0,1.0,0.0,0.0,0.0
1738778015442242622,52.7,0.0352,7.023,0.9976,0.007294,0.000698,-0.001809,0.01714,-0.11285,52.47,0.02687,6.996,0.992,0.003906,-0.0,-0.002188,0.0174,-0.03317,53.8,0.0,7.0,1.0,0.0,0.0,0.0
1738778015492198467,52.75,0.03555,7.027,0.997,0.006935,0.001074,-0.001797,0.01715,-0.11285,52.5,0.02687,6.996,0.992,0.003906,-0.0,-0.002188,0.0174,-0.03317,53.8,0.0,7.0,1.0,0.0,0.0,0.0
1738778015542235136,52.8,0.0359,7.027,0.996,0.00661,0.001223,-0.00177,0.01714,-0.1128,52.56,0.02687,6.996,0.992,0.003906,-0.0,-0.002188,0.01741,-0.03308,53.9,0.0,7.0,1.0,0.0,0.0,0.0
1738778015592206954,52.84,0.03622,7.027,0.9956,0.00625,0.001394,-0.001792,0.01752,-0.1128,52.6,0.02687,6.996,0.992,0.003906,-0.0,-0.002188,0.01741,-0.03308,53.9,0.0,7.0,1.0,0.0,0.0,0.0
1738778015642237901,52.9,0.03653,7.027,0.995,0.005844,0.000291,-0.001788,0.01888,-0.1128,52.66,0.02687,6.996,0.9883,0.003906,-0.0,-0.00221,0.01878,-0.03308,54.0,0.0,7.0,1.0,0.0,0.0,0.0
1738778015692214965,52.94,0.0368,7.027,0.9956,0.005405,-0.000409,-0.001757,0.01938,-0.11273,52.7,0.02687,6.996,0.9883,0.003906,-0.0,-0.002136,0.01956,-0.03308,54.0,0.0,7.0,1.0,0.0,0.0,0.0
1738778015742250680,53.0,0.03708,7.027,0.9956,0.004948,-0.000225,-0.001766,0.01874,-0.11273,52.78,0.02687,6.996,0.992,0.003906,-0.0,-0.00213,0.01904,-0.03326,54.1,0.0,7.0,1.0,0.0,0.0,0.0
1738778015792261600,53.06,0.0373,7.027,0.9956,0.004562,0.000192,-0.001798,0.01831,-0.11273,52.78,0.02687,6.996,0.992,0.003906,-0.0,-0.002127,0.01888,-0.03326,54.1,0.0,7.0,1.0,0.0,0.0,0.0
1738778015842248916,53.1,0.03754,7.027,0.9956,0.004185,0.000685,-0.001783,0.01797,-0.1127,52.84,0.02687,6.996,0.992,0.0,-0.0,-0.002203,0.01826,-0.03326,54.2,0.0,7.0,1.0,0.0,0.0,0.0
1738778015892217874,53.16,0.03772,7.027,0.995,0.003838,0.001019,-0.00176,0.0177,-0.1126,52.9,0.02687,6.996,0.992,0.0,-0.0,-0.002201,0.0181,-0.03326,54.2,0.0,7.0,1.0,0.0,0.0,0.0
1738778015942251443,53.2,0.0379,7.027,0.9946,0.003487,0.001233,-0.001762,0.01749,-0.1126,52.97,0.02687,6.996,0.992,0.0,-0.0,-0.002193,0.01775,-0.03317,54.3,0.0,7.0,1.0,0.0,0.0,0.0
1738778015992237091,53.25,0.03806,7.027,0.994,0.003176,0.000806,-0.001786,0.01733,-0.1126,53.0,0.02687,7.0,0.9883,0.0,-0.0,-0.002106,0.01767,-0.03317,54.3,0.0,7.0,1.0,0.0,0.0,0.0
1738778016042228698,53.3,0.03824,7.027,0.993,0.002863,-0.000122,-0.001776,0.01714,-0.11255,53.06,0.02687,7.0,0.9883,0.0,-0.0,-0.002188,0.0174,-0.03317,54.4,0.0,7.0,1.0,0.0,0.0,0.0
1738778016092217922,53.34,0.03836,7.027,0.9927,0.00257,-0.000581,-0.001769,0.01752,-0.11255,53.1,0.02687,7.0,0.9883,0.0,-0.0,-0.002188,0.0174,-0.03317,54.4,0.0,7.0,1.0,0.0,0.0,0.0
1738778016142212867,53.4,0.03848,7.027,0.9927,0.002193,-0.000894,-0.00175,0.01903,-0.11255,53.16,0.02687,7.0,0.9883,0.0,-0.0,-0.002125,0.01888,-0.03308,54.5,0.0,7.0,1.0,0.0,0.0,0.0
1738778016192213058,53.44,0.03857,7.027,0.993,0.001767,-0.001212,-0.001721,0.02,-0.1125,53.2,0.02687,7.0,0.9883,0.0,-0.0,-0.00214,0.01973,-0.03317,54.5,0.0,7.0,1.0,0.0,0.0,0.0
1738778016242215871,53.5,0.03867,7.027,0.9937,0.001263,-0.001462,-0.001756,0.02069,-0.1125,53.25,0.02687,7.0,0.9883,0.0,-0.0,-0.00216,0.02077,-0.03326,54.6,0.0,7.0,1.0,0.0,0.0,0.0
1738778016292179822,53.53,0.0387,7.027,0.995,0.000785,-0.001459,-0.001747,0.02116,-0.1124,53.28,0.02687,7.0,0.992,0.0,-0.0,-0.002165,0.02112,-0.03326,54.6,0.0,7.0,1.0,0.0,0.0,0.0
1738778016342210292,53.6,0.03873,7.027,0.9966,0.000242,-0.000642,-0.001721,0.02156,-0.1124,53.38,0.02687,6.996,0.992,0.0,-0.0,-0.002083,0.02173,-0.03275,54.7,0.0,7.0,1.0,0.0,0.0,0.0
1738778016392208337,53.66,0.03873,7.027,0.998,-0.000282,-3e-06,-0.001699,0.02184,-0.1124,53.4,0.02687,6.996,0.992,0.0,-0.0,-0.00217,0.02197,-0.03256,54.7,0.0,7.0,1.0,0.0,0.0,0.0
1738778016442211389,53.7,0.0387,7.027,0.9995,-0.000863,0.000589,-0.001695,0.02194,-0.1125,53.47,0.02687,6.996,0.996,0.0,-0.0,-0.002169,0.02216,-0.03204,54.8,0.0,7.0,1.0,0.0,0.0,0.0
1738778016492225885,53.75,0.03864,7.027,1.001,-0.00139,0.001,-0.001715,0.0216,-0.1126,53.5,0.02687,6.996,0.996,0.0,-0.0,-0.002167,0.02216,-0.03195,54.8,0.0,7.0,1.0,0.0,0.0,0.0
1738778016542255163,53.78,0.03857,7.027,1.002,-0.001857,0.001339,-0.001721,0.02028,-0.11273,53.56,0.02687,6.996,0.996,0.0,-0.0,-0.00223,0.02069,-0.0319,54.9,0.0,7.0,1.0,0.0,0.0,0.0
1738778016592232465,53.84,0.03845,7.027,1.003,-0.002289,0.002167,-0.001761,0.01971,-0.1129,53.6,0.02689,6.996,1.0,0.0,-0.0,-0.00222,0.01999,-0.03204,54.9,0.0,7.0,1.0,0.0,0.0,0.0
1738778016642230987,53.9,0.03833,7.027,1.003,-0.00272,0.002588,-0.001752,0.02052,-0.113,53.66,0.02689,6.996,1.0,0.0,-0.0,-0.002148,0.0206,-0.0324,55.0,0.0,7.0,1.0,0.0,0.0,0.0
1738778016692221641,53.94,0.03818,7.027,1.004,-0.003155,0.002169,-0.001737,0.02055,-0.1131,53.7,0.02689,6.996,1.0,0.0,-0.0,-0.002153,0.02095,-0.03256,55.0,0.0,7.0,1.0,0.0,0.0,0.0
1738778016742197275,54.0,0.03802,7.027,1.005,-0.003551,0.001687,-0.001759,0.01947,-0.11316,53.78,0.02689,6.996,1.0,0.0,-0.0,-0.002224,0.01982,-0.03275,55.1,0.0,7.0,1.0,0.0,0.0,0.0
1738778016792264461,54.03,0.03784,7.027,1.005,-0.003904,0.001186,-0.001771,0.01868,-0.1132,53.8,0.02689,6.996,1.0,0.0,-0.0,-0.002216,0.0193,-0.0329,55.1,0.0,7.0,1.0,0.0,0.0,0.0
1738778016842238903,54.1,0.03763,7.027,1.005,-0.00421,0.0006,-0.001783,0.01816,-0.1133,53.84,0.02689,6.996,1.0,-0.003906,-0.0,-0.002205,0.01862,-0.0329,55.2,0.0,7.0,1.0,0.0,0.0,0.0
1738778016892236471,54.16,0.0374,7.027,1.004,-0.004467,0.000644,-0.00179,0.01788,-0.1133,53.9,0.02689,6.996,1.0,-0.003906,-0.0,-0.002201,0.01826,-0.033,55.2,0.0,7.0,1.0,0.0,0.0,0.0
1738778016942211389,54.2,0.0372,7.027,1.004,-0.004715,0.000721,-0.001776,0.01773,-0.11334,53.97,0.02689,6.996,1.0,-0.003906,-0.0,-0.002111,0.018,-0.03308,55.3,0.0,7.0,1.0,0.0,0.0,0.0
1738778016992207288,54.25,0.03693,7.027,1.003,-0.004982,0.001094,-0.001741,0.01758,-0.1133,54.0,0.02689,6.996,1.0,-0.003906,-0.0,-0.002195,0.01791,-0.03308,55.3,0.0,7.0,1.0,0.0,0.0,0.0
1738778017042228937,54.28,0.03668,7.027,1.002,-0.005222,0.001505,-0.001754,0.0175,-0.1133,54.06,0.02689,6.996,1.0,-0.003906,-0.0,-0.002193,0.01775,-0.03308,55.4,0.0,7.0,1.0,0.0,0.0,0.0
1738778017092196464,54.34,0.0364,7.027,1.002,-0.00547,0.001319,-0.001762,0.01732,-0.1133,54.1,0.02689,6.996,0.996,-0.003906,-0.0,-0.002193,0.01775,-0.03308,55.4,0.0,7.0,1.0,0.0,0.0,0.0
1738778017142237901,54.4,0.03613,7.027,1.001,-0.005684,0.002089,-0.001755,0.01726,-0.1133,54.16,0.02689,6.996,0.996,-0.003906,-0.0,-0.002104,0.01749,-0.03317,55.5,0.0,7.0,1.0,0.0,0.0,0.0
1738778017192211627,54.44,0.03586,7.027,1.0,-0.005924,0.003222,-0.001742,0.01735,-0.1133,54.22,0.02689,6.996,0.996,-0.003906,-0.0,-0.002192,0.01758,-0.03317,55.5,0.0,7.0,1.0,0.0,0.0,0.0
1738778017242234468,54.5,0.03552,7.027,0.9995,-0.00617,0.003492,-0.001723,0.01723,-0.1133,54.25,0.02689,6.996,0.996,-0.003906,-0.0,-0.002192,0.01758,-0.03317,55.6,0.0,7.0,1.0,0.0,0.0,0.0
1738778017292222499,54.53,0.03522,7.027,0.999,-0.006386,0.0035,-0.001738,0.01712,-0.1133,54.28,0.02689,6.996,0.996,-0.003906,-0.0,-0.002188,0.0174,-0.03317,55.6,0.0,7.0,1.0,0.0,0.0,0.0
1738778017342160463,54.6,0.0349,7.027,0.998,-0.006588,0.003195,-0.001758,0.01704,-0.1132,54.38,0.02689,6.996,0.996,-0.003906,-0.0,-0.002274,0.01732,-0.03317,55.7,0.0,7.0,1.0,0.0,0.0,0.0
1738778017392146348,54.66,0.03458,7.027,0.997,-0.006794,0.002834,-0.001743,0.01697,-0.1132,54.4,0.02689,6.996,0.992,-0.003906,-0.0,-0.002184,0.01723,-0.03308,55.7,0.0,7.0,1.0,0.0,0.0,0.0
1738778017442210912,54.7,0.0342,7.027,0.996,-0.00701,0.002607,-0.001727,0.01694,-0.1132,54.47,0.02689,6.996,0.992,-0.003906,-0.0,-0.002186,0.01723,-0.03317,55.8,0.0,7.0,1.0,0.0,0.0,0.0
1738778017492238283,54.75,0.03387,7.027,0.9956,-0.007214,0.002314,-0.001702,0.01697,-0.1132,54.5,0.02689,6.996,0.992,-0.003906,-0.0,-0.002184,0.01723,-0.03308,55.8,0.0,7.0,1.0,0.0,0.0,0.0
1738778017542229175,54.78,0.0335,7.027,0.9946,-0.007423,0.002068,-0.001699,0.01697,-0.1132,54.56,0.02689,6.996,0.992,-0.007812,-0.0,-0.002184,0.01723,-0.03308,55.9,0.0,7.0,1.0,0.0,0.0,0.0
1738778017592183828,54.84,0.0331,7.027,0.994,-0.007637,0.002138,-0.001729,0.01698,-0.1132,54.6,0.02689,6.996,0.992,-0.007812,-0.0,-0.002184,0.01723,-0.03308,55.9,0.0,7.0,1.0,0.0,0.0,0.0
1738778017642225980,54.9,0.03275,7.027,0.993,-0.00783,0.00209,-0.001733,0.01704,-0.1132,54.66,0.02689,6.996,0.9883,-0.007812,-0.0,-0.002272,0.01732,-0.03308,56.0,0.0,7.0,1.0,0.0,0.0,0.0
1738778017692227125,54.94,0.03232,7.027,0.992,-0.00806,0.00185,-0.001726,0.01701,-0.1132,54.7,0.02689,6.996,0.9883,-0.007812,-0.0,-0.002188,0.01741,-0.03308,56.0,0.0,7.0,1.0,0.0,0.0,0.0
1738778017742225646,55.0,0.03195,7.027,0.9917,-0.00823,0.001776,-0.001712,0.01701,-0.1132,54.75,0.02689,6.996,0.9883,-0.007812,-0.0,-0.002184,0.01723,-0.03308,56.1,0.0,7.0,1.0,0.0,0.0,0.0
1738778017792205572,55.03,0.03152,7.027,0.9907,-0.008446,0.001694,-0.001698,0.01703,-0.1132,54.8,0.02689,6.996,0.9883,-0.007812,-0.0,-0.002184,0.01723,-0.03308,56.1,0.0,7.0,1.0,0.0,0.0,0.0
1738778017842176914,55.1,0.0311,7.027,0.99,-0.008644,0.001268,-0.001711,0.01704,-0.1132,54.88,0.02689,7.0,0.9883,-0.007812,-0.0,-0.002272,0.01732,-0.03308,56.2,0.0,7.0,1.0,0.0,0.0,0.0
1738778017892211914,55.12,0.03069,7.027,0.9897,-0.00883,0.00057,-0.001745,0.01729,-0.1132,54.9,0.02689,7.0,0.9883,-0.007812,-0.0,-0.002272,0.01732,-0.03308,56.2,0.0,7.0,1.0,0.0,0.0,0.0
1738778017942211151,55.2,0.03018,7.027,0.9893,-0.009094,0.000499,-0.001738,0.01886,-0.1132,54.97,0.02689,7.0,0.9844,-0.007812,-0.0,-0.002295,0.01869,-0.03308,56.3,0.0,7.0,1.0,0.0,0.0,0.0
1738778017992192745,55.25,0.02974,7.027,0.9897,-0.0094,0.000592,-0.00172,0.01994,-0.11316,55.0,0.02689,7.0,0.9844,-0.007812,-0.0,-0.002226,0.01965,-0.03326,56.3,0.0,7.0,1.0,0.0,0.0,0.0
1738778018042225360,55.28,0.02928,7.027,0.9907,-0.00975,0.000406,-0.001704,0.0206,-0.11316,55.06,0.0269,7.0,0.9883,-0.007812,-0.0,-0.002243,0.02068,-0.03326,56.4,0.0,7.0,1.0,0.0,0.0,0.0
1738778018092231512,55.34,0.02876,7.027,0.9917,-0.01018,7.7e-05,-0.001675,0.02107,-0.11316,55.1,0.0269,7.0,0.9883,-0.007812,-0.0,-0.002167,0.02112,-0.03345,56.4,0.0,7.0,1.0,0.0,0.0,0.0
1738778018142172813,55.38,0.02826,7.027,0.993,-0.01059,-5.9e-05,-0.001689,0.02138,-0.1131,55.16,0.0269,7.0,0.9883,-0.007812,-0.0,-0.002258,0.02155,-0.03326,56.5,0.0,7.0,1.0,0.0,0.0,0.0
1738778018192218780,55.44,0.0277,7.027,0.9946,-0.01104,-0.000342,-0.001672,0.02162,-0.1131,55.2,0.0269,7.0,0.992,-0.007812,-0.0,-0.002172,0.0218,-0.033,56.5,0.0,7.0,1.0,0.0,0.0,0.0
1738778018242207288,55.5,0.02716,7.027,0.996,-0.011475,-0.000621,-0.001638,0.02179,-0.1131,55.25,0.0269,7.0,0.992,-0.007812,-0.0,-0.00217,0.02197,-0.03256,56.6,0.0,7.0,1.0,0.0,0.0,0.0
1738778018292218685,55.53,0.02655,7.027,0.9976,-0.011955,-0.000859,-0.001628,0.02194,-0.11316,55.28,0.0269,7.0,0.992,-0.007812,-0.0,-0.002172,0.02216,-0.0324,56.6,0.0,7.0,1.0,0.0,0.0,0.0
1738778018342235803,55.6,0.02597,7.027,0.999,-0.01241,-0.000932,-0.001608,0.02203,-0.1133,55.34,0.0269,7.0,0.996,-0.01172,-0.0,-0.00217,0.02232,-0.03204,56.7,0.0,7.0,1.0,0.0,0.0,0.0
1738778018392221927,55.62,0.02531,7.027,1.001,-0.01291,-0.000655,-0.001626,0.02214,-0.1134,55.4,0.0269,7.0,0.996,-0.01172,-0.0,-0.002169,0.02232,-0.0319,56.7,0.0,7.0,1.0,0.0,0.0,0.0
1738778018442219257,55.7,0.02467,7.027,1.002,-0.01337,1.8e-05,-0.001652,0.02222,-0.1136,55.47,0.0269,6.996,1.0,-0.01172,-0.0,-0.00217,0.02249,-0.0317,56.8,0.0,7.0,1.0,0.0,0.0,0.0
1738778018492235422,55.75,0.02397,7.027,1.004,-0.01384,0.000836,-0.001669,0.02187,-0.1138,55.5,0.0269,6.996,1.0,-0.01172,-0.0,-0.002169,0.02249,-0.03152,56.8,0.0,7.0,1.0,0.0,0.0,0.0
1738778018542219877,55.78,0.0233,7.027,1.005,-0.01423,0.00191,-0.001642,0.02054,-0.11395,55.56,0.0269,6.996,1.004,-0.01172,-0.0,-0.002146,0.02095,-0.0317,56.9,0.0,7.0,1.0,0.0,0.0,0.0
1738778018592158555,55.84,0.02255,7.027,1.006,-0.01458,0.00257,-0.001663,0.01941,-0.1142,55.6,0.0269,6.996,1.004,-0.01172,-0.0,-0.002136,0.02025,-0.03195,56.9,0.0,7.0,1.0,0.0,0.0,0.0
1738778018642223596,55.88,0.02184,7.027,1.006,-0.01484,0.002653,-0.001666,0.01865,-0.1143,55.66,0.000386,6.996,1.004,-0.01172,-0.0,-0.002209,0.01913,-0.03232,57.0,0.0,7.0,1.0,0.0,0.0,0.0
1738778018692258834,55.94,0.02106,7.027,1.006,-0.01509,0.002357,-0.001652,0.01805,-0.1145,55.7,0.0003862,6.996,1.004,-0.01172,-0.0,-0.002201,0.01862,-0.03238,57.0,0.0,7.0,1.0,0.0,0.0,0.0
1738778018742198705,56.0,0.02032,7.027,1.005,-0.015305,0.00198,-0.001637,0.0177,-0.1146,55.75,0.000387,6.996,1.004,-0.01172,-0.0,-0.002108,0.018,-0.03265,57.1,0.0,7.0,1.0,0.0,0.0,0.0
1738778018792217493,56.03,0.01953,7.027,1.004,-0.01551,0.001862,-0.001658,0.0175,-0.1147,55.78,0.0003874,6.996,1.0,-0.01172,-0.0,-0.002193,0.01793,-0.03275,57.1,0.0,7.0,1.0,0.0,0.0,0.0
1738778018842214584,56.1,0.01878,7.027,1.004,-0.01569,0.001912,-0.001674,0.0174,-0.1148,55.88,0.0003881,6.996,1.0,-0.01172,-0.0,-0.002192,0.01775,-0.0329,57.2,0.0,7.0,1.0,0.0,0.0,0.0
1738778018892206192,56.16,0.01796,7.027,1.003,-0.01576,0.001773,-0.00214,0.01729,-0.11487,55.9,0.0003886,6.996,1.0,-0.01172,-0.0,-0.002275,0.01765,-0.0329,57.2,0.0,7.0,1.0,0.0,0.0,0.0
1738778018942220687,56.2,0.01721,7.027,1.002,-0.01539,0.001596,-0.003523,0.01721,-0.1149,55.94,0.000389,6.996,1.0,-0.01172,-0.0,-0.003742,0.01755,-0.03302,57.3,0.0,7.0,1.0,0.0,0.0,0.0
1738778018992110013,56.25,0.01643,7.027,1.002,-0.01432,0.001639,-0.004696,0.01717,-0.1149,56.0,0.0003896,6.996,1.0,-0.01172,-0.0,-0.004604,0.01753,-0.03302,57.3,0.0,7.0,1.0,0.0,0.0,0.0
1738778019042181491,56.28,0.01578,7.027,1.001,-0.01291,0.001887,-0.00547,0.01717,-0.115,56.06,0.0003903,6.996,1.0,-0.01172,-0.0,-0.00573,0.01743,-0.0331,57.4,0.0,7.0,1.0,0.0,0.0,0.0
1738778019092117786,56.34,0.015205,7.03,1.001,-0.0112,0.0026,-0.005978,0.01717,-0.115,56.1,0.0003905,6.996,0.996,-0.007812,-0.0,-0.006245,0.01743,-0.0331,57.4,0.0,7.0,1.0,0.0,0.0,0.0
1738778019142210006,56.38,0.01467,7.03,1.0,-0.00916,0.002918,-0.006355,0.01715,-0.11505,56.16,0.0003912,6.996,0.996,-0.007812,-0.0,-0.006763,0.01741,-0.0332,57.5,0.0,7.0,1.0,0.0,0.0,0.0
1738778019192207813,56.44,0.01426,7.03,0.9995,-0.006985,0.002651,-0.006584,0.01703,-0.11505,56.2,0.0003917,6.996,0.996,-0.003906,-0.0,-0.006935,0.01741,-0.0332,57.5,0.0,7.0,1.0,0.0,0.0,0.0
1738778019242226839,56.5,0.01397,7.03,0.999,-0.004917,0.002048,-0.00672,0.01692,-0.1151,56.25,0.0003922,6.996,0.996,-0.003906,-0.0,-0.007195,0.01732,-0.0333,57.6,0.0,7.0,1.0,0.0,0.0,0.0
1738778019292184829,56.53,0.01379,7.03,0.998,-0.002811,0.001445,-0.0068,0.01689,-0.1151,56.3,0.000393,7.0,0.996,0.0,-0.0,-0.00728,0.01723,-0.0333,57.6,0.0,7.0,1.0,0.0,0.0,0.0
1738778019342206716,56.6,0.0137,7.03,0.9976,-0.000531,0.000717,-0.006847,0.01689,-0.1151,56.34,0.0003934,7.0,0.996,0.0,-0.0,-0.007366,0.01715,-0.0333,57.7,0.0,7.0,1.0,0.0,0.0,0.0
1738778019392217874,56.66,0.01373,7.03,0.997,0.001749,0.000751,-0.006863,0.01695,-0.1151,56.38,0.0003939,7.0,0.992,0.0,-0.0,-0.007366,0.01715,-0.0333,57.7,0.0,7.0,1.0,0.0,0.0,0.0
1738778019442221403,56.7,0.01387,7.03,0.9966,0.003822,0.000735,-0.006893,0.01701,-0.1151,56.47,0.0003946,7.0,0.992,0.003906,-0.0,-0.007366,0.01732,-0.0333,57.8,0.0,7.0,1.0,0.0,0.0,0.0
1738778019492152214,56.75,0.01413,7.03,0.996,0.006065,0.000291,-0.006927,0.01697,-0.1151,56.5,0.0003948,7.0,0.992,0.003906,-0.0,-0.007366,0.01732,-0.0333,57.8,0.0,7.0,1.0,0.0,0.0,0.0
1738778019542224645,56.78,0.014465,7.03,0.9956,0.00813,-9.6e-05,-0.00697,0.01694,-0.1152,56.56,0.0003955,7.0,0.992,0.007812,-0.0,-0.007454,0.01723,-0.0333,57.9,0.0,7.0,1.0,0.0,0.0,0.0
1738778019592233896,56.84,0.01495,7.03,0.995,0.01035,-0.000431,-0.00696,0.01694,-0.1152,56.6,0.000396,7.0,0.992,0.007812,-0.0,-0.007454,0.01723,-0.0333,57.9,0.0,7.0,1.0,0.0,0.0,0.0
1738778019642236471,56.88,0.015495,7.03,0.9946,0.01238,-0.000463,-0.00693,0.01695,-0.1152,56.66,0.0003965,7.0,0.992,0.01172,-0.0,-0.007454,0.01723,-0.0333,58.0,0.0,7.0,1.0,0.0,0.0,0.0
1738778019692151308,56.94,0.01614,7.03,0.994,0.01436,-0.00032,-0.006927,0.01701,-0.1152,56.7,0.000397,7.0,0.9883,0.01172,-0.0,-0.007454,0.01723,-0.0333,58.0,0.0,7.0,1.0,0.0,0.0,0.0
1738778019742233753,57.0,0.01694,7.03,0.9937,0.01648,-0.00053,-0.006912,0.017,-0.1152,56.75,0.0003977,7.0,0.9883,0.01563,-0.0,-0.007366,0.01732,-0.0333,58.1,0.0,7.0,1.0,0.0,0.0,0.0
1738778019792215585,57.03,0.01778,7.03,0.993,0.0184,-0.000635,-0.00688,0.01727,-0.1152,56.78,0.0003982,7.0,0.9883,0.01563,-0.0,-0.007366,0.01732,-0.0333,58.1,0.0,7.0,1.0,0.0,0.0,0.0
1738778019842233657,57.1,0.0188,7.03,0.993,0.02042,-0.000931,-0.006897,0.01875,-0.1152,56.88,0.0003989,7.0,0.9883,0.01953,-0.0,-0.00748,0.01878,-0.0333,58.2,0.0,7.0,1.0,0.0,0.0,0.0
1738778019892234325,57.12,0.0199,7.03,0.9937,0.02222,-0.001078,-0.006462,0.01984,-0.1151,56.9,0.000399,7.0,0.9883,0.01953,-0.0,-0.00732,0.01965,-0.0333,58.2,0.0,7.0,1.0,0.0,0.0,0.0
1738778019942155122,57.2,0.021,7.03,0.9946,0.02339,-0.001392,-0.00509,0.02054,-0.1152,56.97,0.0004,7.0,0.9883,0.02344,-0.0,-0.0057,0.0208,-0.03348,58.3,0.0,7.0,1.0,0.0,0.0,0.0
1738778019992206335,57.25,0.02223,7.03,0.996,0.02396,-0.001809,-0.003902,0.02101,-0.1152,57.0,0.0004,7.0,0.992,0.02344,-0.0,-0.005016,0.02115,-0.03354,58.3,0.0,7.0,1.0,0.0,0.0,0.0
1738778020042154073,57.28,0.02339,7.03,0.997,0.02399,-0.00204,-0.00309,0.02132,-0.1151,57.06,0.000401,7.0,0.992,0.02344,-0.0,-0.00373,0.0216,-0.03363,58.4,0.0,7.0,1.0,0.0,0.0,0.0
1738778020092119216,57.34,0.02454,7.03,0.9985,0.0237,-0.001974,-0.002544,0.02158,-0.11505,57.1,0.02692,7.0,0.992,0.02344,-0.0,-0.003216,0.02179,-0.0337,58.4,0.0,7.0,1.0,0.0,0.0,0.0
1738778020142136335,57.38,0.02576,7.03,1.0,0.02313,-0.001922,-0.00217,0.02176,-0.11505,57.16,0.02692,7.0,0.996,0.02344,-0.0,-0.002705,0.02214,-0.03378,58.5,0.0,7.0,1.0,0.0,0.0,0.0
1738778020192107677,57.44,0.02684,7.027,1.002,0.02246,-0.002035,-0.001953,0.02188,-0.115,57.2,0.02692,7.0,0.996,0.02344,-0.0,-0.002533,0.02214,-0.03387,58.5,0.0,7.0,1.0,0.0,0.0,0.0
1738778020242137670,57.5,0.02798,7.027,1.003,0.02168,-0.001948,-0.001819,0.02197,-0.11487,57.25,0.02692,7.0,0.996,0.01953,-0.0,-0.002365,0.02232,-0.03397,58.6,0.0,7.0,1.0,0.0,0.0,0.0
1738778020292123079,57.53,0.029,7.027,1.005,0.0209,-0.001605,-0.001771,0.02206,-0.11475,57.3,0.02692,7.0,1.0,0.01953,-0.0,-0.00228,0.02242,-0.03387,58.6,0.0,7.0,1.0,0.0,0.0,0.0
1738778020342140913,57.6,0.03008,7.027,1.006,0.02007,-0.001593,-0.001743,0.02211,-0.1147,57.38,0.02692,7.0,1.0,0.01953,-0.0,-0.002272,0.02242,-0.03326,58.7,0.0,7.0,1.0,0.0,0.0,0.0
1738778020392170190,57.62,0.03102,7.027,1.008,0.01927,-0.001765,-0.001728,0.02208,-0.1147,57.38,0.02692,7.0,1.004,0.01953,-0.0,-0.00227,0.02242,-0.03308,58.7,0.0,7.0,1.0,0.0,0.0,0.0
1738778020442170858,57.7,0.032,7.027,1.01,0.01845,-0.002182,-0.001732,0.02206,-0.1147,57.47,0.02692,7.0,1.004,0.01953,-0.0,-0.002264,0.02242,-0.03256,58.8,0.0,7.0,1.0,0.0,0.0,0.0
1738778020492112398,57.75,0.03287,7.027,1.011,0.01768,-0.002657,-0.001733,0.0217,-0.11475,57.5,0.02692,7.0,1.004,0.01953,-0.0,-0.002174,0.02232,-0.0324,58.8,0.0,7.0,1.0,0.0,0.0,0.0
1738778020542168855,57.78,0.03378,7.027,1.012,0.01692,-0.00245,-0.001703,0.02032,-0.11487,57.56,0.02692,7.0,1.008,0.01563,-0.0,-0.002155,0.02095,-0.03275,58.9,0.0,7.0,1.0,0.0,0.0,0.0
1738778020592178106,57.84,0.03458,7.027,1.012,0.01628,-0.002178,-0.001696,0.01941,-0.1149,57.6,0.02692,7.0,1.008,0.01563,-0.0,-0.002144,0.02025,-0.03275,58.9,0.0,7.0,1.0,0.0,0.0,0.0
1738778020642205238,57.88,0.03534,7.027,1.012,0.01567,-0.001719,-0.001677,0.01877,-0.115,57.66,0.02692,7.0,1.008,0.01563,-0.0,-0.002129,0.01921,-0.0329,59.0,0.0,7.0,1.0,0.0,0.0,0.0
1738778020692172527,57.94,0.03613,7.027,1.012,0.015045,-0.0017,-0.001654,0.01822,-0.115,57.7,0.02692,7.0,1.008,0.01563,-0.0,-0.002209,0.01878,-0.033,59.0,0.0,7.0,1.0,0.0,0.0,0.0
1738778020742177963,58.0,0.0369,7.027,1.012,0.01445,-0.001691,-0.001672,0.01782,-0.11505,57.75,0.02692,7.0,1.008,0.01563,-0.0,-0.002113,0.01819,-0.03308,59.1,0.0,7.0,1.0,0.0,0.0,0.0
1738778020792118072,58.03,0.03757,7.027,1.011,0.01394,-0.001642,-0.001701,0.0176,-0.11505,57.78,0.02692,7.0,1.008,0.01563,-0.0,-0.002111,0.018,-0.03317,59.1,0.0,7.0,1.0,0.0,0.0,0.0
1738778020842219114,58.1,0.0383,7.027,1.01,0.01341,-0.001186,-0.001695,0.01744,-0.11505,57.84,0.02692,6.996,1.008,0.01563,-0.0,-0.002193,0.01775,-0.03317,59.2,0.0,7.0,1.0,0.0,0.0,0.0
1738778020892125606,58.16,0.0389,7.027,1.009,0.012924,-0.000111,-0.001696,0.01743,-0.11505,57.9,0.02692,6.996,1.004,0.01172,-0.0,-0.002195,0.01775,-0.03326,59.2,0.0,7.0,1.0,0.0,0.0,0.0
1738778020942167282,58.2,0.03958,7.027,1.009,0.01241,0.000523,-0.001703,0.01733,-0.11505,57.97,0.02693,6.996,1.004,0.01172,-0.0,-0.002195,0.01775,-0.03326,59.3,0.0,7.0,1.0,0.0,0.0,0.0
1738778020992137908,58.25,0.04016,7.027,1.008,0.01196,0.000601,-0.001729,0.01715,-0.11505,58.0,0.02693,6.996,1.004,0.01172,-0.0,-0.002192,0.01758,-0.03326,59.3,0.0,7.0,1.0,0.0,0.0,0.0
1738778021042188405,58.28,0.04077,7.027,1.007,0.0115,0.000576,-0.001729,0.01704,-0.115,58.06,0.02693,6.996,1.004,0.01172,-0.0,-0.00219,0.01741,-0.03326,59.4,0.0,7.0,1.0,0.0,0.0,0.0
1738778021092122077,58.34,0.04132,7.027,1.006,0.01107,0.000715,-0.001728,0.01704,-0.115,58.1,0.02693,6.996,1.004,0.01172,-0.0,-0.00219,0.01741,-0.03326,59.4,0.0,7.0,1.0,0.0,0.0,0.0
1738778021142216205,58.4,0.04187,7.027,1.005,0.01062,0.000986,-0.001723,0.01706,-0.115,58.16,0.02693,6.996,1.0,0.01172,-0.0,-0.00219,0.01741,-0.03326,59.5,0.0,7.0,1.0,0.0,0.0,0.0
1738778021192161083,58.44,0.0424,7.027,1.004,0.0102,0.000959,-0.001724,0.01704,-0.115,58.2,0.02693,6.996,1.0,0.01172,-0.0,-0.00219,0.01741,-0.03326,59.5,0.0,7.0,1.0,0.0,0.0,0.0
1738778021242206573,58.5,0.0429,7.027,1.003,0.00976,0.001159,-0.001733,0.017,-0.115,58.25,0.02693,6.996,1.0,0.007812,-0.0,-0.002274,0.01732,-0.03326,59.6,0.0,7.0,1.0,0.0,0.0,0.0
1738778021292191267,58.53,0.04337,7.027,1.002,0.00936,0.001595,-0.001733,0.01701,-0.115,58.28,0.02693,6.996,1.0,0.007812,-0.0,-0.002274,0.01732,-0.03326,59.6,0.0,7.0,1.0,0.0,0.0,0.0
1738778021342201232,58.6,0.0438,7.027,1.002,0.00896,0.001837,-0.001725,0.01698,-0.115,58.38,0.02693,6.996,1.0,0.007812,-0.0,-0.002274,0.01732,-0.03326,59.7,0.0,7.0,1.0,0.0,0.0,0.0
1738778021392183542,58.66,0.04425,7.027,1.001,0.00854,0.002073,-0.001735,0.01695,-0.115,58.4,0.02693,6.996,0.996,0.007812,-0.0,-0.002186,0.01723,-0.03326,59.7,0.0,7.0,1.0,0.0,0.0,0.0
1738778021442173719,58.7,0.04468,7.027,0.9995,0.008125,0.002129,-0.001763,0.01695,-0.115,58.47,0.02693,6.996,0.996,0.007812,-0.0,-0.002274,0.01732,-0.03326,59.8,0.0,7.0,1.0,0.0,0.0,0.0
1738778021492197990,58.75,0.04507,7.027,0.999,0.00776,0.001771,-0.001754,0.01688,-0.1149,58.5,0.02693,6.996,0.996,0.007812,-0.0,-0.002186,0.01723,-0.03326,59.8,0.0,7.0,1.0,0.0,0.0,0.0
1738778021542158365,58.78,0.04544,7.027,0.998,0.007378,0.001346,-0.001747,0.01683,-0.1149,58.56,0.02693,6.996,0.996,0.007812,-0.0,-0.00227,0.01714,-0.03317,59.9,0.0,7.0,1.0,0.0,0.0,0.0
1738778021592184066,58.84,0.0458,7.027,0.997,0.00701,0.000997,-0.001748,0.01683,-0.1149,58.6,0.02693,6.996,0.996,0.003906,-0.0,-0.002272,0.01714,-0.03326,59.9,0.0,7.0,1.0,0.0,0.0,0.0
1738778021642175674,58.9,0.0461,7.027,0.996,0.00666,0.000645,-0.001748,0.01685,-0.1149,58.66,0.02693,7.0,0.992,0.003906,-0.0,-0.00227,0.01714,-0.03317,60.0,0.0,7.0,1.0,0.0,0.0,0.0
1738778021692114591,58.94,0.04645,7.027,0.995,0.006283,-2.7e-05,-0.001741,0.01685,-0.1149,58.7,0.02693,7.0,0.992,0.003906,-0.0,-0.00227,0.01714,-0.03317,60.0,0.0,7.0,1.0,0.0,0.0,0.0
1738778021742182970,59.0,0.04678,7.027,0.994,0.005898,-0.000375,-0.001736,0.01689,-0.1149,58.78,0.02693,7.0,0.992,0.003906,-0.0,-0.00227,0.01714,-0.03317,60.1,0.0,7.0,1.0,0.0,0.0,0.0
1738778021792212247,59.03,0.04706,7.027,0.9937,0.005547,-0.000624,-0.001729,0.01695,-0.11487,58.78,0.02693,7.0,0.992,0.003906,-0.0,-0.00227,0.01714,-0.03317,60.1,0.0,7.0,1.0,0.0,0.0,0.0
1738778021842195510,59.1,0.0473,7.027,0.9927,0.005196,-0.000682,-0.001733,0.01698,-0.1149,58.84,0.02693,7.0,0.992,0.003906,-0.0,-0.002274,0.01732,-0.03317,60.2,0.0,7.0,1.0,0.0,0.0,0.0
1738778021892218112,59.16,0.04758,7.027,0.992,0.004818,-0.000949,-0.001748,0.01698,-0.1149,58.9,0.02693,7.0,0.9883,0.003906,-0.0,-0.002274,0.01732,-0.03317,60.2,0.0,7.0,1.0,0.0,0.0,0.0
1738778021942198276,59.2,0.0478,7.027,0.991,0.004482,-0.00124,-0.001759,0.01698,-0.1149,58.97,0.02693,7.0,0.9883,0.003906,-0.0,-0.002274,0.01732,-0.03317,60.3,0.0,7.0,1.0,0.0,0.0,0.0
1738778021992206811,59.25,0.048,7.027,0.9907,0.004124,-0.001282,-0.00177,0.01746,-0.11487,59.0,0.02693,7.0,0.9883,0.003906,-0.0,-0.002274,0.01732,-0.03317,60.3,0.0,7.0,1.0,0.0,0.0,0.0
1738778022042183876,59.28,0.04822,7.027,0.99,0.00372,-0.0016,-0.001793,0.0189,-0.1149,59.06,0.02693,7.0,0.9883,0.003906,-0.0,-0.002213,0.01878,-0.03326,60.4,0.0,7.0,1.0,0.0,0.0,0.0
1738778022092142343,59.34,0.0484,7.027,0.9907,0.003273,-0.001804,-0.001768,0.01988,-0.11487,59.1,0.02693,7.0,0.9883,0.003906,-0.0,-0.002314,0.01973,-0.03326,60.4,0.0,7.0,1.0,0.0,0.0,0.0
1738778022142152547,59.4,0.04855,7.027,0.9917,0.002747,-0.001693,-0.001777,0.02063,-0.11487,59.16,0.02693,7.0,0.9883,0.0,-0.0,-0.002249,0.02086,-0.03345,60.5,0.0,7.0,1.0,0.0,0.0,0.0
1738778022192196130,59.44,0.04868,7.027,0.9927,0.00223,-0.001385,-0.001774,0.02112,-0.11487,59.2,0.02693,7.0,0.9883,0.0,-0.0,-0.002254,0.0212,-0.03345,60.5,0.0,7.0,1.0,0.0,0.0,0.0
1738778022242201089,59.5,0.04877,7.027,0.994,0.001701,-0.001256,-0.001748,0.02142,-0.1148,59.25,0.02693,7.0,0.992,0.0,-0.0,-0.002176,0.02164,-0.0336,60.6,0.0,7.0,1.0,0.0,0.0,0.0
1738778022292104959,59.53,0.04883,7.027,0.9956,0.001108,-0.001185,-0.001764,0.0216,-0.1148,59.28,0.02695,7.0,0.992,0.0,-0.0,-0.00218,0.0218,-0.0336,60.6,0.0,7.0,1.0,0.0,0.0,0.0
1738778022342148542,59.6,0.0489,7.027,0.997,0.00053,-0.001286,-0.001766,0.02177,-0.1147,59.38,0.02695,7.0,0.996,0.0,-0.0,-0.002272,0.02206,-0.03378,60.7,0.0,7.0,1.0,0.0,0.0,0.0
1738778022392113208,59.62,0.0489,7.027,0.9985,-1.3e-05,-0.001332,-0.001773,0.02188,-0.1146,59.4,0.02695,7.0,0.996,0.0,-0.0,-0.002188,0.02216,-0.03378,60.7,0.0,7.0,1.0,0.0,0.0,0.0
1738778022442185878,59.7,0.04886,7.027,1.0,-0.00059,-0.001241,-0.001761,0.022,-0.11456,59.44,0.02695,6.996,0.996,0.0,-0.0,-0.002272,0.02223,-0.03345,60.8,0.0,7.0,1.0,0.0,0.0,0.0
1738778022492202281,59.75,0.04883,7.027,1.002,-0.001134,-0.000512,-0.001736,0.02214,-0.11456,59.5,0.02695,6.996,1.0,0.0,-0.0,-0.002182,0.02232,-0.03308,60.8,0.0,7.0,1.0,0.0,0.0,0.0
1738778022542192220,59.78,0.04877,7.027,1.003,-0.00168,-0.000132,-0.001749,0.02219,-0.11456,59.56,0.02695,6.996,1.0,0.0,-0.0,-0.002182,0.02249,-0.03275,60.9,0.0,7.0,1.0,0.0,0.0,0.0
1738778022592204093,59.84,0.04865,7.027,1.005,-0.002253,0.000229,-0.001771,0.02217,-0.11456,59.6,0.02695,6.996,1.004,0.0,-0.0,-0.00218,0.02249,-0.03256,60.9,0.0,7.0,1.0,0.0,0.0,0.0
1738778022642179489,59.88,0.04852,7.027,1.007,-0.002811,0.000367,-0.001785,0.02217,-0.1147,59.66,0.02695,7.0,1.004,0.0,-0.0,-0.002176,0.02249,-0.03223,61.0,0.0,7.0,1.0,0.0,0.0,0.0
1738778022692139148,59.94,0.04837,7.027,1.008,-0.003313,-0.000367,-0.001787,0.02162,-0.1148,59.7,0.02695,7.0,1.008,0.0,-0.0,-0.00217,0.02232,-0.03204,61.0,0.0,7.0,1.0,0.0,0.0,0.0
1738778022742180824,60.0,0.04822,7.027,1.009,-0.00376,-0.000627,-0.001772,0.02022,-0.1149,59.75,0.02695,7.0,1.008,0.0,-0.0,-0.002235,0.02069,-0.0324,61.1,0.0,7.0,1.0,0.0,0.0,0.0
1738778022792188644,60.03,0.048,7.027,1.01,-0.00417,-0.000787,-0.001752,0.01921,-0.115,59.8,0.02695,7.0,1.008,0.0,-0.0,-0.002224,0.01999,-0.03247,61.1,0.0,7.0,1.0,0.0,0.0,0.0
1738778022842190027,60.1,0.0478,7.027,1.01,-0.00454,-0.000757,-0.001747,0.01855,-0.1151,59.84,0.02695,7.0,1.008,0.0,-0.0,-0.002125,0.01904,-0.03275,61.2,0.0,7.0,1.0,0.0,0.0,0.0
1738778022892128229,60.12,0.04758,7.027,1.009,-0.00482,-0.001225,-0.001727,0.01811,-0.1152,59.9,0.02695,7.0,1.008,0.0,-0.0,-0.002205,0.01862,-0.03275,61.2,0.0,7.0,1.0,0.0,0.0,0.0
1738778022942187547,60.2,0.0473,7.027,1.009,-0.00515,-0.0012,-0.001708,0.01776,-0.11523,59.97,0.02695,6.996,1.008,0.0,-0.0,-0.002197,0.0181,-0.0329,61.3,0.0,7.0,1.0,0.0,0.0,0.0
1738778022992204427,60.25,0.04703,7.027,1.008,-0.00546,-0.000482,-0.001707,0.01765,-0.1153,60.0,0.02695,7.0,1.008,0.0,-0.0,-0.00211,0.018,-0.0329,61.3,0.0,7.0,1.0,0.0,0.0,0.0
1738778023042239189,60.28,0.04675,7.027,1.007,-0.00574,-0.000626,-0.001693,0.01746,-0.1153,60.06,0.02695,7.0,1.008,0.0,-0.0,-0.002108,0.01784,-0.03308,61.4,0.0,7.0,1.0,0.0,0.0,0.0
1738778023092128753,60.34,0.04645,7.027,1.007,-0.006035,-0.000431,-0.00168,0.01727,-0.11536,60.1,0.02695,6.996,1.004,0.0,-0.0,-0.002106,0.01767,-0.03308,61.4,0.0,7.0,1.0,0.0,0.0,0.0
1738778023142168760,60.4,0.04617,7.027,1.006,-0.006306,0.000608,-0.00168,0.01729,-0.11536,60.16,0.02695,6.996,1.004,0.0,-0.0,-0.00219,0.01758,-0.03308,61.5,0.0,7.0,1.0,0.0,0.0,0.0
1738778023192176342,60.44,0.04584,7.027,1.005,-0.00659,0.001078,-0.001695,0.01724,-0.1154,60.2,0.02695,6.996,1.004,-0.003906,-0.0,-0.002192,0.01758,-0.03317,61.5,0.0,7.0,1.0,0.0,0.0,0.0
1738778023242207288,60.5,0.0455,7.027,1.004,-0.006832,0.001078,-0.00173,0.01707,-0.1154,60.28,0.02695,6.996,1.004,-0.003906,-0.0,-0.002188,0.0174,-0.03317,61.6,0.0,7.0,1.0,0.0,0.0,0.0
1738778023292121410,60.53,0.04514,7.027,1.003,-0.007076,0.001641,-0.001729,0.01706,-0.1154,60.3,0.02695,6.996,1.004,-0.003906,-0.0,-0.002188,0.0174,-0.03317,61.6,0.0,7.0,1.0,0.0,0.0,0.0
1738778023342164039,60.6,0.0448,7.027,1.002,-0.0073,0.001895,-0.001737,0.01704,-0.1154,60.38,0.02695,6.996,1.0,-0.003906,-0.0,-0.002188,0.0174,-0.03317,61.7,0.0,7.0,1.0,0.0,0.0,0.0
1738778023392114877,60.66,0.0444,7.027,1.002,-0.007523,0.0016,-0.001759,0.01694,-0.1154,60.4,0.02695,6.996,1.0,-0.003906,-0.0,-0.002186,0.01723,-0.03317,61.7,0.0,7.0,1.0,0.0,0.0,0.0
1738778023442178964,60.7,0.04404,7.027,1.001,-0.007725,0.00139,-0.00175,0.0169,-0.1154,60.47,0.02695,6.996,1.0,-0.003906,-0.0,-0.002186,0.01723,-0.03317,61.8,0.0,7.0,1.0,0.0,0.0,0.0
1738778023492196798,60.75,0.04364,7.027,0.9995,-0.00794,0.001179,-0.001739,0.01689,-0.1154,60.5,0.02695,6.996,1.0,-0.003906,-0.0,-0.002186,0.01723,-0.03317,61.8,0.0,7.0,1.0,0.0,0.0,0.0
1738778023542200326,60.78,0.04324,7.027,0.999,-0.00814,0.000769,-0.001734,0.01689,-0.1154,60.56,0.02695,6.996,0.996,-0.003906,-0.0,-0.002186,0.01723,-0.03317,61.9,0.0,7.0,1.0,0.0,0.0,0.0
1738778023592166423,60.84,0.04282,7.027,0.998,-0.00836,0.000842,-0.001731,0.01689,-0.1155,60.6,0.02695,6.996,0.996,-0.003906,-0.0,-0.002186,0.01723,-0.03317,61.9,0.0,7.0,1.0,0.0,0.0,0.0
1738778023642174959,60.9,0.04242,7.027,0.997,-0.00857,0.001456,-0.00172,0.01701,-0.1155,60.7,0.02696,6.996,0.996,-0.003906,-0.0,-0.002186,0.01723,-0.03317,62.0,0.0,7.0,1.0,0.0,0.0,0.0
1738778023692106723,60.94,0.042,7.027,0.9966,-0.00878,0.001848,-0.001711,0.01706,-0.1155,60.72,0.02696,6.996,0.996,-0.003906,-0.0,-0.002188,0.0174,-0.03317,62.0,0.0,7.0,1.0,0.0,0.0,0.0
1738778023742201089,61.0,0.04153,7.027,0.9956,-0.00901,0.00199,-0.001705,0.01698,-0.1155,60.75,0.02696,6.996,0.996,-0.007812,-0.0,-0.002186,0.01723,-0.03326,62.1,0.0,7.0,1.0,0.0,0.0,0.0
1738778023792133808,61.03,0.04108,7.027,0.9946,-0.00924,0.002148,-0.001693,0.01692,-0.1154,60.8,0.02696,6.996,0.996,-0.007812,-0.0,-0.002186,0.01723,-0.03317,62.1,0.0,7.0,1.0,0.0,0.0,0.0
1738778023842176437,61.1,0.04062,7.027,0.9937,-0.00946,0.002104,-0.001671,0.0169,-0.1155,60.88,0.02696,6.996,0.992,-0.007812,-0.0,-0.002186,0.01723,-0.03326,62.2,0.0,7.0,1.0,0.0,0.0,0.0
1738778023892165422,61.16,0.04013,7.027,0.993,-0.0097,0.001944,-0.001647,0.01686,-0.1154,60.9,0.02696,6.996,0.992,-0.007812,-0.0,-0.002186,0.01723,-0.03317,62.2,0.0,7.0,1.0,0.0,0.0,0.0
1738778023942176818,61.2,0.03964,7.027,0.992,-0.00992,0.001963,-0.001672,0.01686,-0.1154,60.97,0.02696,6.996,0.992,-0.007812,-0.0,-0.002186,0.01723,-0.03317,62.3,0.0,7.0,1.0,0.0,0.0,0.0
1738778023992180585,61.25,0.03912,7.027,0.991,-0.01014,0.002142,-0.001666,0.01692,-0.1154,61.0,0.02696,6.996,0.992,-0.007812,-0.0,-0.002186,0.01723,-0.03317,62.3,0.0,7.0,1.0,0.0,0.0,0.0
1738778024042157888,61.28,0.03864,7.027,0.9907,-0.01035,0.002157,-0.001662,0.01692,-0.1154,61.06,0.02696,6.996,0.9883,-0.007812,-0.0,-0.002186,0.01723,-0.03317,62.4,0.0,7.0,1.0,0.0,0.0,0.0
1738778024092228651,61.34,0.0381,7.027,0.9897,-0.01058,0.00172,-0.001671,0.01688,-0.1154,61.12,0.02696,6.996,0.9883,-0.007812,-0.0,-0.002186,0.01723,-0.03317,62.4,0.0,7.0,1.0,0.0,0.0,0.0
1738778024142215251,61.38,0.03757,7.027,0.9893,-0.01077,0.001423,-0.001706,0.01683,-0.1154,61.16,0.02696,6.996,0.9883,-0.007812,-0.0,-0.00227,0.01714,-0.03317,62.5,0.0,7.0,1.0,0.0,0.0,0.0
1738778024192169189,61.44,0.03702,7.03,0.9883,-0.01098,0.001376,-0.001695,0.01689,-0.1154,61.2,0.02696,6.996,0.9883,-0.007812,-0.0,-0.00227,0.01714,-0.03317,62.5,0.0,7.0,1.0,0.0,0.0,0.0
1738778024242220401,61.5,0.03647,7.03,0.9873,-0.01117,0.001228,-0.001673,0.01695,-0.1154,61.25,0.02696,6.996,0.9883,-0.007812,-0.0,-0.002186,0.01723,-0.03317,62.6,0.0,7.0,1.0,0.0,0.0,0.0
1738778024292195558,61.53,0.0359,7.03,0.987,-0.01139,0.001133,-0.001694,0.01743,-0.1154,61.3,0.02696,6.996,0.9844,-0.007812,-0.0,-0.002188,0.0174,-0.03317,62.6,0.0,7.0,1.0,0.0,0.0,0.0
1738778024342226982,61.6,0.03528,7.03,0.987,-0.01166,0.000917,-0.001707,0.01889,-0.1154,61.34,0.02696,6.996,0.9844,-0.007812,-0.0,-0.002214,0.01895,-0.03326,62.7,0.0,7.0,1.0,0.0,0.0,0.0
1738778024392182111,61.62,0.03476,7.03,0.9873,-0.01195,0.000698,-0.00168,0.0198,-0.1154,61.4,0.02696,6.996,0.9844,-0.007812,-0.0,-0.002142,0.01973,-0.03326,62.7,0.0,7.0,1.0,0.0,0.0,0.0
1738778024442171812,61.7,0.03415,7.03,0.988,-0.01234,0.000679,-0.001701,0.02054,-0.11536,61.47,0.02696,7.0,0.9883,-0.01172,-0.0,-0.002161,0.02077,-0.03342,62.8,0.0,7.0,1.0,0.0,0.0,0.0
1738778024492156982,61.75,0.03348,7.03,0.9893,-0.01274,4.9e-05,-0.001718,0.02057,-0.11536,61.5,0.02696,7.0,0.9883,-0.01172,-0.0,-0.00225,0.02103,-0.03345,62.8,0.0,7.0,1.0,0.0,0.0,0.0
1738778024542185544,61.78,0.03287,7.03,0.9897,-0.01307,-0.000202,-0.001702,0.01947,-0.1153,61.56,0.02696,7.0,0.9883,-0.01172,-0.0,-0.002146,0.01991,-0.0335,62.9,0.0,7.0,1.0,0.0,0.0,0.0
1738778024592170715,61.84,0.03214,7.03,0.99,-0.01339,-4.4e-05,-0.001727,0.0192,-0.1153,61.6,0.02696,7.0,0.9883,-0.01172,-0.0,-0.002224,0.0193,-0.0336,62.9,0.0,7.0,1.0,0.0,0.0,0.0
1738778024642163515,61.88,0.03152,7.03,0.9907,-0.01366,0.00014,-0.001725,0.02005,-0.11523,61.66,0.02696,6.996,0.9883,-0.01172,-0.0,-0.002237,0.02017,-0.0336,63.0,0.0,7.0,1.0,0.0,0.0,0.0
1738778024692099571,61.94,0.0308,7.03,0.9917,-0.01403,0.00042,-0.00172,0.02078,-0.1152,61.72,0.02696,6.996,0.992,-0.01172,-0.0,-0.00225,0.02086,-0.0336,63.0,0.0,7.0,1.0,0.0,0.0,0.0
1738778024742139577,61.97,0.03014,7.03,0.9927,-0.01439,0.000577,-0.001701,0.0212,-0.1151,61.72,0.02696,6.996,0.992,-0.01172,-0.0,-0.002256,0.0212,-0.0336,63.1,0.0,7.0,1.0,0.0,0.0,0.0
1738778024792158126,62.03,0.02937,7.03,0.994,-0.01482,0.000384,-0.001665,0.02148,-0.1151,61.78,0.02696,6.996,0.992,-0.01172,-0.0,-0.002178,0.02164,-0.03378,63.1,0.0,7.0,1.0,0.0,0.0,0.0
1738778024842197418,62.1,0.02866,7.03,0.9956,-0.01523,0.000525,-0.00167,0.02168,-0.115,61.88,0.02696,6.996,0.996,-0.01172,-0.0,-0.002184,0.02197,-0.03378,63.2,0.0,7.0,1.0,0.0,0.0,0.0
1738778024892108917,62.12,0.02785,7.03,0.997,-0.01566,0.000208,-0.001692,0.0214,-0.1149,61.9,0.02696,7.0,0.996,-0.01172,-0.0,-0.002184,0.02197,-0.03378,63.2,0.0,7.0,1.0,0.0,0.0,0.0
1738778024942174196,62.2,0.02708,7.03,0.998,-0.01599,-7.2e-05,-0.001697,0.02005,-0.1148,61.94,0.02698,7.0,0.996,-0.01172,-0.0,-0.002245,0.02051,-0.03378,63.3,0.0,7.0,1.0,0.0,0.0,0.0
1738778024992192506,62.22,0.02625,7.03,0.9985,-0.0163,0.000267,-0.001669,0.01913,-0.11475,62.0,0.02698,7.0,0.996,-0.01172,-0.0,-0.002234,0.01982,-0.03378,63.3,0.0,7.0,1.0,0.0,0.0,0.0
1738778025042116403,62.28,0.02539,7.03,0.9985,-0.01656,0.000634,-0.001635,0.01852,-0.1146,62.06,0.02698,6.996,0.996,-0.01172,-0.0,-0.00222,0.01895,-0.03378,63.4,0.0,7.0,1.0,0.0,0.0,0.0
1738778025092139720,62.34,0.0246,7.03,0.9985,-0.01677,0.001116,-0.001634,0.01811,-0.11456,62.1,0.02698,6.996,0.996,-0.01172,-0.0,-0.002127,0.01852,-0.03378,63.4,0.0,7.0,1.0,0.0,0.0,0.0
1738778025142180442,62.38,0.02379,7.03,0.998,-0.01698,0.00147,-0.001635,0.0178,-0.11444,62.16,0.02698,6.996,0.996,-0.01172,-0.0,-0.002203,0.0181,-0.0336,63.5,0.0,7.0,1.0,0.0,0.0,0.0
1738778025192112445,62.44,0.02289,7.03,0.9976,-0.01717,0.001313,-0.001615,0.01752,-0.1144,62.2,0.02698,7.0,0.996,-0.01172,-0.0,-0.002201,0.01791,-0.0336,63.5,0.0,7.0,1.0,0.0,0.0,0.0
1738778025242185115,62.47,0.02206,7.03,0.997,-0.01735,0.000901,-0.001599,0.01729,-0.1143,62.28,0.02698,6.996,0.996,-0.01172,-0.0,-0.00211,0.01767,-0.0335,63.6,0.0,7.0,1.0,0.0,0.0,0.0
1738778025292125701,62.53,0.02122,7.03,0.996,-0.01752,0.001063,-0.00159,0.0172,-0.11426,62.3,0.0004601,6.996,0.996,-0.01172,-0.0,-0.002106,0.01749,-0.03342,63.6,0.0,7.0,1.0,0.0,0.0,0.0
1738778025342104911,62.6,0.02031,7.03,0.9956,-0.0177,0.000931,-0.001589,0.01715,-0.1142,62.34,0.0004609,7.0,0.996,-0.01563,-0.0,-0.002106,0.01749,-0.03342,63.7,0.0,7.0,1.0,0.0,0.0,0.0
1738778025392090797,62.62,0.0194,7.03,0.9946,-0.01787,0.000766,-0.001629,0.01749,-0.11414,62.38,0.000461,7.0,0.996,-0.01563,-0.0,-0.002104,0.01749,-0.03333,63.7,0.0,7.0,1.0,0.0,0.0,0.0
1738778025442200422,62.7,0.01852,7.03,0.9946,-0.01805,0.000454,-0.001642,0.01883,-0.11414,62.47,0.000462,7.0,0.992,-0.01563,-0.0,-0.002214,0.01895,-0.03326,63.8,0.0,7.0,1.0,0.0,0.0,0.0
1738778025492200374,62.72,0.01758,7.03,0.9946,-0.01833,0.00012,-0.001651,0.01941,-0.1141,62.5,0.0004623,7.0,0.996,-0.01563,-0.0,-0.002142,0.01973,-0.03326,63.8,0.0,7.0,1.0,0.0,0.0,0.0
1738778025542117357,62.78,0.0167,7.03,0.995,-0.01857,0.000335,-0.001624,0.01874,-0.114,62.56,0.0004632,7.0,0.996,-0.01563,-0.0,-0.00213,0.01904,-0.03336,63.9,0.0,7.0,1.0,0.0,0.0,0.0
1738778025592188358,62.8,0.0158,7.03,0.995,-0.01869,0.000304,-0.002007,0.0182,-0.114,62.6,0.0004637,7.0,0.996,-0.01563,-0.0,-0.002125,0.01869,-0.03336,63.9,0.0,7.0,1.0,0.0,0.0,0.0
1738778025642120599,62.88,0.01483,7.03,0.9946,-0.01833,-0.000251,-0.003464,0.01772,-0.11395,62.66,0.0004642,7.0,0.996,-0.01563,-0.0,-0.003756,0.01807,-0.03336,64.0,0.0,7.0,1.0,0.0,0.0,0.0
1738778025692108392,62.94,0.01398,7.03,0.994,-0.01738,-0.000452,-0.004555,0.01743,-0.11383,62.7,0.0004647,7.0,0.992,-0.01563,-0.0,-0.0047,0.01779,-0.03326,64.0,0.0,7.0,1.0,0.0,0.0,0.0
1738778025742184877,62.97,0.01311,7.03,0.9937,-0.01584,-0.000689,-0.005444,0.01732,-0.11383,62.75,0.0004654,7.0,0.992,-0.01172,-0.0,-0.005905,0.0176,-0.0333,64.1,0.0,7.0,1.0,0.0,0.0,0.0
1738778025792108297,63.03,0.01234,7.03,0.9937,-0.013954,-0.001283,-0.006023,0.01714,-0.1138,62.78,0.0004659,7.0,0.992,-0.01172,-0.0,-0.006336,0.0175,-0.0333,64.1,0.0,7.0,1.0,0.0,0.0,0.0
1738778025842130184,63.06,0.01171,7.03,0.993,-0.01201,-0.00164,-0.00636,0.01706,-0.1137,62.84,0.0004666,7.0,0.992,-0.007812,-0.0,-0.006763,0.01741,-0.0332,64.2,0.0,7.0,1.0,0.0,0.0,0.0
1738778025892181158,63.12,0.01115,7.03,0.9927,-0.00978,-0.00131,-0.006573,0.01707,-0.1137,62.9,0.000467,7.0,0.992,-0.007812,-0.0,-0.007023,0.01732,-0.0331,64.2,0.0,7.0,1.0,0.0,0.0,0.0
1738778025942104578,63.2,0.01073,7.03,0.992,-0.00768,-0.001138,-0.00668,0.01712,-0.11365,62.94,0.0004678,7.0,0.992,-0.003906,-0.0,-0.00711,0.01741,-0.0331,64.3,0.0,7.0,1.0,0.0,0.0,0.0
1738778025992092132,63.22,0.010414,7.03,0.9917,-0.005566,-0.001023,-0.006737,0.01707,-0.11365,62.97,0.0004683,7.0,0.9883,-0.003906,-0.0,-0.007282,0.01741,-0.03314,64.3,0.0,7.0,1.0,0.0,0.0,0.0
1738778026042146921,63.28,0.010185,7.03,0.991,-0.003263,-0.0012,-0.006794,0.01703,-0.1136,63.06,0.000469,7.0,0.9883,0.0,-0.0,-0.007282,0.01741,-0.03314,64.4,0.0,7.0,1.0,0.0,0.0,0.0
1738778026092123985,63.3,0.01008,7.03,0.9907,-0.000978,-0.001419,-0.006817,0.01744,-0.1136,63.1,0.0004694,7.0,0.9883,0.0,-0.0,-0.007282,0.01741,-0.03314,64.4,0.0,7.0,1.0,0.0,0.0,0.0
1738778026142108678,63.38,0.01008,7.03,0.9907,0.001068,-0.001548,-0.00684,0.0188,-0.1136,63.12,0.00047,7.0,0.9883,0.0,-0.0,-0.00729,0.01793,-0.03314,64.5,0.0,7.0,1.0,0.0,0.0,0.0
1738778026192106246,63.4,0.01018,7.03,0.9917,0.003025,-0.001517,-0.006832,0.01985,-0.1136,63.2,0.0004704,7.0,0.9883,0.0,-0.0,-0.00732,0.01965,-0.03314,64.5,0.0,7.0,1.0,0.0,0.0,0.0
1738778026242161512,63.47,0.01039,7.03,0.9927,0.005062,-0.001855,-0.006813,0.02054,-0.1135,63.25,0.0004714,7.0,0.9883,0.003906,-0.0,-0.00725,0.02077,-0.03333,64.6,0.0,7.0,1.0,0.0,0.0,0.0
1738778026292122840,63.53,0.01068,7.03,0.994,0.006886,-0.00234,-0.006783,0.02097,-0.1135,63.28,0.0004718,7.0,0.992,0.007812,-0.0,-0.00726,0.02112,-0.03333,64.6,0.0,7.0,1.0,0.0,0.0,0.0
1738778026342191934,63.56,0.011086,7.027,0.9956,0.00882,-0.002438,-0.00681,0.02132,-0.11346,63.3,0.000472,7.0,0.992,0.007812,-0.0,-0.007263,0.02129,-0.03333,64.7,0.0,7.0,1.0,0.0,0.0,0.0
1738778026392165660,63.62,0.01155,7.027,0.997,0.01057,-0.002161,-0.006813,0.02164,-0.1134,63.38,0.000473,7.0,0.992,0.01172,-0.0,-0.007355,0.02171,-0.03314,64.7,0.0,7.0,1.0,0.0,0.0,0.0
1738778026442110300,63.7,0.01215,7.027,0.999,0.012436,-0.001509,-0.006813,0.0219,-0.1134,63.47,0.0004737,7.0,0.996,0.01172,-0.0,-0.007267,0.02216,-0.03262,64.8,0.0,7.0,1.0,0.0,0.0,0.0
1738778026492118835,63.72,0.012794,7.027,1.001,0.01413,-0.001308,-0.00681,0.02199,-0.11346,63.5,0.0004742,7.0,0.996,0.01563,-0.0,-0.007355,0.02225,-0.03244,64.8,0.0,7.0,1.0,0.0,0.0,0.0
1738778026542197227,63.78,0.01357,7.027,1.003,0.01593,-0.001246,-0.006794,0.02202,-0.1135,63.5,0.0004745,7.0,0.996,0.01563,-0.0,-0.00735,0.02225,-0.0323,64.9,0.0,7.0,1.0,0.0,0.0,0.0
1738778026592164516,63.8,0.01445,7.027,1.005,0.0177,-0.001227,-0.006798,0.02205,-0.11365,63.56,0.0004754,7.0,1.0,0.01953,-0.0,-0.007347,0.02225,-0.03195,64.9,0.0,7.0,1.0,0.0,0.0,0.0
1738778026642174720,63.88,0.01534,7.027,1.007,0.01932,-0.000872,-0.006817,0.02213,-0.1137,63.66,0.0004761,6.996,1.0,0.01953,-0.0,-0.007347,0.02242,-0.0316,65.0,0.0,7.0,1.0,0.0,0.0,0.0
1738778026692204475,63.94,0.01639,7.027,1.009,0.02097,-0.000674,-0.006367,0.02217,-0.1139,63.7,0.0004766,7.0,1.004,0.02344,-0.0,-0.007263,0.0225,-0.0316,65.0,0.0,7.0,1.0,0.0,0.0,0.0
1738778026742173910,63.97,0.01743,7.027,1.01,0.02202,-0.000901,-0.004986,0.02214,-0.1141,63.72,0.000477,7.0,1.004,0.02344,-0.0,-0.006657,0.02243,-0.0314,65.1,0.0,7.0,1.0,0.0,0.0,0.0
1738778026792220354,64.0,0.0185,7.027,1.012,0.02248,-0.001086,-0.003914,0.02213,-0.1143,63.78,0.0004778,7.0,1.008,0.02344,-0.0,-0.00493,0.02246,-0.0314,65.1,0.0,7.0,1.0,0.0,0.0,0.0
1738778026842227458,64.06,0.01967,7.027,1.014,0.02248,-0.001252,-0.003029,0.02216,-0.11456,63.84,0.0004787,7.0,1.008,0.02344,-0.0,-0.00363,0.02238,-0.0312,65.2,0.0,7.0,1.0,0.0,0.0,0.0
1738778026892120361,64.1,0.02074,7.027,1.015,0.02214,-0.001504,-0.002487,0.02179,-0.1148,63.9,0.000479,7.0,1.008,0.02344,-0.0,-0.003197,0.02231,-0.0312,65.2,0.0,7.0,1.0,0.0,0.0,0.0
1738778026942178726,64.2,0.02188,7.027,1.016,0.0216,-0.00159,-0.002115,0.02037,-0.11505,63.9,0.0004792,7.0,1.012,0.02344,-0.0,-0.002846,0.0218,-0.03137,65.3,0.0,7.0,1.0,0.0,0.0,0.0
1738778026992185831,64.25,0.0229,7.027,1.016,0.02106,-0.001722,-0.001936,0.01938,-0.11523,63.97,0.027,7.0,1.012,0.02344,-0.0,-0.002478,0.02008,-0.0319,65.3,0.0,7.0,1.0,0.0,0.0,0.0
1738778027042116165,64.25,0.02397,7.027,1.016,0.02043,-0.001833,-0.001818,0.01866,-0.1154,64.06,0.027,7.0,1.012,0.02344,-0.0,-0.002293,0.01904,-0.03223,65.4,0.0,7.0,1.0,0.0,0.0,0.0
1738778027092094898,64.3,0.02495,7.027,1.016,0.01985,-0.001673,-0.001743,0.0182,-0.1156,64.06,0.027,6.996,1.012,0.02344,-0.0,-0.002289,0.01869,-0.0324,65.4,0.0,7.0,1.0,0.0,0.0,0.0
1738778027142171144,64.4,0.02596,7.027,1.016,0.01921,-0.000899,-0.001692,0.01794,-0.1157,64.1,0.027,6.996,1.012,0.01953,-0.0,-0.0022,0.01843,-0.03247,65.5,0.0,7.0,1.0,0.0,0.0,0.0
1738778027192114591,64.44,0.02687,7.027,1.015,0.01865,-0.000268,-0.001695,0.01776,-0.1158,64.2,0.027,6.996,1.012,0.01953,-0.0,-0.002195,0.0181,-0.03275,65.5,0.0,7.0,1.0,0.0,0.0,0.0
1738778027242218255,64.5,0.02774,7.027,1.014,0.01808,-2.1e-05,-0.001692,0.01756,-0.1159,64.25,0.027,6.996,1.008,0.01953,-0.0,-0.00228,0.01784,-0.03284,65.6,0.0,7.0,1.0,0.0,0.0,0.0
1738778027292116165,64.5,0.02867,7.027,1.013,0.01749,-4.3e-05,-0.001682,0.01735,-0.11597,64.3,0.027,6.996,1.008,0.01953,-0.0,-0.002192,0.01775,-0.0329,65.6,0.0,7.0,1.0,0.0,0.0,0.0
1738778027342193841,64.56,0.0295,7.027,1.013,0.01695,-0.000474,-0.001666,0.01721,-0.11597,64.3,0.027,7.0,1.008,0.01953,-0.0,-0.00219,0.01758,-0.033,65.7,0.0,7.0,1.0,0.0,0.0,0.0
1738778027392194747,64.6,0.03036,7.027,1.012,0.01639,-0.000597,-0.00169,0.01712,-0.1161,64.4,0.027,6.996,1.008,0.01953,-0.0,-0.002186,0.01741,-0.033,65.7,0.0,7.0,1.0,0.0,0.0,0.0
1738778027442185401,64.7,0.0312,7.027,1.011,0.01582,-0.000245,-0.001671,0.01714,-0.11615,64.44,0.027,6.996,1.008,0.01563,-0.0,-0.002188,0.01741,-0.03308,65.8,0.0,7.0,1.0,0.0,0.0,0.0
1738778027492119550,64.75,0.03195,7.027,1.01,0.0153,0.000243,-0.001643,0.01718,-0.11615,64.5,0.027,6.996,1.004,0.01563,-0.0,-0.002188,0.0174,-0.03317,65.8,0.0,7.0,1.0,0.0,0.0,0.0
1738778027542172908,64.8,0.0327,7.027,1.009,0.01473,0.000463,-0.001656,0.01714,-0.1162,64.5,0.02701,6.996,1.004,0.01563,-0.0,-0.002188,0.0174,-0.03317,65.9,0.0,7.0,1.0,0.0,0.0,0.0
1738778027592190027,64.8,0.03342,7.027,1.008,0.01422,0.000533,-0.001643,0.0171,-0.1162,64.56,0.02701,6.996,1.004,0.01563,-0.0,-0.002188,0.0174,-0.03317,65.9,0.0,7.0,1.0,0.0,0.0,0.0
1738778027642225980,64.9,0.0341,7.027,1.007,0.0137,0.000108,-0.001617,0.01703,-0.1162,64.7,0.02701,6.996,1.004,0.01563,-0.0,-0.002102,0.01732,-0.03326,66.0,0.0,7.0,1.0,0.0,0.0,0.0
1738778027692152261,64.94,0.0348,7.027,1.006,0.01316,-0.000289,-0.001627,0.01698,-0.1163,64.7,0.02701,6.996,1.0,0.01563,-0.0,-0.002186,0.01723,-0.03326,66.0,0.0,7.0,1.0,0.0,0.0,0.0
1738778027742176532,65.0,0.03546,7.027,1.005,0.01262,-0.00035,-0.001646,0.01704,-0.1163,64.75,0.02701,6.996,1.0,0.01563,-0.0,-0.002186,0.01723,-0.03326,66.1,0.0,7.0,1.0,0.0,0.0,0.0
