time,x_sphinx,y_sphinx,z_sphinx,vx_sphinx,vy_sphinx,vz_sphinx,roll_sphinx,pitch_sphinx,yaw_sphinx,x_anafi,y_anafi,z_anafi,vx_anafi,vy_anafi,vz_anafi,roll_anafi,pitch_anafi,yaw_anafi,wp_x,wp_y,wp_z,wp_vx,wp_vy,wp_vz,wp_yaw
1738833933755669593,15.484,0.04547,7.023,1.0,0.01391,0.001363,-0.000647,0.01741,0.01767,15.24,0.02681,7.0,0.992,0.0,-0.0,0.001322,0.01689,0.03384,15.4,0.0,7.0,1.0,0.0,0.0,0.0
1738833933805635929,15.53,0.04617,7.023,0.9995,0.014305,0.001145,-0.000666,0.0174,0.0177,15.26,0.02681,7.0,0.992,0.0,-0.0,0.001322,0.01689,0.03384,15.4,0.0,7.0,1.0,0.0,0.0,0.0
1738833933855626821,15.58,0.04688,7.023,0.999,0.01471,0.001252,-0.000675,0.01744,0.01772,15.33,0.02681,7.0,0.9883,0.0,-0.0,0.001322,0.01689,0.03384,15.5,0.0,7.0,1.0,0.0,0.0,0.0
1738833933905631780,15.625,0.04764,7.023,0.9985,0.01514,0.001668,-0.000649,0.01752,0.01775,15.37,0.02681,7.0,0.9883,0.003906,-0.0,0.001323,0.0169,0.03394,15.5,0.0,7.0,1.0,0.0,0.0,0.0
1738833933955632686,15.68,0.04837,7.023,0.9976,0.01552,0.002062,-0.000652,0.01756,0.01778,15.44,0.02681,7.0,0.9883,0.003906,-0.0,0.001325,0.01707,0.03384,15.6,0.0,7.0,1.0,0.0,0.0,0.0
1738833934005633354,15.73,0.0492,7.023,0.997,0.01593,0.002403,-0.000662,0.01753,0.0178,15.47,0.02681,7.0,0.9883,0.003906,-0.0,0.001326,0.01707,0.03394,15.6,0.0,7.0,1.0,0.0,0.0,0.0
1738833934055645465,15.77,0.04996,7.023,0.9966,0.01631,0.002531,-0.000656,0.01752,0.01784,15.54,0.02681,7.0,0.9883,0.003906,-0.0,0.001322,0.01689,0.03384,15.7,0.0,7.0,1.0,0.0,0.0,0.0
1738833934105636835,15.83,0.0508,7.023,0.996,0.01671,0.002344,-0.000654,0.01743,0.01787,15.58,0.02681,7.0,0.9883,0.003906,-0.0,0.001322,0.01689,0.03384,15.7,0.0,7.0,1.0,0.0,0.0,0.0
1738833934155637025,15.875,0.05164,7.023,0.995,0.01709,0.001683,-0.00065,0.01736,0.0179,15.65,0.02681,7.0,0.9883,0.003906,-0.0,0.001323,0.0169,0.03394,15.8,0.0,7.0,1.0,0.0,0.0,0.0
1738833934205628156,15.93,0.05252,7.023,0.9946,0.01747,0.00122,-0.000618,0.0173,0.01793,15.664,0.02681,7.0,0.9883,0.003906,-0.0,0.001319,0.01672,0.03384,15.8,0.0,7.0,1.0,0.0,0.0,0.0
1738833934255641937,15.98,0.05338,7.023,0.994,0.0178,0.00151,-0.00062,0.01738,0.01794,15.734,0.02681,7.0,0.9844,0.003906,-0.0,0.001408,0.01682,0.03394,15.9,0.0,7.0,1.0,0.0,0.0,0.0
1738833934305768251,16.02,0.05423,7.023,0.993,0.01816,0.00205,-0.000636,0.01747,0.01799,15.766,0.02681,7.0,0.9844,0.003906,-0.0,0.001322,0.01689,0.03384,15.9,0.0,7.0,1.0,0.0,0.0,0.0
1738833934355780124,16.1,0.05542,7.023,0.9927,0.01863,0.00226,-0.000669,0.01743,0.018,15.836,0.02681,7.0,0.9844,0.007812,-0.0,0.001322,0.01689,0.03384,16.0,0.0,7.0,1.0,0.0,0.0,0.0
1738833934405764579,16.12,0.05618,7.023,0.992,0.01892,0.001997,-0.00066,0.01735,0.01804,15.875,0.02681,7.0,0.9844,0.007812,-0.0,0.001323,0.0169,0.03394,16.0,0.0,7.0,1.0,0.0,0.0,0.0
1738833934455766201,16.19,0.0573,7.023,0.991,0.01935,0.001294,-0.000631,0.0174,0.01807,15.945,0.02681,7.0,0.9844,0.007812,-0.0,0.001319,0.01672,0.03384,16.1,0.0,7.0,1.0,0.0,0.0,0.0
1738833934505725145,16.22,0.058,7.023,0.991,0.0196,0.000941,-0.000653,0.01819,0.01807,15.98,0.02681,7.0,0.9844,0.007812,-0.0,0.0014105,0.01698,0.03394,16.1,0.0,7.0,1.0,0.0,0.0,0.0
1738833934555716037,16.28,0.05914,7.023,0.991,0.01997,0.000275,-0.000521,0.01959,0.01811,16.05,0.05334,7.0,0.9844,0.007812,-0.0,0.001354,0.0188,0.03384,16.2,0.0,7.0,1.0,0.0,0.0,0.0
1738833934605702161,16.33,0.0601,7.023,0.9917,0.02,-3.1e-05,0.000645,0.01929,0.01813,16.06,0.05334,7.0,0.9844,0.007812,-0.0,0.001704,0.01913,0.03378,16.2,0.0,7.0,1.0,0.0,0.0,0.0
1738833934655625104,16.38,0.06104,7.023,0.9917,0.01945,0.000494,0.001896,0.01872,0.01817,16.14,0.05334,7.0,0.9844,0.007812,-0.0,0.00342,0.01842,0.03378,16.3,0.0,7.0,1.0,0.0,0.0,0.0
1738833934705639362,16.42,0.062,7.023,0.9917,0.01828,0.000979,0.002886,0.01834,0.01822,16.17,0.05334,7.0,0.9844,0.007812,-0.0,0.004276,0.01805,0.0337,16.3,0.0,7.0,1.0,0.0,0.0,0.0
1738833934755635023,16.47,0.0629,7.023,0.9917,0.0167,0.000555,0.003582,0.01797,0.01828,16.23,0.05334,7.0,0.9844,0.003906,-0.0,0.005386,0.01744,0.03372,16.4,0.0,7.0,1.0,0.0,0.0,0.0
1738833934805635929,16.52,0.0637,7.023,0.991,0.01499,0.000154,0.00399,0.0177,0.01834,16.25,0.05334,7.0,0.9844,0.003906,-0.0,0.005646,0.01735,0.03372,16.4,0.0,7.0,1.0,0.0,0.0,0.0
1738833934855651378,16.56,0.0644,7.023,0.9907,0.013145,0.000369,0.004253,0.01762,0.01839,16.33,0.05334,7.0,0.9844,0.0,-0.0,0.006157,0.01698,0.03372,16.5,0.0,7.0,1.0,0.0,0.0,0.0
1738833934905647516,16.62,0.065,7.023,0.99,0.01106,0.00061,0.004414,0.01756,0.01843,16.36,0.05334,7.0,0.9844,0.0,-0.0,0.006245,0.01707,0.03372,16.5,0.0,7.0,1.0,0.0,0.0,0.0
1738833934955670833,16.67,0.0655,7.023,0.9897,0.0091,0.001055,0.00449,0.01752,0.01846,16.44,0.05334,7.0,0.9844,0.0,-0.0,0.006416,0.0169,0.03372,16.6,0.0,7.0,1.0,0.0,0.0,0.0
1738833935005716085,16.72,0.0659,7.023,0.9893,0.006977,0.001394,0.004562,0.01749,0.01852,16.47,0.05334,7.0,0.9844,0.0,-0.0,0.006416,0.0169,0.0338,16.6,0.0,7.0,1.0,0.0,0.0,0.0
1738833935055683612,16.77,0.06616,7.023,0.9893,0.004993,0.001817,0.004627,0.01746,0.01857,16.53,0.05334,7.0,0.9844,-0.003906,-0.0,0.006588,0.01689,0.0338,16.7,0.0,7.0,1.0,0.0,0.0,0.0
1738833935105687379,16.81,0.0664,7.023,0.989,0.002857,0.002163,0.004646,0.01843,0.01863,16.58,0.05334,7.0,0.9844,-0.003906,-0.0,0.00659,0.01707,0.0338,16.7,0.0,7.0,1.0,0.0,0.0,0.0
1738833935155681848,16.86,0.06647,7.023,0.989,0.000914,0.002283,0.004646,0.01967,0.01866,16.64,0.05334,7.0,0.9844,-0.007812,-0.0,0.006535,0.01888,0.03372,16.8,0.0,7.0,1.0,0.0,0.0,0.0
1738833935205705642,16.92,0.06647,7.023,0.9897,-0.001153,0.002153,0.004646,0.0205,0.01872,16.66,0.05334,7.0,0.9844,-0.007812,-0.0,0.006546,0.01958,0.03366,16.8,0.0,7.0,1.0,0.0,0.0,0.0
1738833935255716085,16.97,0.06635,7.023,0.9907,-0.003027,0.001621,0.00464,0.02098,0.01875,16.73,0.05334,7.0,0.9844,-0.007812,-0.0,0.00656,0.02026,0.034,16.9,0.0,7.0,1.0,0.0,0.0,0.0
1738833935305733203,17.02,0.06616,7.023,0.992,-0.00503,0.000298,0.004627,0.02025,0.01877,16.77,0.05334,7.0,0.9844,-0.01172,-0.0,0.00648,0.02036,0.03433,16.9,0.0,7.0,1.0,0.0,0.0,0.0
1738833935355684757,17.06,0.06586,7.023,0.9927,-0.006863,-0.000238,0.004616,0.01924,0.01877,16.83,0.05334,7.0,0.9883,-0.01172,-0.0,0.006542,0.01888,0.03433,17.0,0.0,7.0,1.0,0.0,0.0,0.0
1738833935405667543,17.12,0.0654,7.023,0.9927,-0.00898,-0.00133,0.004612,0.01855,0.01872,16.86,0.05334,7.0,0.9883,-0.01563,-0.0,0.006535,0.01854,0.03433,17.0,0.0,7.0,1.0,0.0,0.0,0.0
1738833935455669403,17.17,0.06494,7.023,0.9927,-0.01079,-0.001885,0.004627,0.01819,0.0187,16.92,0.05334,7.0,0.9883,-0.01563,-0.0,0.00652,0.01767,0.03415,17.1,0.0,7.0,1.0,0.0,0.0,0.0
1738833935505658388,17.22,0.0644,7.023,0.9927,-0.01258,-0.00189,0.00465,0.01903,0.01868,16.95,0.05334,7.0,0.9883,-0.01953,-0.0,0.006607,0.01776,0.03415,17.1,0.0,7.0,1.0,0.0,0.0,0.0
1738833935555658578,17.27,0.06366,7.023,0.993,-0.0145,-0.001855,0.00466,0.02017,0.01869,17.03,0.05334,7.0,0.9883,-0.01953,-0.0,0.006546,0.0194,0.034,17.2,0.0,7.0,1.0,0.0,0.0,0.0
1738833935605643510,17.31,0.06287,7.023,0.994,-0.0164,-0.001267,0.004692,0.01968,0.01872,17.06,0.05334,7.0,0.9883,-0.01953,-0.0,0.006638,0.01965,0.034,17.2,0.0,7.0,1.0,0.0,0.0,0.0
1738833935655647516,17.38,0.06198,7.023,0.994,-0.01831,-0.000698,0.004696,0.01903,0.01872,17.12,0.05334,7.0,0.9883,-0.02344,-0.0,0.00662,0.01862,0.0338,17.3,0.0,7.0,1.0,0.0,0.0,0.0
1738833935705744743,17.42,0.06113,7.023,0.9946,-0.0199,-0.000685,0.0047,0.01952,0.01875,17.17,0.05334,7.0,0.9883,-0.02344,-0.0,0.006615,0.01845,0.0338,17.3,0.0,7.0,1.0,0.0,0.0,0.0
1738833935755719661,17.47,0.06006,7.023,0.995,-0.02173,-0.000737,0.004616,0.02043,0.01881,17.23,0.05334,7.0,0.992,-0.02734,-0.0,0.006634,0.01965,0.03366,17.4,0.0,7.0,1.0,0.0,0.0,0.0
1738833935805654525,17.52,0.05887,7.023,0.996,-0.02321,-0.000817,0.003374,0.02104,0.01883,17.25,0.05334,7.0,0.992,-0.02734,-0.0,0.006294,0.02,0.0338,17.4,0.0,7.0,1.0,0.0,0.0,0.0
1738833935855645895,17.56,0.05783,7.023,0.9976,-0.02391,-0.000869,0.002268,0.0214,0.01886,17.33,0.02682,7.0,0.992,-0.02734,-0.0,0.004585,0.02072,0.03433,17.5,0.0,7.0,1.0,0.0,0.0,0.0
1738833935905629873,17.61,0.05658,7.023,0.9985,-0.02422,-0.0011,0.001284,0.0208,0.01883,17.36,0.02682,7.0,0.992,-0.03125,-0.0,0.003725,0.02074,0.03458,17.5,0.0,7.0,1.0,0.0,0.0,0.0
1738833935955668926,17.66,0.05542,7.023,0.9995,-0.02412,-0.000897,0.000625,0.01968,0.01875,17.42,0.02682,7.0,0.996,-0.02734,-0.0,0.002668,0.01938,0.03482,17.6,0.0,7.0,1.0,0.0,0.0,0.0
1738833936005665779,17.72,0.05408,7.023,0.9995,-0.02371,-0.000465,0.000148,0.01889,0.01868,17.47,0.02682,7.0,0.996,-0.02734,-0.0,0.002312,0.01886,0.03464,17.6,0.0,7.0,1.0,0.0,0.0,0.0
1738833936055676937,17.77,0.05304,7.023,0.9995,-0.02325,-0.000189,-6.2e-05,0.0185,0.01863,17.52,0.02682,7.0,0.996,-0.02734,-0.0,0.001866,0.0181,0.03445,17.7,0.0,7.0,1.0,0.0,0.0,0.0
1738833936105663537,17.81,0.05185,7.023,0.9995,-0.02261,-9.4e-05,-0.00023,0.01915,0.01855,17.56,0.02682,7.0,0.996,-0.02734,-0.0,0.001777,0.01802,0.0343,17.7,0.0,7.0,1.0,0.0,0.0,0.0
1738833936155656814,17.86,0.05078,7.023,1.0,-0.02197,-0.000658,-0.000318,0.02008,0.01852,17.62,0.02682,7.0,0.996,-0.02734,-0.0,0.001538,0.01932,0.03412,17.8,0.0,7.0,1.0,0.0,0.0,0.0
1738833936205636262,17.92,0.04965,7.023,1.001,-0.02126,-0.000884,-0.000355,0.0196,0.0185,17.66,0.02682,7.0,0.996,-0.02734,-0.0,0.001541,0.01949,0.03412,17.8,0.0,7.0,1.0,0.0,0.0,0.0
1738833936255661487,17.97,0.04865,7.023,1.001,-0.02058,-0.000659,-0.000368,0.01894,0.0185,17.72,0.02682,7.0,0.996,-0.02344,-0.0,0.001525,0.01862,0.03394,17.9,0.0,7.0,1.0,0.0,0.0,0.0
1738833936305650711,18.02,0.0476,7.023,1.001,-0.01985,-0.000113,-0.000426,0.01952,0.01848,17.77,0.02682,7.0,0.996,-0.02344,-0.0,0.001521,0.01845,0.03384,17.9,0.0,7.0,1.0,0.0,0.0,0.0
1738833936355676651,18.06,0.04666,7.023,1.001,-0.01917,3.5e-05,-0.000437,0.02039,0.0185,17.83,0.02682,7.0,0.996,-0.02344,-0.0,0.001456,0.01974,0.03378,18.0,0.0,7.0,1.0,0.0,0.0,0.0
1738833936405657052,18.11,0.04578,7.023,1.002,-0.01848,0.000382,-0.000416,0.01993,0.01852,17.84,0.02682,7.0,0.996,-0.02344,-0.0,0.001371,0.01984,0.03378,18.0,0.0,7.0,1.0,0.0,0.0,0.0
1738833936455671548,18.16,0.04483,7.023,1.002,-0.01778,0.000708,-0.000394,0.01903,0.01857,17.92,0.02682,7.0,1.0,-0.02344,-0.0,0.001437,0.0187,0.0336,18.1,0.0,7.0,1.0,0.0,0.0,0.0
1738833936505651712,18.22,0.0439,7.023,1.002,-0.01707,0.000985,-0.000414,0.01846,0.01863,17.95,0.02682,7.0,1.0,-0.02344,-0.0,0.001428,0.01819,0.0336,18.1,0.0,7.0,1.0,0.0,0.0,0.0
1738833936555652379,18.27,0.04312,7.023,1.002,-0.01643,0.000978,-0.000418,0.01808,0.01869,18.02,0.02682,7.0,1.0,-0.01953,-0.0,0.001419,0.01767,0.0336,18.2,0.0,7.0,1.0,0.0,0.0,0.0
1738833936605669260,18.31,0.04227,7.023,1.001,-0.01576,0.000644,-0.000393,0.01776,0.01875,18.06,0.02682,7.0,1.0,-0.01953,-0.0,0.001501,0.01741,0.0336,18.2,0.0,7.0,1.0,0.0,0.0,0.0
1738833936655656337,18.36,0.04153,7.023,1.001,-0.015144,0.000665,-0.000417,0.01762,0.01881,18.12,0.02682,7.0,0.996,-0.01953,-0.0,0.0014105,0.01715,0.0336,18.3,0.0,7.0,1.0,0.0,0.0,0.0
1738833936705629587,18.42,0.04077,7.023,1.0,-0.01448,0.000455,-0.000411,0.01752,0.01886,18.16,0.02682,7.0,0.996,-0.01953,-0.0,0.001496,0.01707,0.0337,18.3,0.0,7.0,1.0,0.0,0.0,0.0
1738833936755621194,18.47,0.0401,7.023,0.9995,-0.01388,0.0003,-0.000391,0.01743,0.0189,18.23,0.02682,7.0,0.996,-0.01953,-0.0,0.001493,0.01689,0.0337,18.4,0.0,7.0,1.0,0.0,0.0,0.0
1738833936805622339,18.52,0.0394,7.023,0.999,-0.01325,0.000318,-0.00038,0.01738,0.01894,18.25,0.02682,7.0,0.996,-0.01563,-0.0,0.001493,0.01689,0.0337,18.4,0.0,7.0,1.0,0.0,0.0,0.0
1738833936855629682,18.56,0.03876,7.023,0.998,-0.012665,0.000435,-0.000389,0.0174,0.019,18.33,0.02682,7.0,0.996,-0.01563,-0.0,0.001494,0.01689,0.03375,18.5,0.0,7.0,1.0,0.0,0.0,0.0
1738833936905624389,18.61,0.03812,7.023,0.9976,-0.01204,0.000236,-0.000408,0.01736,0.01903,18.36,0.02682,7.0,0.996,-0.01563,-0.0,0.001494,0.01689,0.03375,18.5,0.0,7.0,1.0,0.0,0.0,0.0
1738833936955652713,18.67,0.0375,7.023,0.9966,-0.01141,-6e-05,-0.000399,0.0173,0.01907,18.42,0.02682,7.0,0.992,-0.01563,-0.0,0.001492,0.01672,0.03375,18.6,0.0,7.0,1.0,0.0,0.0,0.0
1738833937005627632,18.72,0.037,7.023,0.996,-0.01086,-0.000545,-0.000412,0.01726,0.0191,18.45,0.02682,7.0,0.992,-0.01563,-0.0,0.001492,0.01672,0.03375,18.6,0.0,7.0,1.0,0.0,0.0,0.0
1738833937055628061,18.77,0.03647,7.023,0.995,-0.01029,-0.001038,-0.000383,0.01724,0.01915,18.53,0.02682,7.0,0.992,-0.01563,-0.0,0.001492,0.01672,0.03375,18.7,0.0,7.0,1.0,0.0,0.0,0.0
1738833937105623960,18.81,0.03595,7.023,0.9946,-0.00971,-0.001485,-0.000356,0.01721,0.01917,18.56,0.02682,7.0,0.992,-0.01172,-0.0,0.001492,0.01672,0.03375,18.7,0.0,7.0,1.0,0.0,0.0,0.0
1738833937155622482,18.86,0.0355,7.023,0.994,-0.009186,-0.001389,-0.000332,0.01726,0.01921,18.64,0.02682,7.0,0.992,-0.01172,-0.0,0.001492,0.01672,0.03384,18.8,0.0,7.0,1.0,0.0,0.0,0.0
1738833937205634593,18.92,0.035,7.023,0.993,-0.00859,-0.001521,-0.000345,0.01732,0.01923,18.66,0.02682,7.0,0.992,-0.01172,-0.0,0.001492,0.01672,0.03384,18.8,0.0,7.0,1.0,0.0,0.0,0.0
1738833937255635261,18.95,0.03464,7.023,0.9927,-0.00811,-0.002129,-0.000358,0.01724,0.01927,18.72,0.02682,7.0,0.9883,-0.01172,-0.0,0.001492,0.01672,0.03384,18.9,0.0,7.0,1.0,0.0,0.0,0.0
1738833937305635929,19.02,0.0342,7.023,0.9917,-0.007557,-0.002424,-0.000387,0.01718,0.01929,18.75,0.02682,7.0,0.9883,-0.01172,-0.0,0.001492,0.01672,0.03384,18.9,0.0,7.0,1.0,0.0,0.0,0.0
1738833937355642318,19.06,0.03387,7.023,0.991,-0.007034,-0.001997,-0.000373,0.01727,0.01932,18.83,0.02682,7.0,0.9883,-0.01172,-0.0,0.001492,0.01672,0.03384,19.0,0.0,7.0,1.0,0.0,0.0,0.0
1738833937405642271,19.11,0.0335,7.023,0.9907,-0.00649,-0.001393,-0.000346,0.01733,0.01935,18.86,0.02682,7.0,0.9883,-0.007812,-0.0,0.001492,0.01672,0.03384,19.0,0.0,7.0,1.0,0.0,0.0,0.0
1738833937455620288,19.16,0.03323,7.023,0.9897,-0.006,-0.0012,-0.000357,0.01735,0.01936,18.92,0.02682,7.0,0.9883,-0.007812,-0.0,0.001492,0.01672,0.03384,19.1,0.0,7.0,1.0,0.0,0.0,0.0
1738833937505631446,19.2,0.03293,7.023,0.9897,-0.00546,-0.000708,-0.000366,0.01848,0.0194,18.97,0.02682,7.0,0.9883,-0.007812,-0.0,0.001497,0.01707,0.03384,19.1,0.0,7.0,1.0,0.0,0.0,0.0
1738833937555620908,19.25,0.03268,7.023,0.9897,-0.004997,-0.00052,-0.000371,0.01962,0.0194,19.03,0.02682,7.0,0.9883,-0.007812,-0.0,0.001529,0.01897,0.03378,19.2,0.0,7.0,1.0,0.0,0.0,0.0
1738833937605642795,19.31,0.03244,7.023,0.9907,-0.00444,-0.000379,-0.000363,0.02046,0.01944,19.06,0.02682,7.0,0.9883,-0.007812,-0.0,0.001537,0.01949,0.03378,19.2,0.0,7.0,1.0,0.0,0.0,0.0
1738833937655655384,19.36,0.03223,7.023,0.9917,-0.00389,-0.000189,-0.000376,0.02106,0.01945,19.12,0.02682,7.0,0.9883,-0.007812,-0.0,0.001472,0.02043,0.0343,19.3,0.0,7.0,1.0,0.0,0.0,0.0
1738833937705669403,19.4,0.03207,7.023,0.9927,-0.003363,-0.000115,-0.000405,0.02142,0.01944,19.16,0.0003152,7.0,0.9883,-0.007812,-0.0,0.001566,0.02069,0.03455,19.3,0.0,7.0,1.0,0.0,0.0,0.0
1738833937755668401,19.45,0.0319,7.023,0.9946,-0.00279,-0.000248,-0.000396,0.02162,0.01936,19.23,0.02682,7.0,0.992,-0.003906,-0.0,0.001492,0.02112,0.03497,19.4,0.0,7.0,1.0,0.0,0.0,0.0
1738833937805675268,19.5,0.03177,7.023,0.9956,-0.002283,-0.000842,-0.000391,0.0207,0.01926,19.25,0.0003154,7.0,0.992,-0.003906,-0.0,0.001489,0.02095,0.03497,19.4,0.0,7.0,1.0,0.0,0.0,0.0
1738833937855653524,19.56,0.03168,7.023,0.996,-0.001755,-0.000555,-0.00037,0.01955,0.0191,19.31,0.0003157,7.0,0.992,-0.003906,-0.0,0.00146,0.01923,0.03516,19.5,0.0,7.0,1.0,0.0,0.0,0.0
1738833937905651092,19.61,0.03162,7.023,0.9966,-0.00129,-0.000233,-0.000386,0.01973,0.01897,19.36,0.000316,7.0,0.992,-0.003906,-0.0,0.001452,0.01888,0.03497,19.5,0.0,7.0,1.0,0.0,0.0,0.0
1738833937955648183,19.66,0.03156,7.023,0.9976,-0.000779,-0.00056,-0.000387,0.02052,0.01886,19.42,0.02682,6.996,0.996,-0.003906,-0.0,0.001554,0.01984,0.03482,19.6,0.0,7.0,1.0,0.0,0.0,0.0
1738833938005652904,19.7,0.03152,7.023,0.998,-0.000277,-0.000408,-0.000357,0.01993,0.01872,19.45,0.02682,6.996,0.996,-0.003906,-0.0,0.00147,0.01991,0.03488,19.6,0.0,7.0,1.0,0.0,0.0,0.0
1738833938055662155,19.75,0.03152,7.023,0.9985,0.000158,6.9e-05,-0.000361,0.01917,0.01862,19.53,0.0003166,6.996,0.996,-0.003906,-0.0,0.001534,0.0188,0.03464,19.7,0.0,7.0,1.0,0.0,0.0,0.0
1738833938105658769,19.8,0.03152,7.023,0.9985,0.000598,0.000142,-0.000371,0.01953,0.01852,19.56,0.0003166,7.0,0.996,0.0,-0.0,0.00153,0.01862,0.03445,19.7,0.0,7.0,1.0,0.0,0.0,0.0
1738833938155641555,19.86,0.0316,7.023,0.9995,0.00111,-0.000296,-0.000391,0.0204,0.0184,19.62,0.02682,7.0,0.996,0.0,-0.0,0.001461,0.01974,0.0343,19.8,0.0,7.0,1.0,0.0,0.0,0.0
1738833938205632448,19.9,0.03165,7.023,1.0,0.001549,-0.000434,-0.000385,0.01979,0.01837,19.66,0.02682,7.0,0.996,0.0,-0.0,0.001547,0.01984,0.03412,19.8,0.0,7.0,1.0,0.0,0.0,0.0
1738833938255706071,19.95,0.03174,7.023,1.0,0.001972,-0.000208,-0.000366,0.01901,0.01833,19.72,0.02682,7.0,0.996,0.0,-0.0,0.001525,0.01862,0.03394,19.9,0.0,7.0,1.0,0.0,0.0,0.0
1738833938305731058,20.02,0.03186,7.023,1.0,0.002445,-0.000373,-0.000362,0.0184,0.01831,19.75,0.02682,7.0,0.996,0.0,-0.0,0.001604,0.01819,0.03394,19.9,0.0,7.0,1.0,0.0,0.0,0.0
1738833938355705261,20.05,0.03195,7.023,1.0,0.002773,-0.000479,-0.000383,0.01808,0.01831,19.83,0.02682,7.0,0.996,0.0,-0.0,0.001506,0.0176,0.03378,20.0,0.0,7.0,1.0,0.0,0.0,0.0
1738833938405692100,20.11,0.0321,7.023,0.9995,0.003208,-0.00064,-0.000368,0.01779,0.01831,19.86,0.02682,7.0,0.996,0.0,-0.0,0.001503,0.01741,0.03378,20.0,0.0,7.0,1.0,0.0,0.0,0.0
1738833938455682992,20.16,0.0323,7.023,0.999,0.00362,-0.00061,-0.000339,0.01762,0.01831,19.92,0.02682,7.0,0.996,0.0,-0.0,0.001497,0.01707,0.03375,20.1,0.0,7.0,1.0,0.0,0.0,0.0
1738833938505635499,20.2,0.03247,7.023,0.9985,0.003986,-0.000276,-0.000342,0.01755,0.01831,19.97,0.02682,6.996,0.996,0.0,-0.0,0.001497,0.01707,0.03375,20.1,0.0,7.0,1.0,0.0,0.0,0.0
1738833938555625915,20.25,0.03268,7.023,0.9976,0.004387,0.000213,-0.000332,0.0175,0.01834,20.02,0.02682,6.996,0.996,0.0,-0.0,0.001582,0.01698,0.03378,20.2,0.0,7.0,1.0,0.0,0.0,0.0
1738833938605595350,20.3,0.03293,7.023,0.997,0.004734,0.000314,-0.000308,0.01747,0.01836,20.05,0.02684,6.996,0.996,0.0,-0.0,0.001582,0.01698,0.03378,20.2,0.0,7.0,1.0,0.0,0.0,0.0
1738833938655624151,20.36,0.03317,7.023,0.9966,0.00511,-0.000118,-0.000335,0.01733,0.01839,20.12,0.02684,7.0,0.996,0.0,-0.0,0.001579,0.01682,0.03378,20.3,0.0,7.0,1.0,0.0,0.0,0.0
1738833938705721378,20.4,0.03342,7.023,0.9956,0.00546,-0.00055,-0.000345,0.01726,0.01839,20.16,0.02684,7.0,0.992,0.0,-0.0,0.001491,0.01672,0.0337,20.3,0.0,7.0,1.0,0.0,0.0,0.0
1738833938755709648,20.45,0.03372,7.023,0.995,0.00584,-0.000606,-0.000339,0.0173,0.01842,20.23,0.02684,6.996,0.992,0.0,-0.0,0.001492,0.01672,0.03375,20.4,0.0,7.0,1.0,0.0,0.0,0.0
1738833938805632114,20.5,0.034,7.023,0.9946,0.00619,-0.000283,-0.00037,0.0184,0.01843,20.25,0.02684,6.996,0.992,0.0,-0.0,0.001582,0.01698,0.03378,20.4,0.0,7.0,1.0,0.0,0.0,0.0
1738833938855630874,20.55,0.03433,7.023,0.9946,0.00659,-0.000467,-0.000371,0.01973,0.01846,20.31,0.02684,7.0,0.992,0.0,-0.0,0.00144,0.01888,0.0337,20.5,0.0,7.0,1.0,0.0,0.0,0.0
1738833938905623435,20.61,0.03467,7.023,0.9956,0.006954,-0.000667,-0.000339,0.0198,0.01848,20.34,0.02684,7.0,0.992,0.0,-0.0,0.001449,0.0194,0.0336,20.5,0.0,7.0,1.0,0.0,0.0,0.0
1738833938955634355,20.66,0.03503,7.023,0.9956,0.007336,-0.000779,-0.000342,0.01894,0.01852,20.42,0.02684,7.0,0.992,0.003906,-0.0,0.001518,0.01845,0.0336,20.6,0.0,7.0,1.0,0.0,0.0,0.0
1738833939005631685,20.7,0.0354,7.023,0.9956,0.00768,-0.00089,-0.000342,0.01839,0.01855,20.45,0.02684,7.0,0.992,0.003906,-0.0,0.001513,0.01811,0.0336,20.6,0.0,7.0,1.0,0.0,0.0,0.0
1738833939055626869,20.75,0.03577,7.023,0.9956,0.008,-0.000953,-0.000327,0.01802,0.01863,20.53,0.02684,7.0,0.992,0.003906,-0.0,0.001504,0.0176,0.0336,20.7,0.0,7.0,1.0,0.0,0.0,0.0
1738833939105616569,20.8,0.0362,7.023,0.995,0.00835,-0.000942,-0.000302,0.01869,0.01866,20.56,0.02684,7.0,0.992,0.003906,-0.0,0.001503,0.0176,0.0335,20.7,0.0,7.0,1.0,0.0,0.0,0.0
1738833939155644178,20.86,0.03665,7.023,0.9956,0.0087,-0.001703,-0.000321,0.0199,0.01872,20.62,0.02684,7.0,0.992,0.003906,-0.0,0.00153,0.01913,0.0335,20.8,0.0,7.0,1.0,0.0,0.0,0.0
1738833939205639839,20.9,0.03708,7.023,0.996,0.009026,-0.002317,-0.000315,0.02055,0.0188,20.64,0.02684,7.0,0.992,0.003906,-0.0,0.001537,0.01965,0.03342,20.8,0.0,7.0,1.0,0.0,0.0,0.0
1738833939255671977,20.95,0.03754,7.023,0.997,0.00939,-0.002705,-0.000316,0.02112,0.01886,20.72,0.02684,7.0,0.996,0.003906,-0.0,0.00147,0.02043,0.03394,20.9,0.0,7.0,1.0,0.0,0.0,0.0
1738833939305653095,21.0,0.038,7.023,0.998,0.00973,-0.002905,-0.000306,0.02058,0.01886,20.75,0.02684,7.0,0.996,0.003906,-0.0,0.00156,0.02052,0.0343,20.9,0.0,7.0,1.0,0.0,0.0,0.0
1738833939355697870,21.05,0.03848,7.023,0.999,0.01004,-0.002533,-0.000285,0.01955,0.01881,20.83,0.02684,7.0,0.996,0.003906,-0.0,0.001537,0.01913,0.0343,21.0,0.0,7.0,1.0,0.0,0.0,0.0
1738833939405697345,21.1,0.039,7.023,0.999,0.01036,-0.002487,-0.000301,0.01883,0.01878,20.86,0.02684,7.0,0.996,0.003906,-0.0,0.001528,0.01862,0.0343,21.0,0.0,7.0,1.0,0.0,0.0,0.0
1738833939455708980,21.16,0.03955,7.02,0.999,0.01067,-0.002335,-0.000281,0.0183,0.01872,20.92,0.02684,7.0,0.996,0.007812,-0.0,0.001599,0.01784,0.03412,21.1,0.0,7.0,1.0,0.0,0.0,0.0
1738833939505707025,21.2,0.04007,7.02,0.9985,0.01094,-0.00206,-0.000265,0.01894,0.0187,20.97,0.02684,7.0,0.996,0.007812,-0.0,0.001599,0.01784,0.03412,21.1,0.0,7.0,1.0,0.0,0.0,0.0
1738833939555731534,21.25,0.04065,7.02,0.999,0.01124,-0.002354,-0.000275,0.02,0.01868,21.03,0.02684,7.0,0.996,0.007812,-0.0,0.001536,0.01932,0.03394,21.2,0.0,7.0,1.0,0.0,0.0,0.0
1738833939605660438,21.3,0.0412,7.02,0.9995,0.01152,-0.00218,-0.000278,0.01965,0.01869,21.05,0.02684,7.0,0.996,0.007812,-0.0,0.001537,0.01949,0.03378,21.2,0.0,7.0,1.0,0.0,0.0,0.0
1738833939655665874,21.36,0.0418,7.02,1.0,0.0118,-0.001452,-0.000248,0.0189,0.0187,21.12,0.02684,6.996,1.0,0.007812,-0.0,0.001608,0.01854,0.03378,21.3,0.0,7.0,1.0,0.0,0.0,0.0
1738833939705644130,21.4,0.0424,7.02,1.0,0.01185,-0.00125,0.000705,0.01843,0.01874,21.16,0.02684,7.0,1.0,0.007812,-0.0,0.00186,0.0181,0.03378,21.3,0.0,7.0,1.0,0.0,0.0,0.0
1738833939755629539,21.45,0.04297,7.02,0.9995,0.01127,-0.001276,0.002108,0.01796,0.01875,21.22,0.02684,6.996,0.996,0.007812,-0.0,0.003748,0.01755,0.0336,21.4,0.0,7.0,1.0,0.0,0.0,0.0
1738833939805628061,21.5,0.0435,7.02,0.999,0.010185,-0.000995,0.00306,0.01773,0.01878,21.27,0.02684,7.0,0.996,0.007812,-0.0,0.00435,0.01727,0.03363,21.4,0.0,7.0,1.0,0.0,0.0,0.0
1738833939855669975,21.55,0.04398,7.02,0.9985,0.0086,-0.000822,0.003798,0.01756,0.01881,21.33,0.02684,6.996,0.996,0.003906,-0.0,0.005466,0.017,0.03363,21.5,0.0,7.0,1.0,0.0,0.0,0.0
1738833939905648708,21.6,0.04437,7.02,0.998,0.006878,-0.000932,0.004234,0.01746,0.01888,21.36,0.02684,7.0,0.996,0.003906,-0.0,0.00581,0.017,0.03363,21.5,0.0,7.0,1.0,0.0,0.0,0.0
1738833939955652952,21.66,0.04468,7.02,0.9976,0.004852,-0.000841,0.00452,0.01733,0.0189,21.42,0.02684,6.996,0.996,0.0,-0.0,0.006325,0.01682,0.03363,21.6,0.0,7.0,1.0,0.0,0.0,0.0
1738833940005648851,21.7,0.04486,7.02,0.9966,0.002895,-0.001028,0.004665,0.01729,0.01895,21.45,0.02684,7.0,0.996,0.0,-0.0,0.006413,0.01672,0.03363,21.6,0.0,7.0,1.0,0.0,0.0,0.0
1738833940055659055,21.75,0.04495,7.02,0.996,0.000755,-0.001574,0.00475,0.01718,0.01898,21.52,0.02684,7.0,0.996,0.0,-0.0,0.006584,0.01672,0.03363,21.7,0.0,7.0,1.0,0.0,0.0,0.0
1738833940105630636,21.8,0.04492,7.02,0.995,-0.001032,-0.001963,0.00386,0.01714,0.019,21.56,0.02684,7.0,0.996,0.0,-0.0,0.006325,0.01665,0.03363,21.7,0.0,7.0,1.0,0.0,0.0,0.0
1738833940155648708,21.84,0.04483,7.02,0.9946,-0.002352,-0.002247,0.002499,0.0172,0.01904,21.62,0.02684,7.0,0.992,-0.003906,-0.0,0.004597,0.01668,0.0337,21.8,0.0,7.0,1.0,0.0,0.0,0.0
1738833940205625772,21.89,0.0447,7.02,0.994,-0.00302,-0.002323,0.00157,0.01825,0.01906,21.66,0.02684,7.0,0.992,-0.003906,-0.0,0.003998,0.01694,0.0337,21.8,0.0,7.0,1.0,0.0,0.0,0.0
1738833940255638360,21.95,0.04456,7.02,0.994,-0.003296,-0.002398,0.000913,0.01952,0.0191,21.73,0.02684,7.0,0.992,-0.003906,-0.0,0.002821,0.01886,0.0336,21.9,0.0,7.0,1.0,0.0,0.0,0.0
1738833940305620908,22.0,0.04437,7.02,0.9946,-0.003304,-0.002186,0.000436,0.01945,0.01913,21.77,0.02684,7.0,0.992,-0.003906,-0.0,0.002481,0.01921,0.0336,21.9,0.0,7.0,1.0,0.0,0.0,0.0
1738833940355765581,22.05,0.04422,7.02,0.9946,-0.003126,-0.001776,0.000144,0.01874,0.0192,21.83,0.02684,6.996,0.992,-0.003906,-0.0,0.002033,0.01826,0.0336,22.0,0.0,7.0,1.0,0.0,0.0,0.0
1738833940405772686,22.1,0.04407,7.02,0.9946,-0.002806,-0.000987,-2.5e-05,0.01823,0.01923,21.86,0.02684,6.996,0.992,-0.003906,-0.0,0.001943,0.018,0.0336,22.0,0.0,7.0,1.0,0.0,0.0,0.0
1738833940455746412,22.16,0.04395,7.02,0.9946,-0.002485,-0.000493,-9.6e-05,0.01793,0.0193,21.92,0.02684,6.996,0.992,-0.003906,-0.0,0.001761,0.0175,0.0336,22.1,0.0,7.0,1.0,0.0,0.0,0.0
1738833940505753278,22.2,0.04382,7.02,0.994,-0.002138,9e-06,-0.000143,0.01767,0.01933,21.95,0.02684,6.996,0.992,-0.003906,-0.0,0.001671,0.01724,0.0336,22.1,0.0,7.0,1.0,0.0,0.0,0.0
1738833940555650234,22.25,0.04373,7.02,0.9937,-0.001782,0.000847,-0.000174,0.01755,0.0194,22.03,0.02684,6.996,0.992,0.0,-0.0,0.001668,0.01706,0.0336,22.2,0.0,7.0,1.0,0.0,0.0,0.0
1738833940605652332,22.3,0.04364,7.02,0.993,-0.001389,0.002136,-0.000181,0.0175,0.01945,22.05,0.02684,6.996,0.992,0.0,-0.0,0.00158,0.01698,0.0336,22.2,0.0,7.0,1.0,0.0,0.0,0.0
1738833940655693292,22.34,0.04358,7.02,0.9927,-0.00102,0.002773,-0.00021,0.01746,0.0195,22.11,0.02684,6.996,0.992,0.0,-0.0,0.001581,0.01698,0.0337,22.3,0.0,7.0,1.0,0.0,0.0,0.0
1738833940705709457,22.39,0.04355,7.02,0.992,-0.000611,0.002861,-0.000229,0.01819,0.01953,22.16,0.02684,6.996,0.992,0.0,-0.0,0.001584,0.01715,0.0337,22.3,0.0,7.0,1.0,0.0,0.0,0.0
1738833940755746841,22.45,0.04352,7.02,0.992,-0.000186,0.00259,-0.000264,0.01942,0.01959,22.22,0.02684,6.996,0.992,0.0,-0.0,0.001525,0.0188,0.0336,22.4,0.0,7.0,1.0,0.0,0.0,0.0
1738833940805731296,22.5,0.04352,7.02,0.9927,0.000222,0.002195,-0.000263,0.01913,0.01962,22.25,0.02684,6.996,0.992,0.0,-0.0,0.001528,0.01897,0.0336,22.4,0.0,7.0,1.0,0.0,0.0,0.0
1738833940855686187,22.55,0.04355,7.02,0.9927,0.000621,0.00249,-0.000283,0.01848,0.01968,22.33,0.02684,6.996,0.992,0.0,-0.0,0.001513,0.01811,0.0336,22.5,0.0,7.0,1.0,0.0,0.0,0.0
1738833940905741930,22.6,0.04358,7.02,0.9927,0.001057,0.00248,-0.000295,0.01886,0.01973,22.36,0.02684,6.996,0.992,0.0,-0.0,0.00151,0.01793,0.0336,22.5,0.0,7.0,1.0,0.0,0.0,0.0
1738833940955690145,22.64,0.04367,7.02,0.9927,0.001492,0.002031,-0.000273,0.01991,0.01979,22.38,0.02684,6.996,0.992,0.0,-0.0,0.001518,0.01845,0.0336,22.6,0.0,7.0,1.0,0.0,0.0,0.0
1738833941005632162,22.69,0.04373,7.02,0.9937,0.001895,0.001539,-0.000275,0.02057,0.01982,22.45,0.02684,6.996,0.992,0.0,-0.0,0.001541,0.01965,0.03378,22.6,0.0,7.0,1.0,0.0,0.0,0.0
1738833941055625200,22.73,0.04385,7.02,0.9946,0.002295,0.000974,-0.000249,0.02103,0.01984,22.52,0.02684,6.996,0.992,0.0,-0.0,0.001557,0.02036,0.0343,22.7,0.0,7.0,1.0,0.0,0.0,0.0
1738833941105681180,22.8,0.04398,7.02,0.9956,0.002722,0.000797,-0.000262,0.0205,0.01982,22.55,0.02684,6.996,0.996,0.0,-0.0,0.001563,0.02052,0.03455,22.7,0.0,7.0,1.0,0.0,0.0,0.0
1738833941155693054,22.84,0.04413,7.02,0.9966,0.003141,0.000876,-0.000281,0.01941,0.01974,22.62,0.02684,6.996,0.996,0.0,-0.0,0.001539,0.01897,0.0348,22.8,0.0,7.0,1.0,0.0,0.0,0.0
1738833941205652952,22.89,0.04428,7.02,0.9966,0.00352,0.00076,-0.000308,0.01875,0.01964,22.64,0.02684,6.996,0.996,0.0,-0.0,0.001533,0.01862,0.03473,22.8,0.0,7.0,1.0,0.0,0.0,0.0
1738833941255626440,22.94,0.04446,7.02,0.9966,0.003893,0.00094,-0.000291,0.01833,0.01958,22.7,0.02684,6.996,0.996,0.0,-0.0,0.001602,0.01784,0.03445,22.9,0.0,7.0,1.0,0.0,0.0,0.0
1738833941305623531,22.98,0.04468,7.02,0.996,0.00429,0.00146,-0.000313,0.01924,0.0195,22.75,0.02684,6.996,0.996,0.0,-0.0,0.001521,0.0181,0.03445,22.9,0.0,7.0,1.0,0.0,0.0,0.0
1738833941355639219,23.05,0.0449,7.02,0.997,0.004665,0.001663,-0.00029,0.02022,0.01945,22.81,0.02684,6.996,0.996,0.0,-0.0,0.001546,0.01965,0.0343,23.0,0.0,7.0,1.0,0.0,0.0,0.0
1738833941405634641,23.1,0.04514,7.02,0.9976,0.005066,0.001749,-0.000291,0.0198,0.01942,22.84,0.02684,6.996,0.996,0.0,-0.0,0.001548,0.01965,0.03445,23.0,0.0,7.0,1.0,0.0,0.0,0.0
1738833941455630779,23.14,0.0454,7.02,0.998,0.005424,0.00202,-0.00028,0.01898,0.01938,22.92,0.02684,6.996,0.996,0.0,-0.0,0.00153,0.01862,0.03445,23.1,0.0,7.0,1.0,0.0,0.0,0.0
1738833941505620002,23.19,0.0457,7.02,0.998,0.0058,0.002048,-0.000271,0.01933,0.0193,22.95,0.02684,6.996,0.996,0.0,-0.0,0.001525,0.01845,0.0343,23.1,0.0,7.0,1.0,0.0,0.0,0.0
1738833941555622100,23.23,0.046,7.023,0.9985,0.00613,0.001713,-0.000265,0.02022,0.01926,22.98,0.02684,6.996,0.996,0.0,-0.0,0.001618,0.01888,0.0343,23.2,0.0,7.0,1.0,0.0,0.0,0.0
1738833941605622053,23.3,0.04633,7.023,0.9995,0.00653,0.001593,-0.000251,0.0209,0.0192,23.05,0.02684,6.996,0.996,0.003906,-0.0,0.001552,0.02,0.0343,23.2,0.0,7.0,1.0,0.0,0.0,0.0
1738833941655641317,23.34,0.04663,7.023,1.0,0.00684,0.001606,-0.000225,0.02127,0.01912,23.11,0.02684,6.996,1.0,0.003906,-0.0,0.001568,0.02069,0.03473,23.3,0.0,7.0,1.0,0.0,0.0,0.0
1738833941705624818,23.39,0.047,7.023,1.002,0.00719,0.001204,-0.000254,0.02037,0.01904,23.14,0.02684,6.996,1.0,0.003906,-0.0,0.001567,0.02052,0.03488,23.3,0.0,7.0,1.0,0.0,0.0,0.0
1738833941755643367,23.44,0.04733,7.023,1.002,0.00751,0.001292,-0.000259,0.01932,0.01889,23.22,0.02684,6.996,1.0,0.003906,-0.0,0.001535,0.0188,0.0348,23.4,0.0,7.0,1.0,0.0,0.0,0.0
1738833941805613279,23.48,0.04773,7.023,1.002,0.00784,0.001634,-0.000271,0.01866,0.01877,23.22,0.02684,6.996,1.0,0.003906,-0.0,0.001535,0.0188,0.0348,23.4,0.0,7.0,1.0,0.0,0.0,0.0
1738833941855628013,23.55,0.04813,7.023,1.002,0.00815,0.001918,-0.00028,0.0183,0.01866,23.33,0.02684,6.996,1.0,0.003906,-0.0,0.001514,0.01776,0.03445,23.5,0.0,7.0,1.0,0.0,0.0,0.0
1738833941905627965,23.6,0.04855,7.023,1.002,0.00847,0.001548,-0.000271,0.0191,0.01857,23.36,0.02684,6.996,1.0,0.003906,-0.0,0.001604,0.01802,0.0343,23.5,0.0,7.0,1.0,0.0,0.0,0.0
1738833941955629587,23.64,0.049,7.023,1.002,0.00879,0.001041,-0.000243,0.02003,0.01851,23.42,0.02684,6.996,1.0,0.003906,-0.0,0.001541,0.01949,0.03412,23.6,0.0,7.0,1.0,0.0,0.0,0.0
1738833942005770206,23.69,0.04944,7.023,1.003,0.00908,0.000712,-0.000256,0.01955,0.01845,23.44,0.02686,6.996,1.0,0.003906,-0.0,0.001539,0.01949,0.03394,23.6,0.0,7.0,1.0,0.0,0.0,0.0
1738833942055789709,23.75,0.05,7.023,1.003,0.00944,0.000549,-0.000285,0.01866,0.01843,23.52,0.02686,6.996,1.0,0.007812,-0.0,0.001606,0.01836,0.03384,23.7,0.0,7.0,1.0,0.0,0.0,0.0
1738833942105753421,23.8,0.05038,7.023,1.002,0.00968,0.000311,-0.000289,0.01828,0.0184,23.55,0.02686,7.0,1.0,0.007812,-0.0,0.001512,0.01793,0.03378,23.7,0.0,7.0,1.0,0.0,0.0,0.0
1738833942155761718,23.84,0.05087,7.023,1.002,0.00999,6.1e-05,-0.000303,0.0179,0.01843,23.62,0.02686,7.0,1.0,0.007812,-0.0,0.001503,0.01741,0.03378,23.8,0.0,7.0,1.0,0.0,0.0,0.0
1738833942205769300,23.89,0.05136,7.023,1.002,0.010284,-6.7e-05,-0.00033,0.0177,0.01842,23.66,0.02686,7.0,1.0,0.007812,-0.0,0.001499,0.01724,0.0337,23.8,0.0,7.0,1.0,0.0,0.0,0.0
1738833942255772113,23.94,0.0519,7.023,1.001,0.01057,-0.000116,-0.000192,0.01755,0.01843,23.72,0.02686,7.0,1.0,0.007812,-0.0,0.001496,0.01707,0.0337,23.9,0.0,7.0,1.0,0.0,0.0,0.0
1738833942305780172,23.98,0.05243,7.023,1.0,0.01052,-0.000327,0.000987,0.01741,0.01846,23.77,0.02686,7.0,1.0,0.007812,-0.0,0.002184,0.01689,0.0337,23.9,0.0,7.0,1.0,0.0,0.0,0.0
1738833942355746030,24.05,0.05295,7.023,0.9995,0.00983,-5.5e-05,0.002317,0.01736,0.01846,23.83,0.02686,6.996,1.0,0.007812,-0.0,0.00391,0.01686,0.0336,24.0,0.0,7.0,1.0,0.0,0.0,0.0
1738833942405728340,24.1,0.0534,7.023,0.999,0.00866,0.0005,0.00324,0.01736,0.01848,23.84,0.02686,6.996,0.996,0.007812,-0.0,0.0046,0.01685,0.03363,24.0,0.0,7.0,1.0,0.0,0.0,0.0
1738833942455649614,24.14,0.05377,7.023,0.998,0.007145,0.001144,0.00389,0.0174,0.01851,23.92,0.02686,6.996,0.996,0.003906,-0.0,0.005634,0.01683,0.03363,24.1,0.0,7.0,1.0,0.0,0.0,0.0
1738833942505631446,24.19,0.0541,7.023,0.9976,0.005234,0.001515,0.00435,0.01735,0.01854,23.95,0.02686,6.996,0.996,0.003906,-0.0,0.00598,0.01682,0.03363,24.1,0.0,7.0,1.0,0.0,0.0,0.0
1738833942555635690,24.23,0.05432,7.023,0.997,0.003332,0.001766,0.004585,0.01726,0.01854,24.02,0.02686,6.996,0.996,0.0,-0.0,0.006413,0.01672,0.03363,24.2,0.0,7.0,1.0,0.0,0.0,0.0
1738833942605681180,24.3,0.0544,7.023,0.996,0.001198,0.001857,0.004738,0.01721,0.01857,24.03,0.02686,6.996,0.996,0.0,-0.0,0.006496,0.01665,0.03363,24.2,0.0,7.0,1.0,0.0,0.0,0.0
1738833942655736207,24.34,0.05444,7.023,0.9956,-0.000798,0.001671,0.00479,0.0172,0.01859,24.11,0.02686,6.996,0.996,0.0,-0.0,0.006668,0.01663,0.03363,24.3,0.0,7.0,1.0,0.0,0.0,0.0
1738833942705796003,24.39,0.05435,7.023,0.995,-0.002697,0.001453,0.003742,0.0182,0.0186,24.14,0.02686,6.996,0.996,0.0,-0.0,0.00633,0.01698,0.03363,24.3,0.0,7.0,1.0,0.0,0.0,0.0
1738833942755739688,24.44,0.05417,7.023,0.995,-0.003872,0.001132,0.002523,0.01942,0.01865,24.22,0.02686,6.996,0.996,-0.003906,-0.0,0.004375,0.01883,0.03363,24.4,0.0,7.0,1.0,0.0,0.0,0.0
1738833942805751323,24.48,0.05396,7.023,0.9956,-0.004566,0.001025,0.00156,0.01913,0.01866,24.25,0.02686,6.996,0.996,-0.003906,-0.0,0.003944,0.01892,0.03363,24.4,0.0,7.0,1.0,0.0,0.0,0.0
1738833942855770826,24.53,0.05374,7.023,0.9956,-0.004833,0.000895,0.000923,0.01855,0.01872,24.31,0.02686,7.0,0.996,-0.003906,-0.0,0.002893,0.01808,0.0335,24.5,0.0,7.0,1.0,0.0,0.0,0.0
1738833942905771970,24.6,0.05347,7.023,0.9956,-0.00484,0.000561,0.00047,0.01929,0.01878,24.36,0.02686,7.0,0.996,-0.003906,-0.0,0.002462,0.01817,0.0335,24.5,0.0,7.0,1.0,0.0,0.0,0.0
1738833942955783367,24.64,0.05325,7.023,0.996,-0.004673,2.2e-05,0.00021,0.02019,0.01881,24.39,0.02686,7.0,0.996,-0.003906,-0.0,0.0023,0.01888,0.03342,24.6,0.0,7.0,1.0,0.0,0.0,0.0
1738833943005763292,24.69,0.053,7.023,0.997,-0.004375,-0.000428,2.1e-05,0.02083,0.01888,24.45,0.02686,7.0,0.996,-0.003906,-0.0,0.00189,0.02,0.0336,24.6,0.0,7.0,1.0,0.0,0.0,0.0
1738833943055766582,24.73,0.0528,7.023,0.998,-0.004017,-0.000565,-8.7e-05,0.0213,0.0189,24.52,0.02686,7.0,0.996,-0.003906,-0.0,0.001735,0.02069,0.03412,24.7,0.0,7.0,1.0,0.0,0.0,0.0
1738833943105775356,24.8,0.0526,7.023,0.9995,-0.00359,-0.000727,-0.000147,0.02165,0.01888,24.55,0.02686,7.0,0.996,-0.003906,-0.0,0.001655,0.02095,0.0343,24.7,0.0,7.0,1.0,0.0,0.0,0.0
1738833943155779361,24.84,0.05246,7.023,1.001,-0.00319,-0.000987,-0.000149,0.02174,0.01881,24.61,0.02686,7.0,1.0,0.0,-0.0,0.001664,0.0213,0.03464,24.8,0.0,7.0,1.0,0.0,0.0,0.0
1738833943205778598,24.89,0.0523,7.023,1.002,-0.002758,-0.001056,-0.000154,0.02072,0.01872,24.66,0.02686,7.0,1.0,0.0,-0.0,0.001659,0.02095,0.03482,24.8,0.0,7.0,1.0,0.0,0.0,0.0
1738833943255775928,24.94,0.0522,7.023,1.003,-0.002373,-0.000906,-0.000186,0.01965,0.01859,24.72,0.02686,7.0,1.0,0.0,-0.0,0.00163,0.01923,0.03482,24.9,0.0,7.0,1.0,0.0,0.0,0.0
1738833943305788993,24.98,0.05206,7.023,1.003,-0.00196,-0.000449,-0.000202,0.02013,0.01846,24.75,0.02686,7.0,1.004,0.0,-0.0,0.001628,0.01923,0.03464,24.9,0.0,7.0,1.0,0.0,0.0,0.0
1738833943355784654,25.03,0.05197,7.023,1.004,-0.001567,-0.000746,-0.000213,0.02075,0.01837,24.83,0.02686,7.0,1.004,0.0,-0.0,0.001558,0.02017,0.03464,25.0,0.0,7.0,1.0,0.0,0.0,0.0
1738833943405774116,25.1,0.0519,7.023,1.005,-0.001144,-0.001058,-0.000204,0.01999,0.0183,24.84,0.02686,7.0,1.004,0.0,-0.0,0.001644,0.0201,0.03473,25.0,0.0,7.0,1.0,0.0,0.0,0.0
1738833943455751180,25.14,0.05185,7.023,1.005,-0.00075,-0.001308,-0.000183,0.01904,0.01816,24.9,0.02686,7.0,1.004,0.0,-0.0,0.001617,0.0187,0.03445,25.1,0.0,7.0,1.0,0.0,0.0,0.0
1738833943505765199,25.19,0.05182,7.023,1.005,-0.00043,-0.001281,-0.000163,0.01854,0.0181,24.95,0.02686,7.0,1.004,0.0,-0.0,0.001607,0.01819,0.0343,25.1,0.0,7.0,1.0,0.0,0.0,0.0
1738833943555744886,25.23,0.05182,7.023,1.005,-7.3e-05,-0.001231,-0.00017,0.0181,0.01802,25.02,0.02686,6.996,1.004,0.0,-0.0,0.001596,0.01767,0.03412,25.2,0.0,7.0,1.0,0.0,0.0,0.0
1738833943605741500,25.28,0.05182,7.023,1.004,0.000255,-0.000565,-0.000169,0.01788,0.01799,25.05,0.02686,7.0,1.004,0.0,-0.0,0.001593,0.0175,0.03403,25.2,0.0,7.0,1.0,0.0,0.0,0.0
1738833943655738830,25.34,0.05185,7.023,1.004,0.000605,-0.000383,-0.00015,0.01772,0.01793,25.12,0.02686,7.0,1.004,0.0,-0.0,0.001586,0.01715,0.03394,25.3,0.0,7.0,1.0,0.0,0.0,0.0
1738833943705718755,25.39,0.05188,7.023,1.003,0.000908,-0.000477,-0.000141,0.01752,0.01791,25.16,0.02686,7.0,1.004,0.0,-0.0,0.001671,0.01706,0.03394,25.3,0.0,7.0,1.0,0.0,0.0,0.0
1738833943755685329,25.44,0.05194,7.023,1.002,0.001233,-0.000543,-0.000154,0.01736,0.0179,25.2,0.02686,7.0,1.0,0.0,-0.0,0.001579,0.01682,0.03378,25.4,0.0,7.0,1.0,0.0,0.0,0.0
1738833943805696725,25.48,0.052,7.023,1.001,0.00157,-0.000313,-0.000185,0.01733,0.0179,25.25,0.02686,7.0,1.0,0.0,-0.0,0.001579,0.01682,0.03378,25.4,0.0,7.0,1.0,0.0,0.0,0.0
1738833943855682849,25.55,0.0521,7.023,1.001,0.001881,-0.000255,-0.000183,0.01729,0.01787,25.31,0.02686,7.0,1.0,0.0,-0.0,0.001579,0.01682,0.03378,25.5,0.0,7.0,1.0,0.0,0.0,0.0
1738833943905709981,25.6,0.0522,7.023,1.0,0.002214,-0.000378,-0.000193,0.01721,0.01788,25.34,0.02686,7.0,1.0,0.0,-0.0,0.001664,0.01672,0.03378,25.5,0.0,7.0,1.0,0.0,0.0,0.0
1738833943955710649,25.64,0.0523,7.023,0.999,0.002527,-0.000298,-0.000225,0.01726,0.01787,25.42,0.05338,7.0,0.996,0.0,-0.0,0.001576,0.01663,0.03378,25.6,0.0,7.0,1.0,0.0,0.0,0.0
1738833944005702733,25.69,0.05246,7.023,0.9985,0.002884,-5.3e-05,-0.000238,0.01848,0.01788,25.45,0.05338,6.996,0.996,0.0,-0.0,0.001582,0.01698,0.03378,25.6,0.0,7.0,1.0,0.0,0.0,0.0
1738833944055708408,25.73,0.0526,7.023,0.9985,0.003225,-0.000224,-0.000248,0.01962,0.01787,25.52,0.05338,7.0,0.996,0.0,-0.0,0.001525,0.0188,0.0336,25.7,0.0,7.0,1.0,0.0,0.0,0.0
1738833944105689764,25.8,0.05276,7.023,0.999,0.003588,-0.000532,-0.000228,0.01924,0.01787,25.56,0.05338,7.0,0.996,0.0,-0.0,0.001531,0.01913,0.0336,25.7,0.0,7.0,1.0,0.0,0.0,0.0
1738833944155679464,25.84,0.05295,7.023,0.999,0.00389,-0.000526,-0.000143,0.01855,0.01791,25.61,0.05338,6.996,0.996,0.003906,-0.0,0.001512,0.0181,0.0335,25.8,0.0,7.0,1.0,0.0,0.0,0.0
1738833944205648899,25.89,0.05316,7.023,0.999,0.003914,-0.000176,0.00095,0.0182,0.01794,25.64,0.05338,6.996,0.996,0.003906,-0.0,0.001939,0.01784,0.0335,25.8,0.0,7.0,1.0,0.0,0.0,0.0
1738833944255653381,25.94,0.05334,7.023,0.9985,0.003307,-0.00017,0.002316,0.01793,0.01797,25.72,0.05338,7.0,0.996,0.003906,-0.0,0.003744,0.01738,0.03345,25.9,0.0,7.0,1.0,0.0,0.0,0.0
1738833944305778741,25.98,0.05347,7.023,0.998,0.002113,-0.000382,0.003296,0.01883,0.01804,25.75,0.05338,7.0,0.996,0.0,-0.0,0.004612,0.01772,0.03345,25.9,0.0,7.0,1.0,0.0,0.0,0.0
1738833944355746269,26.05,0.05356,7.023,0.9985,0.000662,-0.000691,0.00394,0.01993,0.01807,25.83,0.05338,7.0,0.996,0.0,-0.0,0.00559,0.01917,0.03348,26.0,0.0,7.0,1.0,0.0,0.0,0.0
1738833944405679941,26.1,0.05353,7.023,0.9995,-0.001177,-0.000941,0.004406,0.02068,0.0181,25.84,0.05338,7.0,0.996,0.0,-0.0,0.00594,0.01967,0.03348,26.0,0.0,7.0,1.0,0.0,0.0,0.0
1738833944455664157,26.14,0.05344,7.023,1.0,-0.003017,-0.001185,0.004684,0.0212,0.01816,25.9,0.05338,7.0,1.0,0.0,-0.0,0.0063,0.02052,0.03366,26.1,0.0,7.0,1.0,0.0,0.0,0.0
1738833944505720615,26.19,0.05325,7.023,1.002,-0.004925,-0.001674,0.004837,0.0215,0.01819,25.94,0.05338,7.0,1.0,0.0,-0.0,0.006485,0.02087,0.034,26.1,0.0,7.0,1.0,0.0,0.0,0.0
1738833944555706262,26.23,0.05292,7.023,1.003,-0.007027,-0.002375,0.004913,0.02162,0.01816,26.02,0.05338,7.0,1.0,-0.003906,-0.0,0.006664,0.02104,0.03433,26.2,0.0,7.0,1.0,0.0,0.0,0.0
1738833944605669975,26.28,0.05255,7.023,1.004,-0.00899,-0.002722,0.00499,0.02072,0.0181,26.05,0.05338,7.0,1.004,-0.003906,-0.0,0.006664,0.02086,0.03452,26.2,0.0,7.0,1.0,0.0,0.0,0.0
1738833944655658483,26.34,0.05203,7.023,1.005,-0.01113,-0.002323,0.00501,0.01965,0.01799,26.12,0.05338,7.0,1.004,-0.007812,-0.0,0.00681,0.0193,0.0346,26.3,0.0,7.0,1.0,0.0,0.0,0.0
1738833944705662965,26.39,0.0514,7.023,1.005,-0.01327,-0.00184,0.005035,0.02014,0.01791,26.16,0.02686,7.0,1.004,-0.007812,-0.0,0.006805,0.01913,0.03442,26.3,0.0,7.0,1.0,0.0,0.0,0.0
1738833944755688190,26.44,0.0507,7.02,1.006,-0.01521,-0.001615,0.005043,0.0208,0.01782,26.22,0.02686,7.0,1.004,-0.01172,-0.0,0.00682,0.02017,0.03418,26.4,0.0,7.0,1.0,0.0,0.0,0.0
1738833944805806875,26.5,0.04987,7.02,1.007,-0.01732,-0.001065,0.005074,0.02011,0.01776,26.25,0.02686,6.996,1.004,-0.01172,-0.0,0.00682,0.02017,0.03433,26.4,0.0,7.0,1.0,0.0,0.0,0.0
1738833944855792045,26.55,0.04898,7.02,1.008,-0.01924,-0.000415,0.00505,0.01926,0.0177,26.31,0.02686,6.996,1.008,-0.01563,-0.0,0.006798,0.01897,0.03415,26.5,0.0,7.0,1.0,0.0,0.0,0.0
1738833944905791997,26.6,0.048,7.02,1.008,-0.02115,-0.000205,0.005066,0.01862,0.01764,26.34,0.02686,6.996,1.008,-0.01563,-0.0,0.006874,0.01836,0.034,26.5,0.0,7.0,1.0,0.0,0.0,0.0
1738833944955762863,26.64,0.04684,7.02,1.007,-0.0232,0.000126,0.00502,0.01813,0.01762,26.42,0.02686,6.996,1.004,-0.01953,-0.0,0.006863,0.01767,0.034,26.6,0.0,7.0,1.0,0.0,0.0,0.0
1738833945005781412,26.69,0.0456,7.02,1.007,-0.0249,-6.4e-05,0.00379,0.01779,0.01758,26.45,0.02687,6.996,1.004,-0.01953,-0.0,0.006424,0.01741,0.0338,26.6,0.0,7.0,1.0,0.0,0.0,0.0
1738833945055776834,26.75,0.04437,7.02,1.006,-0.02588,-0.000122,0.002544,0.01758,0.01758,26.52,0.02687,7.0,1.004,-0.02344,-0.0,0.00452,0.0171,0.03378,26.7,0.0,7.0,1.0,0.0,0.0,0.0
1738833945105787992,26.8,0.04303,7.02,1.005,-0.02634,-0.000439,0.001547,0.01744,0.01758,26.56,0.02687,7.0,1.004,-0.02344,-0.0,0.00374,0.01703,0.03378,26.7,0.0,7.0,1.0,0.0,0.0,0.0
1738833945155780076,26.84,0.04175,7.02,1.005,-0.02638,-0.000692,0.000912,0.01733,0.01756,26.62,0.02687,7.0,1.004,-0.02344,-0.0,0.002787,0.01678,0.03378,26.8,0.0,7.0,1.0,0.0,0.0,0.0
1738833945205784320,26.89,0.0405,7.02,1.004,-0.02618,-0.00074,0.000514,0.0173,0.01755,26.64,0.02687,7.0,1.004,-0.02344,-0.0,0.002441,0.0168,0.0337,26.8,0.0,7.0,1.0,0.0,0.0,0.0
1738833945255761623,26.94,0.03912,7.02,1.003,-0.02582,-0.000635,0.000253,0.01727,0.01753,26.72,0.02687,6.996,1.004,-0.02344,-0.0,0.002008,0.01671,0.0337,26.9,0.0,7.0,1.0,0.0,0.0,0.0
1738833945305768489,27.0,0.0376,7.02,1.002,-0.02527,0.00017,7.5e-05,0.0173,0.01755,26.75,0.02687,6.996,1.0,-0.02344,-0.0,0.001836,0.01672,0.0337,26.9,0.0,7.0,1.0,0.0,0.0,0.0
1738833945355806112,27.06,0.0362,7.02,1.001,-0.02467,0.001609,-2.9e-05,0.01736,0.01756,26.78,0.02687,6.996,1.0,-0.02344,-0.0,0.001836,0.01672,0.0337,27.0,0.0,7.0,1.0,0.0,0.0,0.0
1738833945405808210,27.1,0.0353,7.02,1.001,-0.02428,0.002382,-6.3e-05,0.01738,0.01756,26.86,0.02687,6.996,1.0,-0.01953,-0.0,0.001666,0.01689,0.0337,27.0,0.0,7.0,1.0,0.0,0.0,0.0
1738833945455776691,27.14,0.03427,7.02,1.0,-0.02379,0.002745,-8.4e-05,0.01729,0.0176,26.92,0.02687,6.996,1.0,-0.01953,-0.0,0.001663,0.01672,0.0337,27.1,0.0,7.0,1.0,0.0,0.0,0.0
1738833945505776166,27.19,0.03305,7.023,0.9995,-0.0232,0.002558,-0.0001,0.01715,0.0176,26.95,0.02687,6.996,1.0,-0.01953,-0.0,0.001663,0.01672,0.0337,27.1,0.0,7.0,1.0,0.0,0.0,0.0
1738833945555774211,27.25,0.03186,7.023,0.9985,-0.02261,0.002111,-0.000113,0.01706,0.01761,27.0,0.02687,6.996,1.0,-0.01953,-0.0,0.00166,0.01654,0.0337,27.2,0.0,7.0,1.0,0.0,0.0,0.0
1738833945605762243,27.3,0.03069,7.023,0.9976,-0.02202,0.001871,-0.000141,0.01706,0.01764,27.05,0.02687,6.996,0.996,-0.01953,-0.0,0.00166,0.01654,0.0337,27.2,0.0,7.0,1.0,0.0,0.0,0.0
1738833945655784845,27.34,0.02965,7.023,0.9966,-0.02148,0.001595,-0.000138,0.01707,0.01764,27.11,0.02687,6.996,0.996,-0.01953,-0.0,0.001573,0.01646,0.0337,27.3,0.0,7.0,1.0,0.0,0.0,0.0
1738833945705800533,27.39,0.02863,7.023,0.996,-0.02095,0.001444,-0.000124,0.0171,0.01767,27.17,0.02687,6.996,0.996,-0.01563,-0.0,0.001573,0.01646,0.0337,27.3,0.0,7.0,1.0,0.0,0.0,0.0
1738833945755810499,27.44,0.02756,7.023,0.995,-0.02039,0.001067,-9.9e-05,0.0171,0.01768,27.19,0.02687,6.996,0.996,-0.01563,-0.0,0.001575,0.01663,0.0337,27.4,0.0,7.0,1.0,0.0,0.0,0.0
1738833945805807113,27.5,0.0265,7.023,0.994,-0.01984,0.000631,-0.000116,0.0171,0.01772,27.25,0.02687,6.996,0.992,-0.01563,-0.0,0.00166,0.01654,0.0337,27.4,0.0,7.0,1.0,0.0,0.0,0.0
1738833945855794191,27.55,0.02557,7.023,0.9937,-0.01932,-6e-06,-0.000149,0.01712,0.01772,27.33,0.02687,7.0,0.992,-0.01563,-0.0,0.001488,0.01656,0.0337,27.5,0.0,7.0,1.0,0.0,0.0,0.0
1738833945905812501,27.6,0.02466,7.023,0.993,-0.0188,-0.000389,-0.000134,0.01817,0.01775,27.36,0.02687,7.0,0.992,-0.01563,-0.0,0.001584,0.01715,0.0337,27.5,0.0,7.0,1.0,0.0,0.0,0.0
1738833945955837726,27.64,0.0237,7.023,0.993,-0.01823,-0.00093,-0.000129,0.01952,0.01775,27.38,0.02687,7.0,0.992,-0.01563,-0.0,0.0015955,0.01784,0.0337,27.6,0.0,7.0,1.0,0.0,0.0,0.0
1738833946005812883,27.69,0.02283,7.023,0.9937,-0.01773,-0.001144,-9.1e-05,0.01927,0.01778,27.45,0.02687,7.0,0.992,-0.01563,-0.0,0.001616,0.01906,0.0336,27.6,0.0,7.0,1.0,0.0,0.0,0.0
1738833946055814027,27.73,0.02193,7.023,0.9937,-0.0172,-0.000858,-6.9e-05,0.0186,0.01782,27.52,0.02687,7.0,0.992,-0.01172,-0.0,0.0016,0.01819,0.0336,27.7,0.0,7.0,1.0,0.0,0.0,0.0
1738833946105819225,27.78,0.02112,7.023,0.9937,-0.01672,-0.000703,-6e-05,0.0182,0.01782,27.55,0.02687,7.0,0.992,-0.01172,-0.0,0.001594,0.01784,0.0335,27.7,0.0,7.0,1.0,0.0,0.0,0.0
1738833946155819892,27.84,0.02025,7.023,0.993,-0.01624,-0.000853,-4.7e-05,0.0178,0.01788,27.6,0.0003555,7.0,0.992,-0.01172,-0.0,0.001676,0.01758,0.0335,27.8,0.0,7.0,1.0,0.0,0.0,0.0
1738833946205797433,27.89,0.01949,7.023,0.9927,-0.0158,-0.001055,-5.9e-05,0.0176,0.01794,27.64,0.0003557,7.0,0.992,-0.01172,-0.0,0.001582,0.01715,0.0335,27.8,0.0,7.0,1.0,0.0,0.0,0.0
1738833946255810499,27.94,0.01868,7.023,0.992,-0.0153,-0.000924,-8.7e-05,0.01753,0.01797,27.72,0.000356,7.0,0.992,-0.01172,-0.0,0.00158,0.01698,0.0336,27.9,0.0,7.0,1.0,0.0,0.0,0.0
1738833946305810213,27.98,0.0179,7.023,0.9917,-0.01482,-0.000535,-6.5e-05,0.01868,0.01802,27.75,0.0003562,7.0,0.992,-0.01172,-0.0,0.001674,0.01741,0.0336,27.9,0.0,7.0,1.0,0.0,0.0,0.0
1738833946355818271,28.03,0.0172,7.023,0.992,-0.01436,-0.000215,-6.4e-05,0.01982,0.01807,27.78,0.0003564,6.996,0.992,-0.01172,-0.0,0.001688,0.01828,0.0336,28.0,0.0,7.0,1.0,0.0,0.0,0.0
1738833946405827760,28.1,0.01653,7.023,0.993,-0.0139,0.000386,-7e-05,0.02061,0.0181,27.84,0.000357,6.996,0.992,-0.01172,-0.0,0.00171,0.01965,0.03342,28.0,0.0,7.0,1.0,0.0,0.0,0.0
1738833946455803155,28.14,0.01581,7.023,0.994,-0.0134,0.000946,-7.7e-05,0.02118,0.01817,27.92,0.0003572,6.996,0.992,-0.007812,-0.0,0.001643,0.0206,0.03378,28.1,0.0,7.0,1.0,0.0,0.0,0.0
1738833946505811452,28.19,0.015175,7.023,0.9956,-0.012924,0.001639,-0.000103,0.02151,0.01817,27.95,0.0003574,6.996,0.992,-0.007812,-0.0,0.00165,0.02078,0.03412,28.1,0.0,7.0,1.0,0.0,0.0,0.0
1738833946555805683,28.23,0.01452,7.023,0.997,-0.01241,0.001902,-0.0001,0.0217,0.01816,28.02,0.0003576,6.996,0.996,-0.007812,-0.0,0.001659,0.02112,0.03445,28.2,0.0,7.0,1.0,0.0,0.0,0.0
1738833946605809688,28.28,0.01393,7.023,0.9985,-0.01195,0.001844,-0.000104,0.0218,0.01808,28.05,0.0003579,6.996,0.996,-0.007812,-0.0,0.001576,0.02121,0.03464,28.2,0.0,7.0,1.0,0.0,0.0,0.0
1738833946655783653,28.34,0.01333,7.023,1.0,-0.01144,0.001659,-0.000128,0.02188,0.01797,28.11,0.0003583,6.996,1.0,-0.007812,-0.0,0.001668,0.0213,0.03497,28.3,0.0,7.0,1.0,0.0,0.0,0.0
1738833946705791234,28.39,0.01279,7.023,1.001,-0.01096,0.001611,-0.00014,0.02197,0.01785,28.16,0.0003586,6.996,1.0,-0.007812,-0.0,0.001584,0.02138,0.03506,28.3,0.0,7.0,1.0,0.0,0.0,0.0
1738833946755835056,28.44,0.01223,7.023,1.003,-0.01047,0.001629,-0.000123,0.02206,0.01768,28.22,0.0003588,6.996,1.0,-0.007812,-0.0,0.001589,0.02156,0.03525,28.4,0.0,7.0,1.0,0.0,0.0,0.0
1738833946805810928,28.48,0.01174,7.023,1.005,-0.01001,0.001321,-0.000129,0.0221,0.0175,28.25,0.000359,6.996,1.004,-0.003906,-0.0,0.00159,0.02156,0.03534,28.4,0.0,7.0,1.0,0.0,0.0,0.0
1738833946855941534,28.53,0.01123,7.023,1.006,-0.00954,0.001198,-9.9e-05,0.02214,0.0173,28.33,0.0003595,6.996,1.004,-0.003906,-0.0,0.001592,0.02156,0.0355,28.5,0.0,7.0,1.0,0.0,0.0,0.0
1738833946905813217,28.6,0.01075,7.023,1.008,-0.00908,0.000975,-8.3e-05,0.02222,0.0171,28.36,0.0003598,6.996,1.008,-0.003906,-0.0,0.001679,0.02164,0.0355,28.5,0.0,7.0,1.0,0.0,0.0,0.0
1738833946955829620,28.64,0.01036,7.023,1.009,-0.008705,0.000625,-7.7e-05,0.02217,0.01692,28.42,0.00036,6.996,1.008,-0.003906,-0.0,0.00168,0.02164,0.03558,28.6,0.0,7.0,1.0,0.0,0.0,0.0
1738833947005817890,28.69,0.00989,7.023,1.011,-0.00825,0.000474,-4.5e-05,0.021,0.01663,28.45,0.0003603,6.996,1.008,-0.003906,-0.0,0.001675,0.0213,0.03568,28.6,0.0,7.0,1.0,0.0,0.0,0.0
1738833947055813550,28.73,0.0095,7.023,1.011,-0.00789,0.000535,-4.8e-05,0.01982,0.01639,28.52,0.0003605,7.0,1.008,-0.003906,-0.0,0.001725,0.01949,0.03525,28.7,0.0,7.0,1.0,0.0,0.0,0.0
1738833947105809688,28.78,0.009125,7.023,1.011,-0.00754,0.000487,-4.1e-05,0.01904,0.01619,28.55,0.0003607,6.996,1.012,-0.003906,-0.0,0.00171,0.01878,0.03497,28.7,0.0,7.0,1.0,0.0,0.0,0.0
1738833947155843734,28.84,0.00877,7.023,1.011,-0.007217,0.000433,-1.6e-05,0.01851,0.016,28.62,0.0003612,7.0,1.008,-0.003906,-0.0,0.001692,0.01793,0.03464,28.8,0.0,7.0,1.0,0.0,0.0,0.0
