time,x_sphinx,y_sphinx,z_sphinx,vx_sphinx,vy_sphinx,vz_sphinx,roll_sphinx,pitch_sphinx,yaw_sphinx,x_anafi,y_anafi,z_anafi,vx_anafi,vy_anafi,vz_anafi,roll_anafi,pitch_anafi,yaw_anafi,wp_x,wp_y,wp_z,wp_vx,wp_vy,wp_vz,wp_yaw
1738834496865274190,152.6,0.0506,6.98,5.016,-0.001161,0.002464,0.002857,0.1567,0.0099,151.4,0.02844,7.0,5.01,0.0,0.003906,0.002857,0.1562,0.03207,153.0,0.0,7.0,5.0,0.0,0.0,0.0
1738834496915271759,152.9,0.0505,6.98,5.016,-0.001892,0.002161,0.002872,0.1565,0.00989,151.8,0.02846,7.0,5.01,0.0,0.003906,0.002851,0.1559,0.03207,153.0,0.0,7.0,5.0,0.0,0.0,0.0
1738834496965223073,153.1,0.05038,6.98,5.016,-0.002684,0.002165,0.002863,0.1564,0.009865,151.9,0.02846,7.0,5.01,0.0,0.003906,0.002937,0.1558,0.0321,153.5,0.0,7.0,5.0,0.0,0.0,0.0
1738834497015195846,153.4,0.05026,6.98,5.016,-0.0034,0.002354,0.002872,0.1564,0.00984,152.2,0.02847,7.0,5.01,0.0,0.003906,0.002941,0.1556,0.03217,153.5,0.0,7.0,5.0,0.0,0.0,0.0
1738834497065253734,153.6,0.05005,6.98,5.016,-0.004185,0.002474,0.002888,0.1564,0.00982,152.4,0.02847,7.0,5.01,0.0,0.003906,0.002941,0.1556,0.03217,154.0,0.0,7.0,5.0,0.0,0.0,0.0
1738834497115265846,153.9,0.04984,6.98,5.02,-0.004894,0.00261,0.002869,0.1565,0.009766,152.8,0.02849,7.0,5.01,0.0,0.003906,0.002949,0.1556,0.03226,154.0,0.0,7.0,5.0,0.0,0.0,0.0
1738834497165230035,154.1,0.04956,6.98,5.02,-0.005665,0.00272,0.002892,0.1564,0.00973,152.9,0.02849,7.0,5.01,0.0,0.003906,0.002949,0.1556,0.03226,154.5,0.0,7.0,5.0,0.0,0.0,0.0
1738834497215209484,154.4,0.04926,6.98,5.02,-0.006367,0.002827,0.002878,0.1564,0.009674,153.1,0.02849,7.0,5.01,-0.003906,0.003906,0.002949,0.1556,0.03226,154.5,0.0,7.0,5.0,0.0,0.0,0.0
1738834497265296697,154.6,0.04892,6.98,5.02,-0.007122,0.002947,0.002853,0.1564,0.00963,153.4,0.0285,7.0,5.01,-0.003906,0.003906,0.002949,0.1556,0.03226,155.0,0.0,7.0,5.0,0.0,0.0,0.0
1738834497315296411,154.9,0.04855,6.98,5.02,-0.007786,0.002918,0.002817,0.1565,0.00957,153.8,0.0285,7.0,5.01,-0.003906,0.003906,0.002949,0.1556,0.03226,155.0,0.0,7.0,5.0,0.0,0.0,0.0
1738834497365300178,155.1,0.04813,6.98,5.02,-0.00851,0.00276,0.002827,0.1565,0.00954,153.9,0.02852,7.0,5.01,-0.003906,0.003906,0.002949,0.1556,0.03226,155.5,0.0,7.0,5.0,0.0,0.0,0.0
1738834497415309667,155.4,0.0477,6.98,5.02,-0.00914,0.002632,0.00272,0.1565,0.00946,154.1,0.02852,7.0,5.01,-0.003906,0.003906,0.002949,0.1556,0.03226,155.5,0.0,7.0,5.0,0.0,0.0,0.0
1738834497465296745,155.5,0.04733,6.98,5.02,-0.00946,0.002632,0.001804,0.1565,0.00944,154.4,0.02853,7.0,5.01,-0.003906,0.003906,0.002775,0.1556,0.03226,156.0,0.0,7.0,5.0,0.0,0.0,0.0
1738834497515275239,155.9,0.04678,6.98,5.02,-0.0092,0.002325,0.000256,0.1565,0.00938,154.8,0.02853,6.996,5.01,-0.007812,0.003906,0.001135,0.1558,0.0323,156.0,0.0,7.0,5.0,0.0,0.0,0.0
1738834497565292596,156.1,0.04636,6.98,5.02,-0.008446,0.002245,-0.000611,0.1565,0.00934,154.9,0.02855,6.996,5.01,-0.003906,0.003906,0.0004377,0.1558,0.03226,156.5,0.0,7.0,5.0,0.0,0.0,0.0
1738834497615290403,156.4,0.04593,6.98,5.02,-0.007233,0.002514,-0.001291,0.1575,0.0093,155.2,0.02855,6.996,5.01,-0.003906,0.003906,-0.000768,0.1558,0.03232,156.5,0.0,7.0,5.0,0.0,0.0,0.0
1738834497665267705,156.6,0.04562,6.98,5.023,-0.00586,0.002138,-0.001735,0.1638,0.00923,155.4,0.02855,6.996,5.01,-0.003906,0.003906,-0.001188,0.1567,0.0323,157.0,0.0,7.0,5.0,0.0,0.0,0.0
1738834497715248346,156.9,0.04538,6.98,5.027,-0.00419,0.000703,-0.00195,0.1694,0.009186,155.8,0.02856,6.996,5.016,0.0,0.003906,-0.001764,0.1655,0.03198,157.0,0.0,7.0,5.0,0.0,0.0,0.0
1738834497765298366,157.1,0.0452,6.98,5.035,-0.002575,0.000901,-0.00206,0.1675,0.009186,155.9,0.02856,6.996,5.02,0.0,0.003906,-0.001805,0.1685,0.03198,157.5,0.0,7.0,5.0,0.0,0.0,0.0
1738834497815288066,157.4,0.0451,6.98,5.04,-0.0008,0.00194,-0.002213,0.1642,0.009155,156.2,0.02858,6.996,5.027,0.0,0.003906,-0.00211,0.1658,0.03195,157.5,0.0,7.0,5.0,0.0,0.0,0.0
1738834497865361928,157.6,0.04514,6.98,5.043,0.000989,0.002457,-0.002275,0.1602,0.009186,156.4,0.02858,6.996,5.03,0.0,0.003906,-0.002071,0.1636,0.0318,158.0,0.0,7.0,5.0,0.0,0.0,0.0
1738834497915402173,157.9,0.0452,6.98,5.043,0.002605,0.002949,-0.002163,0.1572,0.00922,156.8,0.0286,6.996,5.035,0.0,0.003906,-0.00225,0.1583,0.03168,158.0,0.0,7.0,5.0,0.0,0.0,0.0
1738834497965293884,158.1,0.04538,6.98,5.043,0.003956,0.003168,-0.000834,0.1564,0.00923,156.9,0.0286,6.996,5.035,0.003906,0.003906,-0.0022,0.1565,0.03162,158.5,0.0,7.0,5.0,0.0,0.0,0.0
1738834498015222311,158.4,0.0456,6.98,5.043,0.0046,0.002935,0.000306,0.156,0.00923,157.2,0.02861,6.996,5.035,0.003906,0.003906,-0.000559,0.1555,0.03174,158.5,0.0,7.0,5.0,0.0,0.0,0.0
1738834498065335988,158.6,0.04584,6.984,5.04,0.004757,0.002922,0.001228,0.1547,0.009254,157.4,0.02861,6.996,5.03,0.003906,0.003906,0.000221,0.1552,0.0318,159.0,0.0,7.0,5.0,0.0,0.0,0.0
1738834498115344047,158.9,0.04605,6.984,5.04,0.004547,0.00289,0.001796,0.1536,0.00924,157.8,0.02863,6.996,5.03,0.003906,0.003906,0.001505,0.1533,0.03198,159.0,0.0,7.0,5.0,0.0,0.0,0.0
1738834498165256977,159.1,0.04626,6.984,5.035,0.00411,0.002762,0.002174,0.1528,0.0092,157.9,0.02863,6.996,5.03,0.003906,0.003906,0.001762,0.1527,0.03207,159.5,0.0,7.0,5.0,0.0,0.0,0.0
1738834498215241670,159.4,0.04648,6.984,5.035,0.003477,0.002583,0.00244,0.1522,0.009186,158.2,0.02864,6.996,5.027,0.003906,0.003906,0.002275,0.1517,0.0322,159.5,0.0,7.0,5.0,0.0,0.0,0.0
1738834498265238046,159.6,0.04663,6.984,5.03,0.002731,0.00259,0.002602,0.1519,0.00916,158.4,0.02864,6.996,5.027,0.003906,0.003906,0.00243,0.1514,0.03204,160.0,0.0,7.0,5.0,0.0,0.0,0.0
1738834498315209627,159.9,0.04675,6.984,5.03,0.001997,0.002497,0.002676,0.1517,0.00919,158.8,0.02866,6.996,5.023,0.0,0.003906,0.002651,0.1509,0.03162,160.0,0.0,7.0,5.0,0.0,0.0,0.0
1738834498365223169,160.1,0.0468,6.984,5.027,0.001188,0.002518,0.002714,0.1516,0.00923,158.9,0.02866,6.996,5.02,0.0,0.003906,0.002724,0.1509,0.03146,160.5,0.0,7.0,5.0,0.0,0.0,0.0
1738834498415238857,160.4,0.04688,6.984,5.023,0.000437,0.00234,0.00273,0.1516,0.00928,159.2,0.02867,6.996,5.02,0.0,0.003906,0.002783,0.1508,0.03111,160.5,0.0,7.0,5.0,0.0,0.0,0.0
1738834498465274095,160.6,0.04688,6.984,5.023,-0.000318,0.002378,0.002756,0.1515,0.00939,159.4,0.02867,6.996,5.016,0.0,0.003906,0.002777,0.1508,0.03104,161.0,0.0,7.0,5.0,0.0,0.0,0.0
1738834498515254497,160.9,0.0468,6.984,5.02,-0.001117,0.002804,0.002756,0.1516,0.009514,159.8,0.02869,6.996,5.01,0.0,0.003906,0.002842,0.1506,0.03078,161.0,0.0,7.0,5.0,0.0,0.0,0.0
1738834498565235614,161.1,0.04675,6.984,5.02,-0.001838,0.002895,0.00275,0.1516,0.00966,159.9,0.02869,6.996,5.01,0.0,0.003906,0.002756,0.1508,0.03076,161.5,0.0,7.0,5.0,0.0,0.0,0.0
1738834498615237236,161.4,0.04663,6.984,5.016,-0.0026,0.002935,0.00274,0.1515,0.009796,160.2,0.0287,6.996,5.008,0.0,0.003906,0.002829,0.1506,0.0306,161.5,0.0,7.0,5.0,0.0,0.0,0.0
1738834498665232419,161.6,0.0465,6.984,5.016,-0.003286,0.00304,0.002737,0.1515,0.00996,160.4,0.0287,6.996,5.008,0.0,0.003906,0.002829,0.1506,0.0306,162.0,0.0,7.0,5.0,0.0,0.0,0.0
1738834498715261697,161.9,0.0463,6.984,5.01,-0.00401,0.003054,0.002739,0.1515,0.01018,160.8,0.02872,6.996,5.004,0.0,0.003906,0.002815,0.1506,0.03043,162.0,0.0,7.0,5.0,0.0,0.0,0.0
1738834498765243530,162.1,0.0461,6.984,5.008,-0.004658,0.003256,0.002764,0.1515,0.01036,160.9,0.02872,6.996,5.0,0.0,0.003906,0.002815,0.1506,0.03043,162.5,0.0,7.0,5.0,0.0,0.0,0.0
1738834498815274715,162.4,0.04584,6.984,5.008,-0.00536,0.003132,0.002775,0.1514,0.01059,161.2,0.02873,6.996,5.0,-0.003906,0.003906,0.002815,0.1506,0.03043,162.5,0.0,7.0,5.0,0.0,0.0,0.0
1738834498865247488,162.6,0.04556,6.984,5.004,-0.005985,0.00289,0.002775,0.15,0.010796,161.4,0.02873,6.996,4.996,-0.003906,0.003906,0.002813,0.1505,0.03043,163.0,0.0,7.0,5.0,0.0,0.0,0.0
1738834498915241718,162.9,0.04523,6.984,5.0,-0.006664,0.002722,0.002802,0.1488,0.01104,161.8,0.02875,6.996,4.992,-0.003906,0.003906,0.002872,0.1487,0.03043,163.0,0.0,7.0,5.0,0.0,0.0,0.0
1738834498965222835,163.1,0.0449,6.984,5.0,-0.00727,0.002413,0.002804,0.1493,0.01127,161.9,0.02875,6.996,4.992,-0.003906,0.003906,0.002861,0.148,0.03043,163.5,0.0,7.0,5.0,0.0,0.0,0.0
1738834499015220403,163.4,0.0445,6.984,4.996,-0.00789,0.002007,0.002672,0.1499,0.01149,162.2,0.02876,6.996,4.99,-0.003906,0.003906,0.00279,0.1486,0.0305,163.5,0.0,7.0,5.0,0.0,0.0,0.0
1738834499065222501,163.6,0.04413,6.984,4.992,-0.00811,0.001584,0.001443,0.1504,0.01168,162.4,0.02876,6.996,4.984,-0.003906,0.003906,0.00271,0.149,0.0305,164.0,0.0,7.0,5.0,0.0,0.0,0.0
1738834499115218400,163.9,0.0437,6.984,4.992,-0.0077,0.00123,0.000217,0.151,0.011925,162.8,0.02878,6.996,4.98,-0.007812,0.003906,0.000993,0.1498,0.03055,164.0,0.0,7.0,5.0,0.0,0.0,0.0
1738834499165216207,164.1,0.04337,6.984,4.99,-0.006817,0.000977,-0.00063,0.1526,0.01215,162.9,0.02878,6.996,4.98,-0.007812,-0.0,0.0003018,0.1501,0.03049,164.5,0.0,7.0,5.0,0.0,0.0,0.0
1738834499215202093,164.4,0.04303,6.984,4.99,-0.00547,0.000759,-0.001252,0.1538,0.012344,163.2,0.02878,6.996,4.98,-0.003906,-0.0,-0.0007596,0.1521,0.03093,164.5,0.0,7.0,5.0,0.0,0.0,0.0
1738834499265211820,164.6,0.04282,6.984,4.99,-0.004013,0.000802,-0.001584,0.1536,0.012505,163.4,0.0288,6.996,4.977,-0.003906,-0.0,-0.001242,0.153,0.03125,165.0,0.0,7.0,5.0,0.0,0.0,0.0
1738834499315282583,164.9,0.04263,6.984,4.99,-0.002296,0.001595,-0.001791,0.1539,0.01265,163.8,0.0288,6.996,4.977,0.0,-0.0,-0.001651,0.1526,0.03165,165.0,0.0,7.0,5.0,0.0,0.0,0.0
1738834499365199804,165.1,0.04257,6.984,4.99,-0.000632,0.001634,-0.001928,0.1598,0.01272,163.9,0.02881,6.996,4.977,0.0,-0.0,-0.00172,0.1528,0.03183,165.5,0.0,7.0,5.0,0.0,0.0,0.0
1738834499415171623,165.4,0.0426,6.984,4.992,0.001054,0.000301,-0.001804,0.165,0.01277,164.2,0.02881,6.996,4.977,0.0,-0.0,-0.00193,0.1606,0.03198,165.5,0.0,7.0,5.0,0.0,0.0,0.0
1738834499465211391,165.6,0.0427,6.984,4.996,0.00253,-0.000172,-0.000492,0.1641,0.01283,164.4,0.02882,6.996,4.98,0.0,-0.0,-0.001793,0.1642,0.0319,166.0,0.0,7.0,5.0,0.0,0.0,0.0
1738834499515214681,165.9,0.04282,6.984,5.0,0.003271,0.000523,0.000638,0.1622,0.012886,164.8,0.02882,6.996,4.99,0.0,-0.0,-1.746e-05,0.1625,0.0317,166.0,0.0,7.0,5.0,0.0,0.0,0.0
1738834499565204143,166.1,0.043,6.984,5.004,0.003544,0.001154,0.001546,0.1605,0.01299,164.9,0.02884,6.996,4.99,0.0,-0.0,0.0006533,0.1613,0.03168,166.5,0.0,7.0,5.0,0.0,0.0,0.0
1738834499615234613,166.4,0.04318,6.984,5.008,0.003433,0.001568,0.002144,0.159,0.01308,165.2,0.02884,6.996,4.992,0.0,-0.0,0.001754,0.1593,0.03174,166.5,0.0,7.0,5.0,0.0,0.0,0.0
1738834499665215969,166.6,0.04333,6.984,5.008,0.003046,0.0016,0.00257,0.1581,0.013176,165.4,0.02885,6.996,4.996,0.0,-0.0,0.002167,0.1583,0.0317,167.0,0.0,7.0,5.0,0.0,0.0,0.0
1738834499715261459,166.9,0.0435,6.984,5.008,0.002499,0.001897,0.002834,0.1575,0.01325,165.8,0.02885,6.996,4.996,0.0,-0.0,0.002682,0.1569,0.0319,167.0,0.0,7.0,5.0,0.0,0.0,0.0
1738834499765200853,167.1,0.04358,6.984,5.01,0.001893,0.002201,0.002985,0.1571,0.013306,165.9,0.02887,6.996,4.996,0.0,-0.0,0.002771,0.1566,0.03198,167.5,0.0,7.0,5.0,0.0,0.0,0.0
1738834499815239906,167.4,0.04367,6.984,5.01,0.001182,0.002605,0.003098,0.157,0.013374,166.2,0.02887,6.996,5.0,0.0,0.003906,0.003033,0.1562,0.0321,167.5,0.0,7.0,5.0,0.0,0.0,0.0
1738834499865234851,167.6,0.0437,6.984,5.01,0.000496,0.002764,0.003164,0.1569,0.01343,166.4,0.02888,6.996,5.0,0.0,0.003906,0.003119,0.1561,0.0321,168.0,0.0,7.0,5.0,0.0,0.0,0.0
1738834499915246009,167.9,0.04373,6.99,5.01,-0.000272,0.002851,0.003227,0.1567,0.013435,166.8,0.02888,6.996,5.0,0.0,0.003906,0.003214,0.1559,0.0323,168.0,0.0,7.0,5.0,0.0,0.0,0.0
1738834499965211153,168.1,0.0437,6.99,5.01,-0.000996,0.003128,0.003267,0.1567,0.013466,166.9,0.0289,6.996,5.0,0.0,0.003906,0.003214,0.1559,0.0323,168.5,0.0,7.0,5.0,0.0,0.0,0.0
1738834500015238046,168.4,0.0436,6.99,5.01,-0.001728,0.003195,0.003288,0.1567,0.01346,167.2,0.0289,6.996,5.0,0.0,0.003906,0.003227,0.1559,0.03247,168.5,0.0,7.0,5.0,0.0,0.0,0.0
1738834500065219163,168.6,0.04352,6.99,5.01,-0.002523,0.003082,0.00331,0.1567,0.01345,167.4,0.02892,6.996,5.0,0.0,0.003906,0.003227,0.1559,0.03247,169.0,0.0,7.0,5.0,0.0,0.0,0.0
1738834500115247011,168.9,0.04337,6.99,5.016,-0.00325,0.003038,0.003302,0.1566,0.013435,167.8,0.02892,6.996,5.004,0.0,0.003906,0.003313,0.1558,0.03247,169.0,0.0,7.0,5.0,0.0,0.0,0.0
1738834500165221929,169.1,0.04318,6.99,5.016,-0.004044,0.003202,0.003319,0.1553,0.01343,167.9,0.02893,6.996,5.004,0.0,0.003906,0.003311,0.1556,0.03247,169.5,0.0,7.0,5.0,0.0,0.0,0.0
1738834500215233325,169.4,0.04297,6.99,5.01,-0.004772,0.003355,0.003319,0.1542,0.0134,168.2,0.02893,6.996,5.004,0.0,0.003906,0.003298,0.154,0.03262,169.5,0.0,7.0,5.0,0.0,0.0,0.0
1738834500265169858,169.6,0.0427,6.99,5.01,-0.005558,0.003294,0.003302,0.1545,0.01339,168.4,0.02895,6.996,5.0,-0.003906,0.003906,0.003372,0.1532,0.03265,170.0,0.0,7.0,5.0,0.0,0.0,0.0
1738834500315221309,169.9,0.0424,6.99,5.01,-0.006317,0.00314,0.003283,0.1559,0.01331,168.8,0.02895,6.996,5.0,-0.003906,0.003906,0.00331,0.1538,0.0328,170.0,0.0,7.0,5.0,0.0,0.0,0.0
1738834500365218162,170.1,0.04208,6.99,5.01,-0.006992,0.002916,0.003248,0.1615,0.01325,168.9,0.02896,6.996,5.0,-0.003906,0.003906,0.003317,0.1547,0.0327,170.5,0.0,7.0,5.0,0.0,0.0,0.0
1738834500415201425,170.4,0.0417,6.99,5.016,-0.007668,0.00146,0.003296,0.1663,0.01321,169.2,0.02896,6.996,5.004,-0.003906,0.003906,0.00326,0.1622,0.03265,170.5,0.0,7.0,5.0,0.0,0.0,0.0
1738834500465162038,170.6,0.04126,6.99,5.023,-0.00837,0.001331,0.003355,0.1633,0.013145,169.4,0.02898,6.996,5.008,-0.003906,-0.0,0.003292,0.1653,0.0324,171.0,0.0,7.0,5.0,0.0,0.0,0.0
1738834500515205383,170.9,0.04086,6.99,5.023,-0.00905,0.002026,0.003347,0.1599,0.01317,169.8,0.02898,6.996,5.01,-0.003906,-0.0,0.003386,0.1613,0.03223,171.0,0.0,7.0,5.0,0.0,0.0,0.0
1738834500565208435,171.1,0.0404,6.99,5.027,-0.00973,0.00214,0.003338,0.1572,0.01316,169.9,0.02899,6.996,5.01,-0.007812,-0.0,0.003351,0.1592,0.03223,171.5,0.0,7.0,5.0,0.0,0.0,0.0
1738834500615221261,171.4,0.0399,6.99,5.027,-0.01046,0.00228,0.003307,0.155,0.01318,170.2,0.02899,6.996,5.016,-0.007812,-0.0,0.003286,0.1558,0.03214,171.5,0.0,7.0,5.0,0.0,0.0,0.0
1738834500665224790,171.6,0.03937,6.99,5.023,-0.01113,0.002234,0.003298,0.1537,0.013176,170.4,0.029,6.996,5.016,-0.007812,-0.0,0.003271,0.154,0.0323,172.0,0.0,7.0,5.0,0.0,0.0,0.0
1738834500715209484,171.9,0.03876,6.99,5.023,-0.01182,0.00191,0.003105,0.1527,0.013176,170.8,0.02902,6.996,5.01,-0.007812,-0.0,0.003338,0.1523,0.03238,172.0,0.0,7.0,5.0,0.0,0.0,0.0
1738834500765185117,172.1,0.03818,6.99,5.02,-0.01209,0.001758,0.001834,0.1522,0.01315,170.9,0.02902,6.996,5.01,-0.007812,-0.0,0.003168,0.1519,0.03253,172.5,0.0,7.0,5.0,0.0,0.0,0.0
1738834500815231561,172.4,0.03757,6.99,5.02,-0.01174,0.001813,0.000581,0.1517,0.01312,171.2,0.02904,6.996,5.008,-0.007812,-0.0,0.001435,0.1512,0.03265,172.5,0.0,7.0,5.0,0.0,0.0,0.0
1738834500865268707,172.6,0.03702,6.99,5.016,-0.01094,0.001812,-0.000248,0.1504,0.01305,171.4,0.02904,6.996,5.008,-0.007812,-0.0,0.0006604,0.151,0.03278,173.0,0.0,7.0,5.0,0.0,0.0,0.0
1738834500915208339,172.9,0.03647,6.99,5.01,-0.00973,0.002083,-0.000888,0.1492,0.01298,171.8,0.02905,6.996,5.004,-0.007812,-0.0,-0.000504,0.1489,0.03268,173.0,0.0,7.0,5.0,0.0,0.0,0.0
1738834500965243101,173.1,0.03604,6.99,5.01,-0.00839,0.002167,-0.001266,0.1495,0.01292,171.9,0.02905,6.996,5.0,-0.007812,-0.0,-0.00087,0.1483,0.03256,173.5,0.0,7.0,5.0,0.0,0.0,0.0
1738834501015208244,173.4,0.03564,6.99,5.008,-0.006798,0.001899,-0.001501,0.1501,0.01292,172.2,0.02907,6.996,4.996,-0.003906,-0.0,-0.00141,0.1488,0.0322,173.5,0.0,7.0,5.0,0.0,0.0,0.0
1738834501065254688,173.6,0.03537,6.99,5.004,-0.005253,0.001559,-0.001657,0.1506,0.01294,172.4,0.02907,6.996,4.996,-0.003906,-0.0,-0.001496,0.1493,0.0321,174.0,0.0,7.0,5.0,0.0,0.0,0.0
1738834501115229606,173.9,0.03513,6.99,5.004,-0.00352,0.001323,-0.001752,0.151,0.01296,172.8,0.02908,6.996,4.992,0.0,-0.0,-0.001688,0.1498,0.03174,174.0,0.0,7.0,5.0,0.0,0.0,0.0
1738834501165227890,174.1,0.035,6.99,5.0,-0.001904,0.001104,-0.001799,0.1512,0.01303,172.9,0.02908,6.996,4.99,0.0,-0.0,-0.001764,0.15,0.0318,174.5,0.0,7.0,5.0,0.0,0.0,0.0
1738834501215194940,174.4,0.03494,6.99,5.0,-0.000309,0.001299,-0.001697,0.1514,0.01304,173.2,0.0291,6.996,4.99,0.0,-0.0,-0.0018215,0.1503,0.03217,174.5,0.0,7.0,5.0,0.0,0.0,0.0
1738834501265224933,174.6,0.03497,6.99,4.996,0.001054,0.001657,-0.000401,0.1516,0.01305,173.4,0.0291,6.996,4.984,0.0,-0.0,-0.001717,0.1505,0.03235,175.0,0.0,7.0,5.0,0.0,0.0,0.0
1738834501315208435,174.9,0.03503,6.99,4.996,0.00171,0.002035,0.000758,0.1521,0.01301,173.8,0.02911,6.996,4.98,0.0,-0.0,4.02e-05,0.1508,0.03265,175.0,0.0,7.0,5.0,0.0,0.0,0.0
1738834501365312099,175.1,0.03516,6.99,4.996,0.001894,0.001923,0.001667,0.1573,0.01293,173.9,0.02911,6.996,4.98,0.0,-0.0,0.000752,0.1512,0.03278,175.5,0.0,7.0,5.0,0.0,0.0,0.0
1738834501415291309,175.4,0.03525,6.99,4.996,0.001702,0.000842,0.002342,0.162,0.01287,174.2,0.02913,6.996,4.98,0.0,-0.0,0.001807,0.1578,0.0327,175.5,0.0,7.0,5.0,0.0,0.0,0.0
1738834501465240478,175.6,0.0353,6.99,5.0,0.001282,0.000812,0.00277,0.1617,0.012794,174.4,0.02913,6.996,4.984,0.0,-0.0,0.002287,0.1609,0.03265,176.0,0.0,7.0,5.0,0.0,0.0,0.0
1738834501515224933,175.9,0.03537,6.99,5.004,0.000643,0.001457,0.003008,0.1605,0.012726,174.8,0.02914,6.996,4.99,0.0,-0.0,0.002865,0.1603,0.03244,176.0,0.0,7.0,5.0,0.0,0.0,0.0
1738834501565280199,176.1,0.03537,6.99,5.004,-3.4e-05,0.001358,0.003126,0.1594,0.0127,174.9,0.02914,6.996,4.99,0.0,-0.0,0.00293,0.1597,0.0323,176.5,0.0,7.0,5.0,0.0,0.0,0.0
1738834501615303993,176.4,0.03537,6.99,5.008,-0.000754,0.001226,0.003222,0.1584,0.0127,175.2,0.02916,6.996,4.992,0.0,-0.0,0.003166,0.1582,0.0323,176.5,0.0,7.0,5.0,0.0,0.0,0.0
1738834501665308237,176.6,0.0353,6.99,5.008,-0.001567,0.000843,0.00325,0.1577,0.01267,175.4,0.02916,6.996,4.992,0.0,-0.0,0.003147,0.1575,0.0322,177.0,0.0,7.0,5.0,0.0,0.0,0.0
1738834501715280294,176.9,0.0352,6.99,5.008,-0.002388,0.000574,0.003288,0.1571,0.01268,175.8,0.02917,6.996,4.996,0.0,-0.0,0.003222,0.1567,0.0322,177.0,0.0,7.0,5.0,0.0,0.0,0.0
1738834501765282154,177.1,0.03506,6.99,5.01,-0.003157,0.000766,0.003302,0.1558,0.01265,175.9,0.02917,6.996,4.996,0.0,-0.0,0.003302,0.1562,0.0322,177.5,0.0,7.0,5.0,0.0,0.0,0.0
1738834501815316915,177.4,0.03488,6.99,5.008,-0.003998,0.001267,0.003302,0.1543,0.01265,176.2,0.02919,6.996,4.996,0.0,-0.0,0.003277,0.1544,0.0323,177.5,0.0,7.0,5.0,0.0,0.0,0.0
1738834501865283250,177.6,0.03467,6.99,5.008,-0.004772,0.0016,0.003319,0.1534,0.01261,176.4,0.02919,6.996,4.996,0.0,-0.0,0.003262,0.1536,0.0323,178.0,0.0,7.0,5.0,0.0,0.0,0.0
1738834501915310859,177.9,0.0344,6.992,5.008,-0.005615,0.001976,0.003328,0.1527,0.01258,176.8,0.0292,6.996,4.992,0.0,-0.0,0.003347,0.1522,0.03256,178.0,0.0,7.0,5.0,0.0,0.0,0.0
1738834501965229272,178.1,0.0341,6.992,5.008,-0.006405,0.00232,0.00334,0.1523,0.01251,176.9,0.0292,6.996,4.992,0.0,-0.0,0.00326,0.1517,0.03262,178.5,0.0,7.0,5.0,0.0,0.0,0.0
1738834502015275239,178.4,0.03375,6.992,5.004,-0.00725,0.002523,0.003357,0.152,0.012436,177.2,0.02922,6.996,4.992,-0.003906,-0.0,0.003353,0.1514,0.0328,178.5,0.0,7.0,5.0,0.0,0.0,0.0
1738834502065277338,178.6,0.0334,6.992,5.004,-0.00803,0.00279,0.00334,0.1519,0.01234,177.4,0.02922,6.996,4.99,-0.003906,-0.0,0.003262,0.1511,0.0328,179.0,0.0,7.0,5.0,0.0,0.0,0.0
1738834502115310668,178.9,0.03293,6.992,5.0,-0.00888,0.002863,0.003359,0.1519,0.01224,177.8,0.02924,6.996,4.99,-0.003906,-0.0,0.003273,0.1509,0.03296,179.0,0.0,7.0,5.0,0.0,0.0,0.0
1738834502165223360,179.1,0.0325,6.992,5.0,-0.00966,0.002731,0.003353,0.1531,0.01215,177.9,0.02924,6.996,4.99,-0.003906,-0.0,0.003273,0.1509,0.03296,179.5,0.0,7.0,5.0,0.0,0.0,0.0
1738834502215275526,179.4,0.03198,6.992,5.0,-0.01048,0.002136,0.003365,0.1542,0.012,178.2,0.02925,6.996,4.984,-0.003906,-0.0,0.003305,0.1525,0.03305,179.5,0.0,7.0,5.0,0.0,0.0,0.0
1738834502265234947,179.6,0.03143,6.992,4.996,-0.011246,0.001891,0.00336,0.1538,0.01187,178.5,0.02927,6.996,4.984,-0.007812,-0.0,0.003317,0.1532,0.03308,180.0,0.0,7.0,5.0,0.0,0.0,0.0
1738834502315302610,179.9,0.03084,6.992,4.996,-0.01207,0.0022,0.003336,0.154,0.0117,178.8,0.02927,6.996,4.984,-0.007812,-0.0,0.003307,0.1526,0.03305,180.0,0.0,7.0,5.0,0.0,0.0,0.0
1738834502365254163,180.1,0.03024,6.992,4.996,-0.0128,0.001793,0.003279,0.1599,0.01158,178.9,0.02928,6.996,4.984,-0.007812,-0.0,0.003311,0.1528,0.03308,180.5,0.0,7.0,5.0,0.0,0.0,0.0
1738834502415233135,180.4,0.02962,6.992,5.0,-0.01345,0.000196,0.003172,0.165,0.01147,179.2,0.02928,6.996,4.984,-0.007812,-0.0,0.003162,0.1606,0.0328,180.5,0.0,7.0,5.0,0.0,0.0,0.0
1738834502465229749,180.6,0.0289,6.992,5.008,-0.0138,-0.000479,0.001894,0.1628,0.01133,179.4,0.0293,6.996,4.99,-0.007812,-0.0,0.003033,0.1642,0.03265,181.0,0.0,7.0,5.0,0.0,0.0,0.0
1738834502515240669,180.9,0.02824,6.992,5.008,-0.01356,0.000435,0.000683,0.1598,0.01129,179.8,0.0293,6.996,4.992,-0.007812,-0.0,0.001296,0.1606,0.03223,181.0,0.0,7.0,5.0,0.0,0.0,0.0
1738834502565248012,181.1,0.02756,6.992,5.01,-0.01275,0.000958,-0.000253,0.1571,0.01124,179.9,0.02931,6.996,4.996,-0.007812,-0.0,0.000656,0.1588,0.03217,181.5,0.0,7.0,5.0,0.0,0.0,0.0
1738834502615224123,181.4,0.02696,6.992,5.01,-0.01167,0.001455,-0.000865,0.1552,0.01121,180.2,0.02931,6.996,4.996,-0.007812,-0.0,-0.0004363,0.1555,0.03217,181.5,0.0,7.0,5.0,0.0,0.0,0.0
1738834502665234327,181.6,0.0264,6.992,5.01,-0.01026,0.001588,-0.001303,0.1537,0.01115,180.4,0.02933,6.996,4.996,-0.007812,-0.0,-0.000886,0.1543,0.03223,182.0,0.0,7.0,5.0,0.0,0.0,0.0
1738834502715192556,181.9,0.02594,6.992,5.008,-0.00882,0.001496,-0.001558,0.1528,0.01109,180.8,0.02934,6.996,4.996,-0.003906,-0.0,-0.001426,0.1523,0.03235,182.0,0.0,7.0,5.0,0.0,0.0,0.0
1738834502765243053,182.1,0.02553,6.992,5.008,-0.00718,0.001616,-0.001717,0.1523,0.01104,180.9,0.02934,6.996,4.996,-0.003906,-0.0,-0.001609,0.1519,0.03235,182.5,0.0,7.0,5.0,0.0,0.0,0.0
1738834502815236806,182.4,0.02522,6.992,5.004,-0.005623,0.001525,-0.001821,0.1521,0.010956,181.2,0.02936,6.996,4.992,0.0,-0.0,-0.00186,0.1512,0.0326,182.5,0.0,7.0,5.0,0.0,0.0,0.0
1738834502865249633,182.6,0.02498,6.992,5.004,-0.003925,0.001415,-0.001869,0.1519,0.01089,181.4,0.02936,6.996,4.992,0.0,-0.0,-0.001863,0.1511,0.0326,183.0,0.0,7.0,5.0,0.0,0.0,0.0
1738834502915226697,182.9,0.02483,6.992,5.0,-0.002354,0.001548,-0.001931,0.1519,0.010765,181.8,0.02937,6.996,4.99,0.0,-0.0,-0.002026,0.1509,0.03275,183.0,0.0,7.0,5.0,0.0,0.0,0.0
1738834502965276956,183.1,0.02475,6.992,5.0,-0.000662,0.001586,-0.001941,0.1517,0.01064,181.9,0.02937,6.996,4.99,0.0,-0.0,-0.002033,0.1509,0.03265,183.5,0.0,7.0,5.0,0.0,0.0,0.0
1738834503015226364,183.4,0.02475,6.992,5.0,0.000839,0.001682,-0.001798,0.1517,0.010574,182.2,0.02939,6.996,4.984,0.0,-0.0,-0.001987,0.1509,0.03214,183.5,0.0,7.0,5.0,0.0,0.0,0.0
1738834503065242528,183.6,0.02483,6.992,4.996,0.002094,0.001576,-0.000495,0.1517,0.01057,182.4,0.02939,6.996,4.984,0.003906,-0.0,-0.001839,0.1509,0.0318,184.0,0.0,7.0,5.0,0.0,0.0,0.0
1738834503115278959,183.9,0.02495,6.992,4.996,0.002638,0.001539,0.000662,0.1517,0.01056,182.8,0.0294,6.996,4.98,0.003906,-0.0,-0.0001376,0.1508,0.0314,184.0,0.0,7.0,5.0,0.0,0.0,0.0
1738834503165337085,184.1,0.02509,6.992,4.992,0.002708,0.001926,0.001573,0.1531,0.01063,182.9,0.0294,6.996,4.98,0.003906,-0.0,0.000634,0.1509,0.0313,184.5,0.0,7.0,5.0,0.0,0.0,0.0
1738834503215312242,184.4,0.0252,6.992,4.992,0.002434,0.00199,0.002163,0.1543,0.010666,183.2,0.02942,6.996,4.977,0.003906,-0.0,0.001719,0.1526,0.03156,184.5,0.0,7.0,5.0,0.0,0.0,0.0
1738834503265331983,184.6,0.02533,6.992,4.992,0.001886,0.002,0.00256,0.1538,0.01067,183.4,0.02942,6.996,4.977,0.003906,-0.0,0.002007,0.1533,0.03177,185.0,0.0,7.0,5.0,0.0,0.0,0.0
1738834503315329074,184.9,0.0254,6.992,4.992,0.001185,0.002396,0.002792,0.154,0.01068,183.8,0.02943,6.996,4.977,0.003906,-0.0,0.002531,0.1527,0.03198,185.0,0.0,7.0,5.0,0.0,0.0,0.0
1738834503365268468,185.1,0.02544,6.992,4.992,0.000486,0.001976,0.002892,0.1599,0.010666,183.9,0.02943,6.996,4.977,0.003906,-0.0,0.002623,0.153,0.03198,185.5,0.0,7.0,5.0,0.0,0.0,0.0
1738834503415255784,185.4,0.02545,6.992,4.996,-0.000235,0.000591,0.003025,0.165,0.010635,184.2,0.02945,6.996,4.977,0.0,-0.0,0.002844,0.1606,0.0321,185.5,0.0,7.0,5.0,0.0,0.0,0.0
1738834503465283393,185.6,0.02542,6.992,5.0,-0.001057,0.000113,0.003126,0.1643,0.01062,184.4,0.02946,6.996,4.98,0.0,-0.0,0.002968,0.1642,0.03186,186.0,0.0,7.0,5.0,0.0,0.0,0.0
1738834503515253305,185.9,0.02534,6.992,5.004,-0.001845,0.000746,0.003122,0.1624,0.010635,184.8,0.02946,6.996,4.99,0.0,-0.0,0.003096,0.1626,0.03162,186.0,0.0,7.0,5.0,0.0,0.0,0.0
1738834503565268039,186.1,0.02522,6.992,5.008,-0.002684,0.001108,0.003101,0.1606,0.010666,184.9,0.02948,6.996,4.992,0.0,-0.0,0.003069,0.1614,0.03152,186.5,0.0,7.0,5.0,0.0,0.0,0.0
1738834503615266084,186.4,0.02509,6.992,5.01,-0.003454,0.001558,0.003103,0.1593,0.01071,185.2,0.02948,6.996,4.996,0.0,-0.0,0.003035,0.1593,0.0315,186.5,0.0,7.0,5.0,0.0,0.0,0.0
1738834503665267705,186.6,0.02487,6.992,5.01,-0.004284,0.001657,0.003119,0.1583,0.01076,185.4,0.0295,6.996,4.996,0.0,-0.0,0.003027,0.1584,0.0316,187.0,0.0,7.0,5.0,0.0,0.0,0.0
1738834503715249300,186.9,0.02466,6.992,5.01,-0.005047,0.001418,0.003098,0.1576,0.01077,185.8,0.02951,6.996,4.996,0.0,-0.0,0.003086,0.1571,0.0315,187.0,0.0,7.0,5.0,0.0,0.0,0.0
1738834503765272855,187.1,0.0244,6.992,5.01,-0.005787,0.0013,0.0031,0.1559,0.01083,185.9,0.002995,6.996,5.0,0.0,-0.0,0.003,0.1567,0.0316,187.5,0.0,7.0,5.0,0.0,0.0,0.0
1738834503815264701,187.4,0.02408,6.992,5.01,-0.0066,0.001574,0.003082,0.1544,0.01086,186.2,0.003006,6.996,5.0,0.0,-0.0,0.002975,0.1544,0.03174,187.5,0.0,7.0,5.0,0.0,0.0,0.0
1738834503865357398,187.6,0.02371,6.992,5.01,-0.007385,0.001854,0.003069,0.1533,0.010864,186.4,0.003012,6.996,5.0,0.0,-0.0,0.003054,0.1536,0.03183,188.0,0.0,7.0,5.0,0.0,0.0,0.0
1738834503915255069,187.9,0.02333,6.992,5.01,-0.00809,0.002033,0.002953,0.1528,0.01086,186.8,0.003023,6.996,4.996,-0.003906,-0.0,0.003052,0.1521,0.0321,188.0,0.0,7.0,5.0,0.0,0.0,0.0
1738834503965283870,188.1,0.02293,6.992,5.008,-0.00848,0.001931,0.001751,0.1536,0.01082,186.9,0.003029,6.996,4.996,-0.003906,-0.0,0.002882,0.152,0.03217,188.5,0.0,7.0,5.0,0.0,0.0,0.0
1738834504015263319,188.4,0.02246,6.992,5.008,-0.008194,0.001519,0.000406,0.1545,0.01079,187.2,0.00304,6.996,4.996,-0.003906,-0.0,0.001184,0.1531,0.03238,188.5,0.0,7.0,5.0,0.0,0.0,0.0
1738834504065464496,188.6,0.0221,6.992,5.008,-0.007458,0.001358,-0.00043,0.1539,0.01071,187.4,0.003046,6.996,4.992,-0.003906,-0.0,0.000417,0.1537,0.0324,189.0,0.0,7.0,5.0,0.0,0.0,0.0
1738834504115319490,188.9,0.02176,6.992,5.008,-0.006413,0.001321,-0.001002,0.1533,0.01066,187.8,0.003057,6.996,4.992,0.0,-0.0,-0.0008097,0.1528,0.0324,189.0,0.0,7.0,5.0,0.0,0.0,0.0
1738834504165320158,189.1,0.02145,6.992,5.004,-0.00504,0.001439,-0.001384,0.1527,0.01058,187.9,0.003063,6.996,4.992,0.0,-0.0,-0.001064,0.1523,0.03256,189.5,0.0,7.0,5.0,0.0,0.0,0.0
1738834504215324878,189.4,0.02126,6.992,5.004,-0.00366,0.001385,-0.001615,0.1523,0.010506,188.2,0.003073,6.996,4.992,0.0,-0.0,-0.001503,0.1517,0.03262,189.5,0.0,7.0,5.0,0.0,0.0,0.0
1738834504265352964,189.6,0.0211,6.992,5.004,-0.002214,0.001189,-0.001742,0.1521,0.01038,188.4,0.00308,6.996,4.99,0.0,-0.0,-0.00167,0.1514,0.03278,190.0,0.0,7.0,5.0,0.0,0.0,0.0
1738834504315322875,189.9,0.02104,6.992,5.0,-0.000626,0.001168,-0.001823,0.1523,0.01029,188.8,0.003092,6.996,4.99,0.0,-0.0,-0.001863,0.1511,0.0326,190.0,0.0,7.0,5.0,0.0,0.0,0.0
1738834504365319728,190.1,0.02104,6.992,5.0,0.001003,0.000943,-0.00193,0.1576,0.010216,188.9,0.003098,6.996,4.984,0.0,-0.0,-0.00187,0.1515,0.0324,190.5,0.0,7.0,5.0,0.0,0.0,0.0
1738834504415331840,190.4,0.02113,6.992,5.004,0.002539,0.000311,-0.001942,0.162,0.010124,189.2,0.003107,6.996,4.984,0.003906,-0.0,-0.002024,0.1581,0.0324,190.5,0.0,7.0,5.0,0.0,0.0,0.0
1738834504465335369,190.6,0.02129,6.992,5.004,0.00407,0.000426,-0.00193,0.1608,0.01005,189.4,0.003115,6.996,4.99,0.003906,-0.0,-0.001982,0.161,0.03232,191.0,0.0,7.0,5.0,0.0,0.0,0.0
1738834504515334606,190.9,0.02155,6.996,5.008,0.0057,0.001475,-0.001999,0.1581,0.01,189.8,0.003126,6.996,4.992,0.007812,-0.0,-0.002043,0.1586,0.03204,191.0,0.0,7.0,5.0,0.0,0.0,0.0
1738834504565347671,191.1,0.02185,6.996,5.008,0.007202,0.001978,-0.002047,0.1561,0.009964,189.9,0.003132,6.996,4.992,0.007812,-0.0,-0.002054,0.1573,0.03214,191.5,0.0,7.0,5.0,0.0,0.0,0.0
1738834504615356683,191.4,0.02228,6.996,5.008,0.00881,0.001995,-0.00205,0.1544,0.00995,190.2,0.003143,6.996,4.992,0.007812,-0.0,-0.0021,0.1547,0.03214,191.5,0.0,7.0,5.0,0.0,0.0,0.0
1738834504665392160,191.6,0.02274,6.996,5.008,0.010284,0.001869,-0.002077,0.1545,0.00989,190.4,0.003149,6.996,4.992,0.01172,-0.0,-0.00211,0.1536,0.03223,192.0,0.0,7.0,5.0,0.0,0.0,0.0
1738834504715358972,191.9,0.02332,6.996,5.008,0.01187,0.001597,-0.002102,0.1552,0.00981,190.8,0.00316,6.996,4.992,0.01172,-0.0,-0.002104,0.1539,0.03223,192.0,0.0,7.0,5.0,0.0,0.0,0.0
1738834504765351533,192.1,0.02397,6.996,5.008,0.01345,0.001435,-0.002106,0.1558,0.009766,190.9,0.003166,6.996,4.992,0.01172,-0.0,-0.002188,0.1542,0.03223,192.5,0.0,7.0,5.0,0.0,0.0,0.0
1738834504815374135,192.4,0.02464,6.996,5.008,0.01488,0.001265,-0.002096,0.156,0.0097,191.2,0.0297,6.996,4.992,0.01563,-0.0,-0.002169,0.1549,0.0323,192.5,0.0,7.0,5.0,0.0,0.0,0.0
1738834504865376472,192.6,0.02539,6.996,5.008,0.0163,0.001334,-0.002077,0.1552,0.009636,191.4,0.0297,6.996,4.992,0.01563,-0.0,-0.002167,0.155,0.0323,193.0,0.0,7.0,5.0,0.0,0.0,0.0
1738834504915349721,192.9,0.02629,6.996,5.008,0.01779,0.001584,-0.002115,0.1542,0.009544,191.8,0.02971,6.996,4.992,0.01953,-0.0,-0.002182,0.1537,0.03238,193.0,0.0,7.0,5.0,0.0,0.0,0.0
1738834504965335130,193.1,0.02718,6.996,5.008,0.01917,0.001755,-0.002115,0.1545,0.00949,191.9,0.02971,6.996,4.992,0.01953,-0.0,-0.002102,0.1532,0.03238,193.5,0.0,7.0,5.0,0.0,0.0,0.0
1738834505015266656,193.4,0.02821,6.996,5.004,0.02061,0.001405,-0.001963,0.1552,0.00939,192.2,0.02972,6.996,4.992,0.01953,-0.0,-0.00218,0.1538,0.03238,193.5,0.0,7.0,5.0,0.0,0.0,0.0
1738834505065334081,193.6,0.02931,6.996,5.004,0.02165,0.001142,-0.000631,0.1543,0.009315,192.4,0.02974,6.996,4.99,0.02344,-0.0,-0.001999,0.1542,0.0324,194.0,0.0,7.0,5.0,0.0,0.0,0.0
1738834505115326166,193.9,0.03036,6.996,5.004,0.02199,0.00085,0.000553,0.1536,0.0092,192.8,0.02974,6.996,4.99,0.02344,-0.0,-0.0001959,0.1531,0.03244,194.0,0.0,7.0,5.0,0.0,0.0,0.0
1738834505165330410,194.1,0.0314,6.996,5.004,0.02184,0.000668,0.00141,0.1542,0.0091,192.9,0.02975,6.996,4.99,0.02344,-0.0,0.0004094,0.1528,0.0325,194.5,0.0,7.0,5.0,0.0,0.0,0.0
1738834505215301990,194.4,0.03253,6.996,5.004,0.02127,0.000649,0.00208,0.155,0.00902,193.2,0.02975,6.996,4.99,0.02344,-0.0,0.0016365,0.1536,0.0325,194.5,0.0,7.0,5.0,0.0,0.0,0.0
1738834505265286207,194.6,0.03354,6.996,5.004,0.02051,0.00067,0.002476,0.1544,0.00889,193.4,0.02977,6.996,4.99,0.02344,-0.0,0.001993,0.1542,0.03253,195.0,0.0,7.0,5.0,0.0,0.0,0.0
1738834505315231323,194.9,0.03458,6.996,5.004,0.01953,0.00132,0.002707,0.154,0.0088,193.8,0.02979,6.996,4.99,0.02344,-0.0,0.002499,0.1531,0.03256,195.0,0.0,7.0,5.0,0.0,0.0,0.0
1738834505365327358,195.1,0.03555,6.996,5.004,0.01848,0.001476,0.002806,0.1587,0.00868,193.9,0.02979,6.996,4.99,0.01953,-0.0,0.002672,0.1531,0.0326,195.5,0.0,7.0,5.0,0.0,0.0,0.0
1738834505415399312,195.4,0.03644,6.996,5.004,0.01749,0.000351,0.002895,0.1624,0.00857,194.2,0.0298,6.996,4.99,0.01953,-0.0,0.002768,0.1592,0.03253,195.5,0.0,7.0,5.0,0.0,0.0,0.0
1738834505465321302,195.6,0.03732,6.996,5.008,0.01637,0.000238,0.002987,0.1602,0.00847,194.4,0.0298,6.996,4.99,0.01953,-0.0,0.00279,0.1614,0.03235,196.0,0.0,7.0,5.0,0.0,0.0,0.0
1738834505515241146,195.9,0.03806,6.996,5.01,0.01531,0.001006,0.002977,0.1577,0.008415,194.8,0.02982,6.996,4.992,0.01953,-0.0,0.002892,0.1583,0.0321,196.0,0.0,7.0,5.0,0.0,0.0,0.0
1738834505565270185,196.1,0.0388,6.996,5.01,0.01427,0.001452,0.002945,0.1559,0.008385,194.9,0.02982,6.996,4.996,0.01563,-0.0,0.002863,0.1569,0.032,196.5,0.0,7.0,5.0,0.0,0.0,0.0
1738834505615316390,196.4,0.0395,6.996,5.01,0.01316,0.001687,0.002934,0.1542,0.008316,194.9,0.02982,6.996,4.996,0.01563,-0.0,0.002863,0.1569,0.032,196.5,0.0,7.0,5.0,0.0,0.0,0.0
1738834505665315866,196.6,0.0401,6.996,5.008,0.01213,0.001439,0.002954,0.1532,0.00827,194.9,0.02982,6.996,4.996,0.01563,-0.0,0.002863,0.1569,0.032,197.0,0.0,7.0,5.0,0.0,0.0,0.0
1738834505715292215,196.9,0.04065,6.996,5.008,0.01111,0.000983,0.002949,0.1525,0.00823,194.9,0.02982,6.996,4.996,0.01563,-0.0,0.002863,0.1569,0.032,197.0,0.0,7.0,5.0,0.0,0.0,0.0
1738834505765301227,197.1,0.04123,6.996,5.004,0.009926,0.000453,0.00292,0.1521,0.00816,195.9,0.02986,6.996,4.992,0.01172,-0.0,0.002855,0.1516,0.0319,197.5,0.0,7.0,5.0,0.0,0.0,0.0
1738834505815243959,197.4,0.0417,6.996,5.004,0.00894,0.001244,0.002876,0.1545,0.00816,196.2,0.02986,6.996,4.99,0.01172,-0.0,0.002815,0.1511,0.03146,197.5,0.0,7.0,5.0,0.0,0.0,0.0
1738834505865310430,197.6,0.0421,6.996,5.008,0.00804,3.8e-05,0.002785,0.1722,0.00819,196.4,0.02988,6.996,4.99,0.01172,-0.0,0.002848,0.1536,0.0314,198.0,0.0,7.0,5.0,0.0,0.0,0.0
1738834505915236711,197.9,0.0425,6.996,5.02,0.00717,-0.004436,0.002869,0.1886,0.00822,196.8,0.02989,6.996,4.996,0.01172,-0.0,0.00274,0.1798,0.03137,198.0,0.0,7.0,5.0,0.0,0.0,0.0
1738834505965322971,198.1,0.04282,6.996,5.035,0.00634,-0.005516,0.003,0.1838,0.00824,196.9,0.02989,6.996,5.008,0.007812,-0.003906,0.002869,0.1876,0.0314,198.5,0.0,7.0,5.0,0.0,0.0,0.0
1738834506015233516,198.4,0.04312,6.996,5.047,0.0054,-0.002531,0.002901,0.1744,0.00828,197.2,0.0299,6.996,5.027,0.007812,-0.003906,0.003,0.1796,0.03137,198.5,0.0,7.0,5.0,0.0,0.0,0.0
1738834506065328121,198.6,0.04337,6.996,5.055,0.00455,-0.000667,0.00286,0.1675,0.00831,197.4,0.0299,6.996,5.035,0.007812,-0.0,0.002815,0.1736,0.03134,199.0,0.0,7.0,5.0,0.0,0.0,0.0
1738834506115231037,198.9,0.04358,6.996,5.06,0.003632,0.001091,0.002821,0.1611,0.00835,197.8,0.02992,6.996,5.043,0.007812,-0.0,0.00283,0.1637,0.03134,199.0,0.0,7.0,5.0,0.0,0.0,0.0
1738834506165305376,199.1,0.04373,6.996,5.06,0.002785,0.001966,0.00283,0.156,0.008415,197.9,0.02992,6.996,5.043,0.007812,-0.0,0.002768,0.1603,0.03122,199.5,0.0,7.0,5.0,0.0,0.0,0.0
1738834506215244770,199.4,0.04385,6.996,5.06,0.001853,0.002295,0.00285,0.1521,0.008446,198.2,0.02994,6.996,5.043,0.007812,-0.0,0.002762,0.1536,0.03137,199.5,0.0,7.0,5.0,0.0,0.0,0.0
1738834506265273809,199.6,0.0439,6.996,5.055,0.00098,0.002213,0.002886,0.1497,0.00851,198.4,0.02995,6.996,5.043,0.003906,-0.0,0.002722,0.1511,0.03137,200.0,0.0,7.0,5.0,0.0,0.0,0.0
1738834506315229415,199.9,0.04395,6.996,5.05,4e-05,0.002413,0.00287,0.1488,0.00857,198.8,0.02995,6.996,5.035,0.003906,-0.0,0.002832,0.1481,0.0312,200.0,0.0,7.0,5.0,0.0,0.0,0.0
1738834506365274667,200.1,0.0439,6.996,5.047,-0.00081,0.002037,0.002855,0.1519,0.00864,198.9,0.02997,6.996,5.035,0.003906,-0.0,0.002825,0.148,0.03111,200.5,0.0,7.0,5.0,0.0,0.0,0.0
1738834506415247678,200.4,0.04385,6.996,5.043,-0.001701,0.000956,0.002903,0.1544,0.00874,199.2,0.02998,6.996,5.027,0.0,-0.0,0.002798,0.1521,0.03104,200.5,0.0,7.0,5.0,0.0,0.0,0.0
1738834506465245485,200.6,0.04376,6.996,5.043,-0.002525,0.000823,0.00292,0.1517,0.008804,199.5,0.02998,6.996,5.027,0.0,-0.0,0.002834,0.1536,0.03122,201.0,0.0,7.0,5.0,0.0,0.0,0.0
1738834506515212774,200.9,0.0436,6.996,5.04,-0.00343,0.001328,0.002922,0.1484,0.00891,199.8,0.03,6.996,5.023,0.0,-0.0,0.002853,0.1493,0.0312,201.0,0.0,7.0,5.0,0.0,0.0,0.0
1738834506565186738,201.1,0.04343,6.996,5.035,-0.004253,0.001301,0.002907,0.146,0.00899,200.0,0.03,6.996,5.023,0.0,-0.0,0.002825,0.1476,0.0312,201.5,0.0,7.0,5.0,0.0,0.0,0.0
1738834506615226507,201.4,0.04318,6.996,5.027,-0.00514,0.001156,0.0029,0.144,0.009094,200.2,0.03001,6.996,5.016,0.0,-0.0,0.002775,0.1444,0.03119,201.5,0.0,7.0,5.0,0.0,0.0,0.0
1738834506665186882,201.6,0.0429,6.996,5.02,-0.005947,0.001009,0.002934,0.143,0.00917,200.5,0.03001,6.996,5.01,0.0,-0.0,0.002756,0.1432,0.03117,202.0,0.0,7.0,5.0,0.0,0.0,0.0
1738834506715376377,202.0,0.04257,6.996,5.016,-0.006832,0.001049,0.002962,0.1422,0.00926,200.8,0.03003,6.996,5.004,0.0,-0.0,0.002832,0.1417,0.03134,202.0,0.0,7.0,5.0,0.0,0.0,0.0
1738834506765214204,202.1,0.04224,6.996,5.008,-0.007652,0.001054,0.002966,0.1418,0.00933,201.0,0.03004,6.996,5.0,0.0,-0.0,0.002827,0.1414,0.03134,202.5,0.0,7.0,5.0,0.0,0.0,0.0
1738834506815237998,202.5,0.0418,6.996,5.0,-0.00852,0.001004,0.002987,0.1418,0.0094,201.2,0.03004,6.996,4.99,0.0,-0.0,0.002825,0.1409,0.03143,202.5,0.0,7.0,5.0,0.0,0.0,0.0
1738834506865196466,202.6,0.04138,6.996,4.992,-0.00932,0.000689,0.003008,0.143,0.00942,201.5,0.03006,6.996,4.984,-0.003906,-0.0,0.002924,0.141,0.03162,203.0,0.0,7.0,5.0,0.0,0.0,0.0
1738834506915239095,203.0,0.04086,6.996,4.99,-0.010185,0.000196,0.003027,0.1442,0.0095,201.8,0.03008,6.996,4.977,-0.003906,-0.0,0.00287,0.1426,0.0317,203.0,0.0,7.0,5.0,0.0,0.0,0.0
1738834506965202331,203.1,0.04034,6.996,4.984,-0.01097,-0.000149,0.00305,0.1449,0.009514,202.0,0.03008,6.996,4.973,-0.003906,-0.0,0.002962,0.1432,0.03162,203.5,0.0,7.0,5.0,0.0,0.0,0.0
1738834507015182733,203.4,0.03976,6.996,4.977,-0.011765,-0.000386,0.002827,0.1455,0.00956,202.2,0.03009,6.996,4.965,-0.003906,-0.0,0.002977,0.1443,0.03165,203.5,0.0,7.0,5.0,0.0,0.0,0.0
1738834507065194129,203.6,0.03918,6.996,4.973,-0.01214,-0.000387,0.001562,0.146,0.0096,202.5,0.03009,6.996,4.965,-0.007812,-0.0,0.002731,0.1447,0.0317,204.0,0.0,7.0,5.0,0.0,0.0,0.0
1738834507115213394,203.9,0.03857,6.996,4.97,-0.01187,-0.000356,0.000314,0.1464,0.00966,202.8,0.0301,6.996,4.957,-0.007812,-0.0,0.0009103,0.1451,0.0316,204.0,0.0,7.0,5.0,0.0,0.0,0.0
1738834507165222644,204.1,0.03802,6.996,4.965,-0.01114,-0.000375,-0.000557,0.1478,0.00972,203.0,0.0301,6.996,4.957,-0.007812,-0.0,0.0002201,0.1455,0.03152,204.5,0.0,7.0,5.0,0.0,0.0,0.0
1738834507215267896,204.4,0.03748,6.996,4.965,-0.00995,-0.000569,-0.001192,0.1492,0.00977,203.2,0.03012,6.996,4.95,-0.003906,-0.0,-0.000794,0.1475,0.03146,204.5,0.0,7.0,5.0,0.0,0.0,0.0
1738834507265236139,204.6,0.03702,6.996,4.96,-0.00862,-0.000466,-0.001578,0.15,0.00985,203.5,0.03014,6.996,4.95,-0.003906,-0.0,-0.001223,0.1482,0.03134,205.0,0.0,7.0,5.0,0.0,0.0,0.0
1738834507315262556,204.9,0.03662,6.996,4.96,-0.00702,-0.00018,-0.001829,0.1515,0.00997,203.8,0.03014,6.996,4.945,-0.003906,-0.0,-0.001819,0.1495,0.0312,205.0,0.0,7.0,5.0,0.0,0.0,0.0
1738834507365213394,205.1,0.03632,6.996,4.96,-0.005444,-0.000452,-0.001993,0.157,0.01008,203.9,0.03015,6.996,4.945,0.0,-0.0,-0.001894,0.1506,0.03111,205.5,0.0,7.0,5.0,0.0,0.0,0.0
1738834507415248155,205.4,0.0361,6.996,4.96,-0.003822,-0.001549,-0.001893,0.1621,0.010185,204.2,0.03017,6.996,4.945,0.0,-0.0,-0.002106,0.1581,0.03134,205.5,0.0,7.0,5.0,0.0,0.0,0.0
1738834507465214490,205.6,0.03592,6.996,4.97,-0.002405,-0.00207,-0.000633,0.1674,0.01029,204.5,0.03017,6.996,4.95,0.0,-0.0,-0.00197,0.1616,0.03128,206.0,0.0,7.0,5.0,0.0,0.0,0.0
1738834507515257358,205.9,0.03583,6.996,4.977,-0.00162,-0.002766,0.000613,0.1707,0.01042,204.8,0.03018,6.996,4.957,0.0,-0.0,-0.0001341,0.1683,0.03125,206.0,0.0,7.0,5.0,0.0,0.0,0.0
1738834507565216064,206.1,0.03577,6.996,4.984,-0.001384,-0.00267,0.001471,0.168,0.010506,204.9,0.03018,6.996,4.96,0.0,-0.0,0.000515,0.1698,0.0315,206.5,0.0,7.0,5.0,0.0,0.0,0.0
1738834507615283489,206.4,0.03568,6.996,4.99,-0.001507,-0.001904,0.002026,0.1647,0.01057,205.2,0.0302,6.996,4.973,0.0,-0.0,0.001672,0.1659,0.0316,206.5,0.0,7.0,5.0,0.0,0.0,0.0
1738834507665233612,206.6,0.03558,6.996,4.996,-0.001929,-0.001177,0.002457,0.1617,0.01066,205.5,0.03021,6.996,4.977,0.0,-0.0,0.002052,0.1633,0.03143,207.0,0.0,7.0,5.0,0.0,0.0,0.0
1738834507715324163,206.9,0.0355,6.996,4.996,-0.002413,-0.000668,0.002699,0.16,0.01075,205.8,0.03021,6.996,4.98,0.0,-0.0,0.00243,0.1602,0.03137,207.0,0.0,7.0,5.0,0.0,0.0,0.0
1738834507765235424,207.1,0.03537,6.996,5.0,-0.00308,-0.000399,0.002874,0.1587,0.01086,205.9,0.03023,6.996,4.984,0.0,-0.0,0.002594,0.159,0.03146,207.5,0.0,7.0,5.0,0.0,0.0,0.0
1738834507815308332,207.4,0.0352,6.996,5.0,-0.003807,-5.7e-05,0.002968,0.1586,0.010925,206.2,0.03024,6.996,4.984,0.0,-0.0,0.002836,0.1575,0.0316,207.5,0.0,7.0,5.0,0.0,0.0,0.0
1738834507865467786,207.6,0.035,6.996,5.004,-0.004433,-0.000305,0.002993,0.1627,0.010994,206.4,0.03024,6.996,4.99,0.0,-0.0,0.002935,0.1577,0.03168,208.0,0.0,7.0,5.0,0.0,0.0,0.0
1738834507915313243,207.9,0.03476,6.996,5.008,-0.005154,-0.001207,0.003078,0.1674,0.01109,206.8,0.03026,6.996,4.992,0.0,-0.0,0.002953,0.1646,0.0316,208.0,0.0,7.0,5.0,0.0,0.0,0.0
1738834507965231895,208.1,0.03445,6.996,5.016,-0.005905,-0.001021,0.003174,0.1648,0.011154,206.9,0.03026,6.996,4.996,0.0,-0.0,0.002972,0.1666,0.03143,208.5,0.0,7.0,5.0,0.0,0.0,0.0
1738834508015286207,208.4,0.03415,6.996,5.016,-0.006634,0.00038,0.003185,0.161,0.01127,207.2,0.03027,6.992,5.0,0.0,-0.0,0.003063,0.1625,0.03125,208.5,0.0,7.0,5.0,0.0,0.0,0.0
1738834508065234899,208.6,0.03378,6.996,5.02,-0.007435,0.001198,0.003212,0.1577,0.01139,207.4,0.03027,6.992,5.004,0.0,-0.0,0.003119,0.1599,0.03134,209.0,0.0,7.0,5.0,0.0,0.0,0.0
1738834508115261554,208.9,0.0334,6.996,5.02,-0.00823,0.001661,0.003195,0.1553,0.01148,207.6,0.03029,6.992,5.004,0.0,-0.0,0.003094,0.158,0.03143,209.0,0.0,7.0,5.0,0.0,0.0,0.0
1738834508165207386,209.1,0.03293,6.996,5.02,-0.009026,0.002115,0.003202,0.1537,0.01158,208.0,0.0303,6.992,5.004,0.0,-0.0,0.003048,0.1544,0.0316,209.5,0.0,7.0,5.0,0.0,0.0,0.0
1738834508215241909,209.4,0.03253,6.996,5.016,-0.00969,0.002085,0.003195,0.1527,0.01163,208.2,0.0303,6.992,5.004,-0.003906,-0.0,0.003126,0.1526,0.03183,209.5,0.0,7.0,5.0,0.0,0.0,0.0
1738834508265347957,209.6,0.03198,6.996,5.016,-0.010475,0.002132,0.003193,0.1508,0.01166,208.4,0.03032,6.992,5.004,-0.003906,-0.0,0.003132,0.1517,0.0321,210.0,0.0,7.0,5.0,0.0,0.0,0.0
1738834508315514564,209.9,0.03143,6.996,5.01,-0.01127,0.002556,0.003214,0.1499,0.0117,208.8,0.03033,6.996,5.0,-0.003906,-0.0,0.003077,0.149,0.03192,210.0,0.0,7.0,5.0,0.0,0.0,0.0
1738834508365232706,210.1,0.03087,6.996,5.01,-0.011986,0.002222,0.003239,0.1539,0.01175,209.0,0.03033,6.996,4.996,-0.003906,-0.0,0.003162,0.149,0.03192,210.5,0.0,7.0,5.0,0.0,0.0,0.0
1738834508415256738,210.4,0.03027,6.996,5.01,-0.01268,0.001008,0.003283,0.1582,0.011765,209.2,0.03035,6.996,4.996,-0.003906,-0.0,0.003176,0.1548,0.032,210.5,0.0,7.0,5.0,0.0,0.0,0.0
1738834508465228557,210.6,0.0296,6.996,5.01,-0.01341,5e-05,0.003284,0.1628,0.01182,209.4,0.03035,6.996,4.996,-0.007812,-0.0,0.003225,0.1577,0.03204,211.0,0.0,7.0,5.0,0.0,0.0,0.0
1738834508515249967,211.0,0.02882,6.996,5.016,-0.01417,-0.00133,0.003298,0.1655,0.01183,209.6,0.03036,6.996,4.996,-0.007812,-0.0,0.00319,0.1604,0.03214,211.0,0.0,7.0,5.0,0.0,0.0,0.0
1738834508565191984,211.1,0.0282,6.996,5.02,-0.01477,-0.001331,0.00334,0.1615,0.01188,209.9,0.03038,6.996,5.004,-0.007812,-0.0,0.003233,0.1648,0.0318,211.5,0.0,7.0,5.0,0.0,0.0,0.0
1738834508615268945,211.4,0.0274,6.996,5.023,-0.0155,2.3e-05,0.003284,0.1576,0.01196,210.2,0.03038,6.996,5.008,-0.007812,-0.0,0.003304,0.1589,0.0317,211.5,0.0,7.0,5.0,0.0,0.0,0.0
1738834508665226221,211.6,0.02664,6.996,5.023,-0.01613,0.000221,0.00322,0.1606,0.01202,210.5,0.0304,6.996,5.008,-0.007812,-0.0,0.003187,0.1567,0.03177,212.0,0.0,7.0,5.0,0.0,0.0,0.0
1738834508715245008,211.9,0.02585,6.996,5.027,-0.0167,-0.000793,0.003105,0.1633,0.012054,210.6,0.0304,6.996,5.008,-0.007812,-0.0,0.003124,0.1582,0.03177,212.0,0.0,7.0,5.0,0.0,0.0,0.0
1738834508765210628,212.1,0.02498,6.996,5.03,-0.01695,-0.000844,0.00184,0.1595,0.01213,210.9,0.03041,6.996,5.01,-0.007812,-0.0,0.003021,0.1625,0.03177,212.5,0.0,7.0,5.0,0.0,0.0,0.0
1738834508815242767,212.4,0.02417,6.996,5.03,-0.01662,0.000422,0.000648,0.1562,0.0122,211.2,0.03043,6.996,5.016,-0.007812,-0.0,0.001372,0.1572,0.0317,212.5,0.0,7.0,5.0,0.0,0.0,0.0
1738834508865226745,212.6,0.02333,6.996,5.03,-0.0157,0.000435,-0.000322,0.1597,0.01226,211.5,0.03044,6.996,5.016,-0.007812,-0.0,0.0004077,0.1555,0.0319,213.0,0.0,7.0,5.0,0.0,0.0,0.0
1738834508915247917,212.9,0.0226,6.996,5.03,-0.01448,-0.000696,-0.000883,0.1627,0.01231,211.6,0.03044,6.996,5.016,-0.007812,-0.0,-0.000249,0.1576,0.03192,213.0,0.0,7.0,5.0,0.0,0.0,0.0
1738834508965249061,213.1,0.0219,6.996,5.035,-0.012924,-0.000577,-0.001269,0.1593,0.01236,212.0,0.03046,6.996,5.02,-0.007812,-0.0,-0.0009646,0.1619,0.0319,213.5,0.0,7.0,5.0,0.0,0.0,0.0
1738834509015252113,213.4,0.02132,6.996,5.035,-0.011375,0.00079,-0.001541,0.156,0.01242,212.2,0.003952,6.996,5.023,-0.003906,-0.0,-0.00148,0.157,0.03183,213.5,0.0,7.0,5.0,0.0,0.0,0.0
1738834509065240859,213.6,0.02077,6.996,5.035,-0.0096,0.00137,-0.001726,0.1582,0.01248,212.5,0.00396,6.992,5.023,-0.003906,-0.0,-0.001589,0.1552,0.03192,214.0,0.0,7.0,5.0,0.0,0.0,0.0
1738834509115229845,214.0,0.02031,6.996,5.04,-0.00776,0.000677,-0.001781,0.16,0.01254,212.6,0.003963,6.992,5.02,-0.003906,-0.0,-0.0017395,0.1562,0.03198,214.0,0.0,7.0,5.0,0.0,0.0,0.0
1738834509165245771,214.1,0.01999,6.996,5.04,-0.006077,0.000805,-0.001781,0.1556,0.01256,213.0,0.00398,6.992,5.023,0.0,-0.0,-0.001866,0.1592,0.03198,214.5,0.0,7.0,5.0,0.0,0.0,0.0
1738834509215268135,214.4,0.01973,6.996,5.035,-0.004436,0.001843,-0.001791,0.1515,0.0126,213.2,0.00399,6.992,5.023,0.0,-0.0,-0.001865,0.153,0.03214,214.5,0.0,7.0,5.0,0.0,0.0,0.0
1738834509265279054,214.8,0.01955,6.996,5.035,-0.002672,0.001959,-0.001851,0.1542,0.0126,213.5,0.003998,6.996,5.02,0.0,-0.0,-0.001891,0.1505,0.03232,215.0,0.0,7.0,5.0,0.0,0.0,0.0
1738834509315311908,214.9,0.01945,6.996,5.035,-0.001031,0.00059,-0.001822,0.1578,0.01262,213.6,0.004,6.996,5.02,0.0,-0.0,-0.001859,0.1521,0.0324,215.0,0.0,7.0,5.0,0.0,0.0,0.0
1738834509365249633,215.1,0.01945,6.996,5.035,0.000598,-0.000151,-0.001797,0.1595,0.01257,214.0,0.004017,6.996,5.02,0.003906,-0.0,-0.001945,0.1571,0.0325,215.5,0.0,7.0,5.0,0.0,0.0,0.0
1738834509415334701,215.5,0.01953,6.996,5.035,0.002462,-0.000344,-0.001761,0.161,0.01257,214.2,0.00403,6.996,5.02,0.003906,-0.0,-0.001836,0.1593,0.03232,215.5,0.0,7.0,5.0,0.0,0.0,0.0
1738834509465296268,215.8,0.0197,6.996,5.04,0.00405,-0.000463,-0.001768,0.163,0.012566,214.5,0.004036,6.996,5.023,0.007812,-0.0,-0.001812,0.1604,0.0324,216.0,0.0,7.0,5.0,0.0,0.0,0.0
1738834509515337944,216.0,0.01993,6.996,5.043,0.005634,-0.001118,-0.001787,0.1637,0.01255,214.6,0.004044,6.996,5.023,0.007812,-0.0,-0.0018,0.1615,0.03232,216.0,0.0,7.0,5.0,0.0,0.0,0.0
1738834509565297603,216.2,0.02026,6.996,5.043,0.007317,-0.000665,-0.001778,0.1582,0.01257,215.0,0.004055,6.996,5.027,0.007812,-0.0,-0.0018015,0.1627,0.03207,216.5,0.0,7.0,5.0,0.0,0.0,0.0
1738834509615321397,216.5,0.02066,6.996,5.043,0.00883,0.001111,-0.00179,0.1534,0.0126,215.2,0.004066,6.992,5.03,0.01172,-0.0,-0.0018425,0.1553,0.03198,216.5,0.0,7.0,5.0,0.0,0.0,0.0
1738834509665275812,216.8,0.02115,6.996,5.043,0.010445,0.001663,-0.00184,0.1545,0.012634,215.5,0.004078,6.992,5.027,0.01172,-0.0,-0.001787,0.1523,0.03217,217.0,0.0,7.0,5.0,0.0,0.0,0.0
1738834509715312480,217.0,0.0217,6.996,5.04,0.01194,0.00079,-0.00182,0.1558,0.01263,215.6,0.00408,6.996,5.027,0.01172,-0.0,-0.001944,0.1531,0.03223,217.0,0.0,7.0,5.0,0.0,0.0,0.0
1738834509765255451,217.2,0.02235,6.996,5.04,0.01351,0.000642,-0.001795,0.1509,0.012596,216.0,0.03061,6.996,5.027,0.01563,-0.0,-0.001909,0.1548,0.03232,217.5,0.0,7.0,5.0,0.0,0.0,0.0
1738834509815328359,217.5,0.02304,6.996,5.035,0.014915,0.001851,-0.001826,0.1469,0.012596,216.2,0.03062,6.996,5.023,0.01563,-0.0,-0.001842,0.1482,0.03232,217.5,0.0,7.0,5.0,0.0,0.0,0.0
1738834509865238189,217.8,0.02385,6.996,5.03,0.01642,0.001728,-0.001841,0.1499,0.012566,216.5,0.03062,6.996,5.02,0.01953,-0.0,-0.001882,0.1461,0.03223,218.0,0.0,7.0,5.0,0.0,0.0,0.0
1738834509915398359,218.0,0.02467,6.996,5.027,0.01779,0.000416,-0.001667,0.1532,0.01259,216.6,0.03064,6.996,5.016,0.01953,-0.0,-0.001955,0.1475,0.03214,218.0,0.0,7.0,5.0,0.0,0.0,0.0
1738834509965229988,218.2,0.02563,6.996,5.027,0.01889,-0.000333,-0.000305,0.1549,0.01257,217.0,0.03065,6.996,5.01,0.01953,-0.0,-0.001611,0.1526,0.03217,218.5,0.0,7.0,5.0,0.0,0.0,0.0
1738834510015317678,218.5,0.02655,6.996,5.027,0.01929,-0.000632,0.00086,0.156,0.01255,217.4,0.03065,6.996,5.01,0.02344,-0.0,0.0001684,0.1544,0.03238,218.5,0.0,7.0,5.0,0.0,0.0,0.0
1738834510065246820,218.8,0.02756,6.996,5.027,0.0192,-0.000757,0.001788,0.1578,0.012535,217.5,0.03067,6.996,5.01,0.02344,-0.0,0.0008726,0.1553,0.03235,219.0,0.0,7.0,5.0,0.0,0.0,0.0
1738834510115407705,219.0,0.02847,6.996,5.027,0.01875,-0.001153,0.002401,0.1588,0.012505,217.6,0.03067,6.996,5.01,0.02344,-0.0,0.001412,0.1564,0.0324,219.0,0.0,7.0,5.0,0.0,0.0,0.0
1738834510165314674,219.2,0.02942,6.996,5.027,0.018,-0.000886,0.002823,0.1545,0.01248,218.0,0.03069,6.996,5.01,0.01953,-0.0,0.002392,0.158,0.0324,219.5,0.0,7.0,5.0,0.0,0.0,0.0
1738834510215343713,219.5,0.03027,6.996,5.027,0.01714,0.000291,0.003103,0.1506,0.01244,218.2,0.0307,6.996,5.01,0.01953,-0.0,0.002815,0.1521,0.0324,219.5,0.0,7.0,5.0,0.0,0.0,0.0
1738834510265279531,219.8,0.03107,6.996,5.023,0.01591,0.001102,0.00431,0.1521,0.01245,218.5,0.03072,6.996,5.01,0.01953,-0.0,0.003206,0.1497,0.03235,220.0,0.0,7.0,5.0,0.0,0.0,0.0
1738834510315292358,220.0,0.03183,6.996,5.023,0.01395,0.00056,0.00573,0.1549,0.0124,218.6,0.03072,6.996,5.008,0.01953,-0.0,0.003998,0.1506,0.03235,220.0,0.0,7.0,5.0,0.0,0.0,0.0
1738834510365304470,220.2,0.03244,6.996,5.02,0.011604,0.000236,0.006695,0.1559,0.012375,219.0,0.03073,6.996,5.008,0.01563,-0.0,0.005802,0.1543,0.03247,220.5,0.0,7.0,5.0,0.0,0.0,0.0
1738834510415313482,220.5,0.033,6.996,5.02,0.0087,0.000181,0.00725,0.1565,0.01231,219.4,0.03075,6.996,5.008,0.01172,-0.0,0.00704,0.1553,0.0326,220.5,0.0,7.0,5.0,0.0,0.0,0.0
1738834510465309858,220.8,0.03333,6.996,5.023,0.006104,-9.3e-05,0.006454,0.158,0.01224,219.5,0.03075,6.996,5.008,0.01172,-0.0,0.007133,0.1559,0.0326,221.0,0.0,7.0,5.0,0.0,0.0,0.0
1738834510515224218,221.0,0.0336,6.996,5.023,0.003803,-0.000975,0.005463,0.1587,0.01221,219.6,0.03076,6.996,5.008,0.007812,-0.0,0.006542,0.1569,0.03256,221.0,0.0,7.0,5.0,0.0,0.0,0.0
1738834510565246582,221.2,0.03372,6.996,5.023,0.001941,-0.000625,0.004745,0.1531,0.01213,220.0,0.03076,6.996,5.008,0.003906,-0.0,0.005344,0.1577,0.03256,221.5,0.0,7.0,5.0,0.0,0.0,0.0
1738834510615215778,221.5,0.03378,6.996,5.02,0.000497,0.001092,0.004215,0.1484,0.01207,220.4,0.03078,6.996,5.008,0.003906,-0.0,0.00453,0.1501,0.03262,221.5,0.0,7.0,5.0,0.0,0.0,0.0
1738834510665241956,221.8,0.03378,6.996,5.016,-0.000726,0.001636,0.003824,0.1505,0.012,220.5,0.03079,6.996,5.008,0.003906,-0.0,0.004128,0.1476,0.0324,222.0,0.0,7.0,5.0,0.0,0.0,0.0
1738834510715250968,222.0,0.03372,6.996,5.016,-0.001869,0.000418,0.003637,0.1533,0.011986,220.6,0.03079,6.996,5.004,0.0,-0.0,0.003788,0.1489,0.03223,222.0,0.0,7.0,5.0,0.0,0.0,0.0
1738834510765250444,222.2,0.0336,6.996,5.01,-0.00292,0.000127,0.003542,0.1508,0.011955,221.0,0.0308,6.996,5.0,0.0,-0.0,0.003588,0.1525,0.03223,222.5,0.0,7.0,5.0,0.0,0.0,0.0
1738834510815226316,222.5,0.03342,6.996,5.01,-0.003872,0.000921,0.003468,0.1484,0.01194,221.4,0.03082,6.996,5.0,0.0,-0.0,0.003439,0.1487,0.0322,222.5,0.0,7.0,5.0,0.0,0.0,0.0
1738834510865223646,222.8,0.03323,6.996,5.008,-0.00476,0.001083,0.00336,0.1511,0.01195,221.5,0.03082,6.996,4.996,0.0,-0.0,0.003408,0.1477,0.032,223.0,0.0,7.0,5.0,0.0,0.0,0.0
1738834510915223598,223.0,0.03296,6.996,5.004,-0.00565,-0.000127,0.003323,0.1539,0.01193,221.6,0.03084,6.996,4.992,0.0,-0.0,0.003344,0.1495,0.03192,223.0,0.0,7.0,5.0,0.0,0.0,0.0
1738834510965262889,223.2,0.03265,6.996,5.004,-0.00646,-0.000227,0.003326,0.1503,0.0119,222.0,0.03085,6.996,4.992,0.0,-0.0,0.003323,0.1531,0.03204,223.5,0.0,7.0,5.0,0.0,0.0,0.0
1738834511015198469,223.5,0.0323,6.996,5.0,-0.007355,0.001154,0.003288,0.1464,0.0119,222.4,0.03087,6.996,4.99,0.0,-0.0,0.00323,0.1473,0.032,223.5,0.0,7.0,5.0,0.0,0.0,0.0
1738834511065202713,223.8,0.03192,6.996,4.996,-0.00814,0.001317,0.003212,0.1492,0.01192,222.5,0.03087,6.996,4.99,0.0,-0.0,0.003286,0.1455,0.032,224.0,0.0,7.0,5.0,0.0,0.0,0.0
1738834511115214109,224.0,0.0315,6.996,4.996,-0.00894,-0.000215,0.003237,0.1526,0.01195,222.6,0.03088,6.996,4.984,-0.003906,-0.0,0.003218,0.1476,0.03183,224.0,0.0,7.0,5.0,0.0,0.0,0.0
1738834511165200948,224.2,0.03104,6.996,4.992,-0.009674,-0.000809,0.003244,0.1505,0.01195,223.0,0.03088,6.996,4.98,-0.003906,-0.0,0.003206,0.1517,0.03192,224.5,0.0,7.0,5.0,0.0,0.0,0.0
1738834511215206146,224.5,0.03047,6.996,4.99,-0.01054,-4e-05,0.003225,0.148,0.01198,223.4,0.0309,6.996,4.98,-0.003906,-0.0,0.003239,0.1484,0.03192,224.5,0.0,7.0,5.0,0.0,0.0,0.0
1738834511265348434,224.8,0.02989,6.996,4.99,-0.011314,1.9e-05,0.00317,0.151,0.01199,223.5,0.03091,6.996,4.977,-0.003906,-0.0,0.003206,0.1472,0.03174,225.0,0.0,7.0,5.0,0.0,0.0,0.0
1738834511315259695,224.8,0.02989,6.996,4.99,-0.011314,1.9e-05,0.00317,0.151,0.01199,223.6,0.03091,6.996,4.973,-0.003906,-0.0,0.003145,0.1488,0.03174,225.0,0.0,7.0,5.0,0.0,0.0,0.0
1738834511365301609,225.2,0.02875,6.996,4.984,-0.012634,-0.001471,0.003204,0.1569,0.012085,224.0,0.03093,6.996,4.973,-0.007812,-0.0,0.003222,0.1536,0.03177,225.5,0.0,7.0,5.0,0.0,0.0,0.0
1738834511415263891,225.5,0.02802,6.996,4.99,-0.013374,-0.001882,0.003193,0.1593,0.01209,224.2,0.03094,6.996,4.973,-0.007812,-0.0,0.003183,0.1556,0.03195,225.5,0.0,7.0,5.0,0.0,0.0,0.0
1738834511465233087,225.8,0.02753,6.996,4.99,-0.01383,-0.001978,0.003185,0.1611,0.012115,224.5,0.03094,6.996,4.973,-0.007812,-0.0,0.00323,0.1584,0.03195,226.0,0.0,7.0,5.0,0.0,0.0,0.0
1738834511515207767,226.0,0.02673,6.996,4.992,-0.01448,-0.002241,0.003033,0.1635,0.012115,224.6,0.03096,6.996,4.977,-0.007812,-0.0,0.00317,0.1602,0.03195,226.0,0.0,7.0,5.0,0.0,0.0,0.0
1738834511565250873,226.2,0.02603,6.996,5.0,-0.01471,-0.002277,0.00183,0.1636,0.01214,225.0,0.03098,6.996,4.98,-0.007812,-0.0,0.002937,0.1628,0.03177,226.5,0.0,7.0,5.0,0.0,0.0,0.0
1738834511615234136,226.5,0.02527,6.996,5.004,-0.0143,-0.001808,0.000549,0.1633,0.012215,225.4,0.03099,6.996,4.99,-0.007812,-0.0,0.001191,0.1626,0.03162,226.5,0.0,7.0,5.0,0.0,0.0,0.0
1738834511665217876,226.8,0.02461,6.996,5.008,-0.01341,-0.001641,-0.000327,0.1642,0.01229,225.5,0.03099,6.996,4.99,-0.007812,-0.0,0.0003197,0.1626,0.03156,227.0,0.0,7.0,5.0,0.0,0.0,0.0
1738834511715186595,227.0,0.02394,6.996,5.01,-0.01206,-0.001678,-0.000966,0.165,0.01237,225.6,0.031,6.996,4.992,-0.007812,-0.0,-0.000195,0.1632,0.03152,227.0,0.0,7.0,5.0,0.0,0.0,0.0
1738834511765218973,227.2,0.0234,6.996,5.016,-0.0106,-0.001567,-0.001345,0.1646,0.01243,226.0,0.031,6.996,5.0,-0.007812,-0.0,-0.000969,0.1643,0.03137,227.5,0.0,7.0,5.0,0.0,0.0,0.0
1738834511815346240,227.5,0.02289,6.996,5.02,-0.00886,-0.001085,-0.001599,0.1638,0.01255,226.2,0.03102,6.996,5.0,-0.003906,-0.0,-0.001333,0.1638,0.03125,227.5,0.0,7.0,5.0,0.0,0.0,0.0
1738834511865274190,227.8,0.0225,6.996,5.023,-0.00718,-0.001029,-0.001741,0.1646,0.01267,226.5,0.03104,6.996,5.008,-0.003906,-0.0,-0.001607,0.163,0.03122,228.0,0.0,7.0,5.0,0.0,0.0,0.0
1738834511915260553,228.0,0.02219,6.996,5.027,-0.0053,-0.001276,-0.001828,0.1652,0.0128,226.6,0.03104,6.996,5.008,0.0,-0.0,-0.001695,0.1635,0.03113,228.0,0.0,7.0,5.0,0.0,0.0,0.0
1738834511965338468,228.2,0.02199,6.996,5.03,-0.003704,-0.001332,-0.001853,0.1647,0.0129,227.0,0.00454,6.996,5.016,0.0,-0.0,-0.001863,0.1643,0.03104,228.5,0.0,7.0,5.0,0.0,0.0,0.0
1738834512015245199,228.5,0.02185,6.996,5.035,-0.00185,-0.001387,-0.001758,0.1638,0.013084,227.4,0.004555,6.996,5.02,0.0,-0.0,-0.001879,0.1633,0.03102,228.5,0.0,7.0,5.0,0.0,0.0,0.0
1738834512065236568,228.8,0.02179,6.996,5.04,-0.000331,-0.001265,-0.000537,0.1632,0.01324,227.5,0.00456,6.996,5.023,0.0,-0.0,-0.001624,0.1628,0.03105,229.0,0.0,7.0,5.0,0.0,0.0,0.0
1738834512115258216,229.0,0.0218,6.996,5.043,0.000466,-0.00106,0.000659,0.1626,0.01337,227.6,0.004566,6.992,5.023,0.0,-0.0,-0.000939,0.1625,0.03102,229.0,0.0,7.0,5.0,0.0,0.0,0.0
1738834512165170431,229.2,0.02184,6.996,5.043,0.000767,-0.000791,0.001569,0.1613,0.01354,228.0,0.00458,6.992,5.027,0.003906,-0.0,0.0008655,0.1617,0.03099,229.5,0.0,7.0,5.0,0.0,0.0,0.0
1738834512215530633,229.5,0.02187,6.996,5.047,0.000719,-0.000493,0.002111,0.1597,0.0137,228.4,0.004593,6.992,5.03,0.003906,-0.0,0.001885,0.1595,0.03116,229.5,0.0,7.0,5.0,0.0,0.0,0.0
1738834512265214443,229.8,0.02191,6.996,5.047,0.000708,-0.000415,0.001368,0.1586,0.01384,228.5,0.0046,6.992,5.03,0.003906,-0.0,0.00213,0.1587,0.03117,230.0,0.0,7.0,5.0,0.0,0.0,0.0
1738834512315181016,230.0,0.02196,6.996,5.047,0.00117,-0.000354,0.000356,0.1577,0.01398,228.6,0.00461,6.996,5.035,0.003906,-0.0,0.001523,0.1578,0.03128,230.0,0.0,7.0,5.0,0.0,0.0,0.0
1738834512365198612,230.2,0.02202,6.996,5.047,0.001986,-0.000131,-0.000325,0.1561,0.01411,229.0,0.004623,6.992,5.035,0.003906,-0.0,0.0002255,0.1567,0.03152,230.5,0.0,7.0,5.0,0.0,0.0,0.0
1738834512415336132,230.5,0.02216,6.996,5.047,0.003166,0.000263,-0.000887,0.1545,0.01419,229.4,0.004635,6.992,5.03,0.003906,-0.0,-0.000575,0.1544,0.03174,230.5,0.0,7.0,5.0,0.0,0.0,0.0
1738834512465226411,230.8,0.02234,6.996,5.047,0.00446,0.000265,-0.001218,0.1547,0.01427,229.5,0.004646,6.992,5.03,0.003906,-0.0,-0.001003,0.1537,0.03195,231.0,0.0,7.0,5.0,0.0,0.0,0.0
1738834512515202283,231.0,0.02261,6.996,5.043,0.005985,7.5e-05,-0.001433,0.1552,0.014305,229.8,0.00465,6.992,5.03,0.007812,-0.0,-0.001256,0.1538,0.032,231.0,0.0,7.0,5.0,0.0,0.0,0.0
1738834512565203905,231.2,0.02293,6.996,5.043,0.007446,5.9e-05,-0.001523,0.1544,0.01434,230.0,0.004665,6.992,5.03,0.007812,-0.0,-0.001409,0.1543,0.0322,231.5,0.0,7.0,5.0,0.0,0.0,0.0
1738834512615157604,231.5,0.02336,6.996,5.043,0.009056,0.000495,-0.001607,0.1536,0.01436,230.2,0.004673,6.992,5.027,0.007812,-0.0,-0.001499,0.1537,0.03226,231.5,0.0,7.0,5.0,0.0,0.0,0.0
1738834512665369510,231.8,0.02383,6.996,5.04,0.01056,0.000722,-0.001645,0.1542,0.01434,230.5,0.0312,6.992,5.027,0.01172,-0.0,-0.001667,0.1528,0.0325,232.0,0.0,7.0,5.0,0.0,0.0,0.0
1738834512715301990,232.0,0.02452,6.996,5.04,0.01242,0.000406,-0.001679,0.1549,0.01431,230.8,0.0312,6.992,5.027,0.01172,-0.0,-0.001652,0.1533,0.0326,232.0,0.0,7.0,5.0,0.0,0.0,0.0
1738834512765322923,232.2,0.02505,6.996,5.04,0.013664,0.000292,-0.001658,0.1543,0.014275,231.0,0.03122,6.992,5.023,0.01563,-0.0,-0.001634,0.154,0.03268,232.5,0.0,7.0,5.0,0.0,0.0,0.0
1738834512815324783,232.5,0.0258,6.996,5.035,0.015236,0.000354,-0.001666,0.1534,0.014206,231.2,0.03123,6.992,5.023,0.01563,-0.0,-0.001636,0.1536,0.03278,232.5,0.0,7.0,5.0,0.0,0.0,0.0
1738834512865260839,232.8,0.02657,6.996,5.035,0.01666,0.000126,-0.001653,0.1528,0.01412,231.5,0.03123,6.996,5.02,0.01563,-0.0,-0.001646,0.1525,0.03287,233.0,0.0,7.0,5.0,0.0,0.0,0.0
1738834512915153503,233.0,0.02748,6.996,5.03,0.01816,0.000198,-0.001546,0.1523,0.01407,231.8,0.03125,6.996,5.02,0.01953,-0.0,-0.00174,0.152,0.03287,233.0,0.0,7.0,5.0,0.0,0.0,0.0
1738834512965198516,233.2,0.02846,6.996,5.03,0.01929,0.000209,-0.000292,0.152,0.01397,232.0,0.03125,6.996,5.016,0.01953,-0.0,-0.001482,0.1514,0.03296,233.5,0.0,7.0,5.0,0.0,0.0,0.0
1738834513015271425,233.5,0.02939,6.996,5.027,0.01973,0.000368,0.000902,0.152,0.01385,232.4,0.03128,6.992,5.016,0.01953,-0.0,0.000253,0.151,0.03308,233.5,0.0,7.0,5.0,0.0,0.0,0.0
1738834513065327167,233.8,0.03033,6.996,5.023,0.01967,0.000668,0.00177,0.1532,0.013725,232.6,0.03128,6.992,5.01,0.01953,-0.0,0.001129,0.1514,0.03314,234.0,0.0,7.0,5.0,0.0,0.0,0.0
