time,x_sphinx,y_sphinx,z_sphinx,vx_sphinx,vy_sphinx,vz_sphinx,roll_sphinx,pitch_sphinx,yaw_sphinx,x_anafi,y_anafi,z_anafi,vx_anafi,vy_anafi,vz_anafi,roll_anafi,pitch_anafi,yaw_anafi,wp_x,wp_y,wp_z,wp_vx,wp_vy,wp_vz,wp_yaw
1738777411420580863,0.9736,0.06494,5.984,-0.0178,-0.00803,0.8823,7.6e-05,-0.00656,-0.1243,0.989,0.0266,5.984,-0.007812,-0.007812,0.8867,-0.0002518,-0.00553,-0.03384,1.0,0.0,6.934,-0.0,0.0,0.9995,0.0
1738777411470617055,0.9727,0.0646,6.027,-0.0187,-0.007786,0.8965,6.5e-05,-0.005753,-0.12427,0.989,0.0266,6.016,-0.007812,-0.007812,0.8906,-0.0002453,-0.005875,-0.034,1.0,0.0,7.0,-0.0,0.0,1.0,0.0
1738777411520591259,0.9717,0.0642,6.07,-0.01884,-0.007637,0.907,9.2e-05,-0.004524,-0.1242,0.989,0.0266,6.062,-0.01172,-0.007812,0.9062,-0.0002623,-0.00484,-0.03436,1.0,0.0,7.0,-0.0,0.0,1.0,0.0
1738777411570629835,0.9707,0.06384,6.117,-0.01878,-0.007504,0.926,0.000111,-0.004246,-0.12415,0.989,0.0266,6.09,-0.01172,-0.007812,0.914,-0.0002773,-0.003975,-0.03418,1.0,0.0,7.1,-0.0,0.0,0.9985,0.0
1738777411620640039,0.9697,0.0635,6.16,-0.0184,-0.007446,0.938,0.000118,-0.003792,-0.12415,0.989,0.0266,6.156,-0.01172,-0.007812,0.9336,-0.0001993,-0.003544,-0.03366,1.0,0.0,7.1,-0.0,0.0,0.9985,0.0
1738777411670612335,0.9688,0.0631,6.21,-0.01823,-0.00733,0.944,8.8e-05,-0.004974,-0.12415,0.989,0.0266,6.188,-0.01172,-0.007812,0.9453,-0.0002053,-0.003197,-0.03357,1.0,0.0,7.2,-0.0,0.0,0.995,0.0
1738777411720602989,0.9683,0.06274,6.254,-0.01863,-0.007145,0.9463,3e-05,-0.00577,-0.12415,0.989,0.0266,6.234,-0.01172,-0.007812,0.953,-0.0001823,-0.004578,-0.0335,1.0,0.0,7.2,-0.0,0.0,0.995,0.0
1738777411770535469,0.9673,0.06238,6.305,-0.01932,-0.0069,0.9478,3.6e-05,-0.006077,-0.12415,0.989,0.0266,6.266,-0.01172,-0.007812,0.953,-0.000261,-0.005013,-0.03366,1.0,0.0,7.3,-0.0,0.0,0.989,0.0
1738777411820633172,0.9663,0.06204,6.35,-0.02,-0.006683,0.9487,5.9e-05,-0.006027,-0.1241,0.989,0.0266,6.332,-0.01172,-0.007812,0.953,-0.0002513,-0.00553,-0.034,1.0,0.0,7.3,-0.0,0.0,0.989,0.0
1738777411870587348,0.965,0.0617,6.4,-0.02065,-0.006462,0.95,8.3e-05,-0.005795,-0.124,0.989,0.0266,6.363,-0.01172,-0.007812,0.957,-0.0001659,-0.005444,-0.03418,1.0,0.0,7.4,-0.0,0.0,0.98,0.0
1738777411920566797,0.964,0.0614,6.445,-0.02112,-0.00629,0.951,7.7e-05,-0.005527,-0.1239,0.989,0.0266,6.414,-0.01172,-0.007812,0.957,-0.0001714,-0.005096,-0.03436,1.0,0.0,7.4,-0.0,0.0,0.98,0.0
1738777411970559597,0.963,0.06107,6.496,-0.0214,-0.00613,0.9653,9.7e-05,-0.004353,-0.1238,0.989,0.0266,6.44,-0.01172,-0.007812,0.957,-0.0002587,-0.005013,-0.03452,1.0,0.0,7.496,-0.0,0.0,0.9688,0.0
1738777412020695447,0.962,0.06076,6.547,-0.02075,-0.006096,0.976,0.000147,-0.003199,-0.12366,0.9717,7.606e-05,6.51,-0.01563,-0.007812,0.9727,-0.0002013,-0.00337,-0.03418,1.0,0.0,7.496,-0.0,0.0,0.9688,0.0
1738777412070607900,0.961,0.06046,6.594,-0.02022,-0.006077,0.9805,0.00013,-0.00404,-0.1236,0.9717,7.606e-05,6.543,-0.01563,-0.007812,0.9805,-0.0001286,-0.002592,-0.03403,1.0,0.0,7.59,-0.0,0.0,0.9556,0.0
1738777412120552539,0.96,0.06018,6.64,-0.02013,-0.005985,0.983,0.000113,-0.004795,-0.12354,0.9717,7.606e-05,6.6,-0.01563,-0.007812,0.9883,-0.0001965,-0.003716,-0.03366,1.0,0.0,7.59,-0.0,0.0,0.9556,0.0
1738777412170585632,0.959,0.05988,6.69,-0.02032,-0.00585,0.984,9.8e-05,-0.005222,-0.12354,0.9717,7.606e-05,6.625,-0.01563,-0.007812,0.9883,-0.00010324,-0.004147,-0.0335,1.0,0.0,7.688,-0.0,0.0,0.9395,0.0
1738777412220448970,0.958,0.0596,6.74,-0.02065,-0.005703,0.9844,7.6e-05,-0.00536,-0.12354,0.9717,7.606e-05,6.695,-0.01172,-0.007812,0.9883,-0.0001794,-0.004753,-0.0335,1.0,0.0,7.688,-0.0,0.0,0.9395,0.0
1738777412270637512,0.957,0.0593,6.79,-0.02086,-0.00556,0.9985,0.000121,-0.003897,-0.1235,0.9717,7.606e-05,6.73,-0.01172,-0.007812,0.9883,-0.000179,-0.004753,-0.03366,1.0,0.0,7.777,-0.0,0.0,0.921,0.0
1738777412320548772,0.956,0.05902,6.84,-0.01976,-0.005608,1.009,0.000138,-0.001382,-0.1235,0.9717,7.606e-05,6.785,-0.01563,-0.007812,1.004,-0.0001265,-0.002764,-0.03342,1.0,0.0,7.777,-0.0,0.0,0.921,0.0
1738777412370439529,0.955,0.05875,6.89,-0.01791,-0.00575,1.013,0.000124,-0.001126,-0.1235,0.9717,7.606e-05,6.816,-0.01172,-0.007812,1.012,-0.0001553,-0.001039,-0.03333,1.0,0.0,7.87,-0.0,0.0,0.9004,0.0
1738777412420431613,0.954,0.05847,6.938,-0.01627,-0.00585,1.015,7.8e-05,-0.001136,-0.1235,0.9717,7.606e-05,6.887,-0.01172,-0.007812,1.02,-7.63e-05,-0.0006056,-0.03314,1.0,0.0,7.87,-0.0,0.0,0.9004,0.0
1738777412470511913,0.953,0.05814,6.992,-0.01446,-0.005947,1.016,6.2e-05,-0.000992,-0.12354,0.9717,7.606e-05,6.92,-0.007812,-0.007812,1.02,-0.000164,-0.0005207,-0.03314,1.0,0.0,7.957,-0.0,0.0,0.8774,0.0
1738777412520572900,0.9526,0.05786,7.04,-0.01271,-0.006054,1.017,7.9e-05,-0.000712,-0.12354,0.9717,7.606e-05,6.984,-0.007812,-0.007812,1.02,-0.0001669,-0.000348,-0.03305,1.0,0.0,7.957,-0.0,0.0,0.8774,0.0
1738777412570580005,0.952,0.05756,7.094,-0.010666,-0.006195,1.018,9e-05,-0.000363,-0.1236,0.9717,7.606e-05,7.008,-0.007812,-0.007812,1.02,-0.0001698,-0.0001755,-0.03305,1.0,0.0,8.05,-0.0,0.0,0.8525,0.0
1738777412620448589,0.9517,0.05725,7.145,-0.00864,-0.00635,1.019,0.0001,-5.9e-05,-0.12366,0.9717,7.606e-05,7.082,-0.003906,-0.007812,1.023,-8.774e-05,8.49e-05,-0.033,1.0,0.0,8.05,-0.0,0.0,0.8525,0.0
1738777412670507431,0.951,0.05692,7.195,-0.006477,-0.00651,1.006,7.5e-05,-0.000707,-0.1237,0.9717,7.606e-05,7.117,-0.003906,-0.007812,1.023,-0.0002632,0.0002546,-0.033,1.0,0.0,8.13,-0.0,0.0,0.825,0.0
1738777412720464468,0.9507,0.05658,7.242,-0.005066,-0.006577,0.9966,3.9e-05,-0.001486,-0.1238,0.9717,7.606e-05,7.17,0.0,-0.007812,1.008,-0.0002518,-0.0004358,-0.033,1.0,0.0,8.13,-0.0,0.0,0.825,0.0
1738777412770534753,0.9507,0.0562,7.3,-0.0032,-0.00667,0.9927,6e-05,-0.000232,-0.1238,0.9717,7.606e-05,7.203,0.0,-0.007812,1.004,-0.0002433,-0.0009537,-0.033,1.0,0.0,8.21,-0.0,0.0,0.796,0.0
1738777412820449352,0.9507,0.05594,7.344,-0.001215,-0.00683,0.992,9.2e-05,0.000639,-0.12384,0.9717,7.606e-05,7.273,0.0,-0.007812,0.996,-0.0002632,0.0002546,-0.033,1.0,0.0,8.21,-0.0,0.0,0.796,0.0
1738777412870484828,0.9507,0.05557,7.395,0.001447,-0.007053,0.9917,7.6e-05,0.000721,-0.1239,0.9717,7.606e-05,7.31,0.0,-0.007812,0.996,-0.0001868,0.00086,-0.033,1.0,0.0,8.29,-0.0,0.0,0.7646,0.0
1738777412920544147,0.9507,0.0552,7.445,0.003693,-0.00722,0.992,4.9e-05,-0.000495,-0.12396,0.954,7.606e-05,7.363,0.0,-0.007812,0.996,-0.0001868,0.00086,-0.033,1.0,0.0,8.29,-0.0,0.0,0.7646,0.0
1738777412970538854,0.9507,0.05484,7.492,0.00507,-0.00728,0.9805,4.7e-05,-0.00231,-0.124,0.954,7.606e-05,7.395,0.003906,-0.007812,0.996,-0.0001755,0.0001698,-0.033,1.0,0.0,8.36,-0.0,0.0,0.7314,0.0
1738777413020544528,0.951,0.0545,7.54,0.00539,-0.007206,0.9717,2e-05,-0.00407,-0.1241,0.9717,7.606e-05,7.46,0.007812,-0.007812,0.9844,-0.0002205,-0.002335,-0.033,1.0,0.0,8.36,-0.0,0.0,0.7314,0.0
1738777413070535898,0.951,0.05414,7.59,0.005356,-0.007072,0.9546,3.2e-05,-0.004196,-0.12415,0.9717,7.606e-05,7.496,0.007812,-0.007812,0.9766,-0.0002885,-0.003458,-0.0329,1.0,0.0,8.44,-0.0,0.0,0.697,0.0
1738777413120547771,0.9517,0.0538,7.637,0.005413,-0.00697,0.944,1.2e-05,-0.003386,-0.1242,0.9717,7.606e-05,7.55,0.007812,-0.007812,0.957,-0.000285,-0.00363,-0.03323,1.0,0.0,8.44,-0.0,0.0,0.697,0.0
1738777413170546293,0.952,0.05344,7.684,0.006355,-0.00696,0.94,6.7e-05,-0.001136,-0.1242,0.9717,7.606e-05,7.58,0.007812,-0.007812,0.949,-0.0002937,-0.003113,-0.03314,1.0,0.0,8.5,-0.0,0.0,0.66,0.0
1738777413220570325,0.952,0.0531,7.73,0.00819,-0.007103,0.9385,9.6e-05,0.00043,-0.12427,0.9717,7.606e-05,7.645,0.007812,-0.007812,0.9414,-0.0002546,-0.0002632,-0.03305,1.0,0.0,8.5,-0.0,0.0,0.66,0.0
1738777413270554780,0.9526,0.0527,7.777,0.01057,-0.007305,0.925,7.6e-05,-8.7e-05,-0.12427,0.9717,7.606e-05,7.676,0.007812,-0.007812,0.9414,-0.000184,0.0006876,-0.03305,1.0,0.0,8.57,-0.0,0.0,0.6216,0.0
1738777413320580244,0.953,0.05237,7.824,0.01182,-0.007366,0.9155,3.8e-05,-0.00218,-0.1244,0.9717,7.606e-05,7.73,0.01172,-0.007812,0.926,-0.0001698,-0.0001755,-0.03305,1.0,0.0,8.57,-0.0,0.0,0.6216,0.0
1738777413370532035,0.954,0.05197,7.87,0.012634,-0.007343,0.911,2.3e-05,-0.002323,-0.1244,0.9717,7.606e-05,7.766,0.01172,-0.007812,0.918,-0.0002319,-0.001644,-0.03305,1.0,0.0,8.625,-0.0,0.0,0.5815,0.0
1738777413420557260,0.9546,0.05164,7.914,0.01346,-0.007336,0.9097,7e-06,-0.002262,-0.12445,0.9717,7.606e-05,7.816,0.01563,-0.007812,0.914,-0.000229,-0.001817,-0.033,1.0,0.0,8.625,-0.0,0.0,0.5815,0.0
1738777413470546245,0.955,0.05124,7.96,0.01419,-0.007294,0.896,-1.5e-05,-0.003267,-0.1245,0.9717,7.606e-05,7.855,0.01563,-0.007812,0.91,-0.0003169,-0.001732,-0.0329,1.0,0.0,8.68,-0.0,0.0,0.5405,0.0
1738777413520575046,0.956,0.0509,8.0,0.014114,-0.007153,0.886,-2.8e-05,-0.004524,-0.1246,0.9717,7.606e-05,7.91,0.01563,-0.007812,0.8945,-0.0002913,-0.003284,-0.0329,1.0,0.0,8.68,-0.0,0.0,0.5405,0.0
1738777413570548772,0.9565,0.05054,8.05,0.013824,-0.006977,0.869,-2.3e-05,-0.004826,-0.12463,0.9717,7.606e-05,7.93,0.01563,-0.007812,0.8906,-0.0001947,-0.003887,-0.03305,1.0,0.0,8.734,-0.0,0.0,0.4976,0.0
1738777413620562314,0.9575,0.0502,8.09,0.01324,-0.006783,0.8584,-3e-05,-0.005264,-0.12463,0.9717,7.606e-05,7.99,0.01953,-0.007812,0.871,-0.000273,-0.004322,-0.0335,1.0,0.0,8.734,-0.0,0.0,0.4976,0.0
1738777413670586824,0.958,0.04987,8.13,0.0127,-0.006577,0.8286,-3.4e-05,-0.005695,-0.12463,0.9717,7.606e-05,8.02,0.01953,-0.007812,0.8594,-0.0002663,-0.004665,-0.03384,1.0,0.0,8.78,-0.0,0.0,0.4536,0.0
1738777413720581531,0.9585,0.04956,8.17,0.011444,-0.006294,0.807,-5.4e-05,-0.00707,-0.1246,0.9717,7.606e-05,8.06,0.01953,-0.007812,0.828,-0.0002508,-0.00553,-0.03418,1.0,0.0,8.78,-0.0,0.0,0.4536,0.0
1738777413770586252,0.959,0.04922,8.22,0.01033,-0.00602,0.798,0.0,-0.00495,-0.12445,0.9717,7.606e-05,8.09,0.01953,-0.007812,0.8125,-0.000321,-0.00648,-0.03418,1.0,0.0,8.83,-0.0,0.0,0.4084,0.0
1738777413820571184,0.9595,0.04895,8.25,0.01039,-0.005928,0.795,6e-05,-0.003174,-0.1243,0.989,7.606e-05,8.15,0.01563,-0.007812,0.797,-0.0001922,-0.00389,-0.03436,1.0,0.0,8.83,-0.0,0.0,0.4084,0.0
1738777413870546340,0.9604,0.04865,8.3,0.01099,-0.005917,0.7803,8e-05,-0.003246,-0.1242,0.989,7.606e-05,8.17,0.01563,-0.007812,0.797,-0.0002131,-0.00268,-0.03418,1.0,0.0,8.87,-0.0,0.0,0.3623,0.0
1738777413920575857,0.961,0.04834,8.33,0.01103,-0.00584,0.7705,3.5e-05,-0.004192,-0.1241,0.989,7.606e-05,8.22,0.01953,-0.007812,0.7812,-0.0002108,-0.002853,-0.03384,1.0,0.0,8.87,-0.0,0.0,0.3623,0.0
1738777413970579385,0.9614,0.04803,8.375,0.01098,-0.00573,0.753,2.5e-05,-0.00437,-0.124,0.989,7.606e-05,8.24,0.01953,-0.007812,0.7734,-0.0001991,-0.003544,-0.03384,1.0,0.0,8.9,-0.0,0.0,0.3154,0.0
1738777414020550966,0.962,0.0478,8.41,0.01062,-0.005592,0.7417,1.1e-05,-0.004883,-0.1239,0.989,7.606e-05,8.3,0.01953,-0.007812,0.754,-0.0002773,-0.003975,-0.03418,1.0,0.0,8.9,-0.0,0.0,0.3154,0.0
1738777414070600271,0.9624,0.0475,8.445,0.010315,-0.005447,0.723,1.9e-05,-0.004738,-0.1238,0.989,7.606e-05,8.32,0.01953,-0.007812,0.742,-0.0001863,-0.004234,-0.03436,1.0,0.0,8.93,-0.0,0.0,0.2676,0.0
1738777414120566129,0.963,0.0472,8.484,0.00981,-0.005283,0.711,1.2e-05,-0.004944,-0.12366,0.989,7.606e-05,8.37,0.01953,-0.007812,0.7227,-0.0002706,-0.004322,-0.03452,1.0,0.0,8.93,-0.0,0.0,0.2676,0.0
1738777414170537710,0.9634,0.04697,8.516,0.0095,-0.005146,0.6816,1e-06,-0.005405,-0.1235,0.989,7.606e-05,8.39,0.01953,-0.007812,0.715,-0.0002706,-0.004322,-0.03452,1.0,0.0,8.95,-0.0,0.0,0.219,0.0
1738777414220599412,0.964,0.04672,8.55,0.0084,-0.0049,0.66,-2.9e-05,-0.006813,-0.1233,0.989,7.606e-05,8.43,0.01953,-0.007812,0.6797,-0.0002553,-0.005184,-0.0347,1.0,0.0,8.95,-0.0,0.0,0.219,0.0
1738777414270580768,0.9644,0.04648,8.58,0.00737,-0.004658,0.637,-6e-06,-0.005623,-0.12305,0.989,7.606e-05,8.45,0.01953,-0.007812,0.664,-0.000325,-0.006134,-0.0348,1.0,0.0,8.97,-0.0,0.0,0.1699,0.0
1738777414320579290,0.9644,0.04626,8.61,0.006783,-0.004482,0.624,-2e-06,-0.004955,-0.12286,0.989,7.606e-05,8.5,0.01563,-0.007812,0.633,-0.0002608,-0.00484,-0.03488,1.0,0.0,8.97,-0.0,0.0,0.1699,0.0
1738777414370575666,0.965,0.04605,8.64,0.006634,-0.00437,0.587,1e-05,-0.005165,-0.1226,0.989,7.606e-05,8.516,0.01563,-0.007812,0.625,-0.00027,-0.004322,-0.03488,1.0,0.0,8.984,-0.0,0.0,0.1205,0.0
1738777414420577287,0.9653,0.04584,8.67,0.0054,-0.00411,0.5522,-8.1e-05,-0.007935,-0.1224,0.989,7.606e-05,8.555,0.01563,-0.003906,0.578,-0.0003364,-0.005444,-0.03497,1.0,0.0,8.984,-0.0,0.0,0.1205,0.0
1738777414470550775,0.9653,0.04562,8.695,0.003895,-0.003788,0.5366,-3.3e-05,-0.005447,-0.12213,0.989,7.606e-05,8.58,0.01563,-0.007812,0.5547,-0.000391,-0.00726,-0.03497,1.0,0.0,8.99,-0.0,0.0,0.07074,0.0
1738777414520560741,0.966,0.04544,8.73,0.00409,-0.00372,0.5312,9.6e-05,-0.002611,-0.1219,0.989,7.606e-05,8.61,0.01172,-0.003906,0.535,-0.0001974,-0.003544,-0.0348,1.0,0.0,8.99,-0.0,0.0,0.07074,0.0
1738777414570458650,0.966,0.04526,8.75,0.00507,-0.003794,0.518,0.000115,-0.00216,-0.12164,0.989,7.606e-05,8.625,0.01172,-0.003906,0.5312,-0.0001369,-0.002075,-0.03452,1.0,0.0,9.0,-0.0,0.0,0.0208,0.0
1738777414620526075,0.9663,0.04504,8.77,0.005768,-0.003826,0.5073,9.7e-05,-0.00306,-0.12146,0.989,7.606e-05,8.66,0.01563,-0.007812,0.5156,-0.000143,-0.001729,-0.03418,1.0,0.0,9.0,-0.0,0.0,0.0208,0.0
1738777414670554161,0.9663,0.04486,8.805,0.00618,-0.00381,0.4673,4.7e-05,-0.004738,-0.1213,0.989,7.606e-05,8.68,0.01563,-0.003906,0.508,-0.0001317,-0.00242,-0.03384,1.0,0.0,9.0,-0.0,0.0,-0.0292,0.0
1738777414720455646,0.967,0.04468,8.82,0.004948,-0.00357,0.4348,-3.9e-05,-0.00799,-0.12115,1.007,7.61e-05,8.71,0.01953,-0.003906,0.457,-0.0002546,-0.005356,-0.03384,1.0,0.0,9.0,-0.0,0.0,-0.0292,0.0
1738777414770432233,0.967,0.04453,8.84,0.003456,-0.003284,0.4087,-2.9e-05,-0.0066,-0.12103,1.007,7.61e-05,8.73,0.01563,-0.003906,0.4375,-0.0002222,-0.007256,-0.03394,1.0,0.0,8.99,-0.0,0.0,-0.0791,0.0
1738777414820437908,0.9673,0.04434,8.87,0.002644,-0.00309,0.3918,1.5e-05,-0.004986,-0.1209,1.007,7.61e-05,8.75,0.01172,-0.003906,0.4023,-0.0002513,-0.00553,-0.034,1.0,0.0,8.99,-0.0,0.0,-0.0791,0.0
1738777414870525598,0.9673,0.0442,8.88,0.002665,-0.002998,0.3599,1.8e-05,-0.00437,-0.1207,1.007,7.61e-05,8.766,0.01172,-0.003906,0.3906,-0.000187,-0.004234,-0.034,1.0,0.0,8.984,-0.0,0.0,-0.1288,0.0
1738777414920470952,0.9673,0.04407,8.9,0.002195,-0.002865,0.3367,-4e-06,-0.005516,-0.12054,0.989,7.606e-05,8.79,0.01172,-0.003906,0.3516,-0.000187,-0.004234,-0.034,1.0,0.0,8.984,-0.0,0.0,-0.1288,0.0
1738777414970438003,0.9673,0.0439,8.914,0.001807,-0.002722,0.3005,-2e-06,-0.005123,-0.1204,1.007,7.61e-05,8.805,0.01172,-0.003906,0.3398,-0.000263,-0.00484,-0.034,1.0,0.0,8.97,-0.0,0.0,-0.1782,0.0
1738777415020438671,0.9673,0.0438,8.93,0.001126,-0.002558,0.2766,-7e-06,-0.005764,-0.12024,1.007,7.61e-05,8.82,0.01172,-0.003906,0.2969,-0.0002651,-0.004665,-0.03436,1.0,0.0,8.97,-0.0,0.0,-0.1782,0.0
1738777415070498466,0.968,0.04364,8.945,0.00079,-0.002424,0.2527,1.2e-05,-0.004242,-0.12,1.007,7.61e-05,8.83,0.01172,-0.003906,0.2773,-0.0002563,-0.005184,-0.03436,1.0,0.0,8.945,-0.0,0.0,-0.2272,0.0
1738777415120568037,0.968,0.04355,8.95,0.000921,-0.002356,0.2394,3e-06,-0.003536,-0.1198,1.007,7.61e-05,8.85,0.01172,-0.003906,0.2461,-0.0002013,-0.00337,-0.03418,1.0,0.0,8.945,-0.0,0.0,-0.2272,0.0
1738777415170575618,0.968,0.04343,8.97,0.001554,-0.00234,0.2207,-9e-06,-0.002846,-0.1196,1.007,7.61e-05,8.86,0.01172,-0.003906,0.2383,-0.0002954,-0.002941,-0.03394,1.0,0.0,8.92,-0.0,0.0,-0.2756,0.0
1738777415220560073,0.968,0.0433,8.98,0.002115,-0.0023,0.2086,-3.6e-05,-0.003056,-0.1195,1.007,7.61e-05,8.875,0.01172,-0.003906,0.2188,-0.00022,-0.002335,-0.0335,1.0,0.0,8.92,-0.0,0.0,-0.2756,0.0
1738777415270573616,0.968,0.04318,8.99,0.00266,-0.002272,0.1794,-3.4e-05,-0.003801,-0.1194,1.007,7.61e-05,8.88,0.01172,-0.003906,0.207,-0.000305,-0.002422,-0.03333,1.0,0.0,8.89,-0.0,0.0,-0.3232,0.0
1738777415320576667,0.968,0.0431,9.0,0.002275,-0.002115,0.1577,-7.4e-05,-0.005592,-0.11926,1.007,7.61e-05,8.9,0.01172,-0.003906,0.1719,-0.0002797,-0.003975,-0.03305,1.0,0.0,8.89,-0.0,0.0,-0.3232,0.0
1738777415370523929,0.9683,0.04297,9.01,0.001773,-0.00194,0.12305,-6.1e-05,-0.005478,-0.11926,1.007,7.61e-05,8.9,0.01172,-0.003906,0.1562,-0.00035,-0.00493,-0.03314,1.0,0.0,8.86,-0.0,0.0,-0.37,0.0
1738777415420538663,0.9683,0.04288,9.01,0.000916,-0.001744,0.0997,-4e-05,-0.006203,-0.11914,1.007,7.61e-05,8.91,0.01172,-0.003906,0.1172,-0.0003462,-0.0051,-0.0335,1.0,0.0,8.86,-0.0,0.0,-0.37,0.0
1738777415470546245,0.9683,0.04282,9.016,0.000361,-0.001581,0.076,-1.4e-05,-0.00472,-0.119,1.007,7.61e-05,8.914,0.01172,-0.003906,0.09766,-0.0002522,-0.00553,-0.03366,1.0,0.0,8.82,-0.0,0.0,-0.4163,0.0
1738777415520541191,0.9683,0.04272,9.016,0.000278,-0.001498,0.0621,3.5e-05,-0.00403,-0.1189,1.007,7.61e-05,8.92,0.007812,-0.003906,0.0703,-0.0001938,-0.00389,-0.0335,1.0,0.0,8.82,-0.0,0.0,-0.4163,0.0
1738777415570515155,0.9683,0.04266,9.02,0.000639,-0.001488,0.04398,7.4e-05,-0.003286,-0.11884,1.007,7.61e-05,8.92,0.007812,-0.003906,0.0625,-0.0001999,-0.003544,-0.03333,1.0,0.0,8.77,-0.0,0.0,-0.4612,0.0
1738777415620529174,0.9683,0.04257,9.02,0.001,-0.001489,0.03041,7.8e-05,-0.003492,-0.1187,1.007,7.61e-05,8.92,0.007812,-0.003906,0.03906,-0.000127,-0.002764,-0.03305,1.0,0.0,8.77,-0.0,0.0,-0.4612,0.0
1738777415670506477,0.9683,0.0425,9.02,0.001419,-0.001495,0.002571,8.5e-05,-0.00386,-0.1187,1.007,7.61e-05,8.92,0.007812,-0.003906,0.02734,-0.000212,-0.002853,-0.033,1.0,0.0,8.73,-0.0,0.0,-0.505,0.0
1738777415720562219,0.9683,0.04242,9.02,0.000984,-0.001396,-0.0223,3.9e-05,-0.0057,-0.11865,1.007,7.61e-05,8.93,0.007812,-0.003906,-0.003906,-0.0002773,-0.00415,-0.0328,1.0,0.0,8.73,-0.0,0.0,-0.505,0.0
1738777415770533084,0.9683,0.04236,9.02,0.000498,-0.001286,-0.0549,2.9e-05,-0.005444,-0.1186,1.007,7.61e-05,8.93,0.007812,-0.003906,-0.01563,-0.000263,-0.005013,-0.0329,1.0,0.0,8.67,-0.0,0.0,-0.5474,0.0
1738777415820488929,0.9683,0.0423,9.016,-0.000406,-0.001111,-0.08124,1.4e-05,-0.006207,-0.1185,1.007,7.61e-05,8.93,0.007812,-0.003906,-0.0586,-0.000259,-0.005184,-0.03333,1.0,0.0,8.67,-0.0,0.0,-0.5474,0.0
1738777415870454311,0.9683,0.04227,9.016,-0.000915,-0.000999,-0.10333,5.1e-05,-0.004715,-0.11847,1.007,7.61e-05,8.92,0.007812,-0.003906,-0.0781,-0.0003376,-0.00562,-0.0335,1.0,0.0,8.62,-0.0,0.0,-0.5884,0.0
1738777415920469284,0.9683,0.0422,9.01,-0.00095,-0.000949,-0.11847,8.8e-05,-0.003876,-0.1183,1.007,7.61e-05,8.92,0.007812,-0.003906,-0.1094,-0.0002818,-0.003803,-0.03342,1.0,0.0,8.62,-0.0,0.0,-0.5884,0.0
1738777415970550537,0.9683,0.04214,9.0,-0.00054,-0.00097,-0.1466,0.000107,-0.003675,-0.1182,1.007,7.61e-05,8.914,0.003906,-0.003906,-0.1172,-0.000203,-0.00337,-0.03323,1.0,0.0,8.555,-0.0,0.0,-0.628,0.0
1738777416020553588,0.9683,0.0421,8.99,-0.000778,-0.000905,-0.1711,5.7e-05,-0.005215,-0.11816,1.007,7.61e-05,8.91,0.003906,-0.003906,-0.1523,-0.00011283,-0.003628,-0.033,1.0,0.0,8.555,-0.0,0.0,-0.628,0.0
1738777416070585489,0.9683,0.04205,8.984,-0.001013,-0.000828,-0.2034,4.7e-05,-0.00491,-0.1181,1.007,7.61e-05,8.9,0.007812,-0.003906,-0.168,-0.0001839,-0.004578,-0.0328,1.0,0.0,8.49,-0.0,0.0,-0.6665,0.0
1738777416120550394,0.9683,0.04202,8.97,-0.001668,-0.000697,-0.2299,3.3e-05,-0.005802,-0.11804,1.007,7.61e-05,8.89,0.003906,-0.003906,-0.2109,-0.0002651,-0.00484,-0.03314,1.0,0.0,8.49,-0.0,0.0,-0.6665,0.0
1738777416170554637,0.9683,0.042,8.96,-0.002005,-0.00061,-0.2517,5e-05,-0.00438,-0.118,1.007,7.61e-05,8.89,0.003906,-0.003906,-0.2266,-0.0002592,-0.005184,-0.03323,1.0,0.0,8.42,-0.0,0.0,-0.7026,0.0
1738777416220551490,0.968,0.04196,8.945,-0.001873,-0.000577,-0.2664,5.2e-05,-0.003578,-0.1179,1.007,7.61e-05,8.87,0.003906,-0.003906,-0.254,-0.0002003,-0.003544,-0.03314,1.0,0.0,8.42,-0.0,0.0,-0.7026,0.0
1738777416270544052,0.968,0.04193,8.93,-0.001329,-0.000592,-0.2944,5.9e-05,-0.003424,-0.11786,0.989,7.606e-05,8.86,0.003906,-0.003906,-0.2656,-0.0002118,-0.002851,-0.03305,1.0,0.0,8.35,-0.0,0.0,-0.7373,0.0
1738777416320575714,0.968,0.0419,8.914,-0.001468,-0.000521,-0.3193,-3e-06,-0.00511,-0.1178,0.989,7.606e-05,8.84,0.003906,-0.003906,-0.3047,-0.0002859,-0.003632,-0.0328,1.0,0.0,8.35,-0.0,0.0,-0.7373,0.0
1738777416370550632,0.968,0.04187,8.9,-0.001663,-0.000423,-0.352,-1.5e-05,-0.004868,-0.11774,1.007,7.61e-05,8.836,0.003906,-0.003906,-0.3164,-0.0001869,-0.004406,-0.0327,1.0,0.0,8.27,-0.0,0.0,-0.77,0.0
1738777416420529127,0.968,0.04187,8.88,-0.002287,-0.000266,-0.3787,-5.6e-05,-0.005768,-0.11774,0.989,7.606e-05,8.81,0.003906,-0.003906,-0.3594,-0.0002685,-0.004665,-0.033,1.0,0.0,8.27,-0.0,0.0,-0.77,0.0
1738777416470511198,0.9673,0.04187,8.86,-0.00263,-0.000142,-0.4119,-4.8e-05,-0.004993,-0.1177,0.989,7.606e-05,8.805,0.003906,-0.003906,-0.375,-0.0002594,-0.005184,-0.03314,1.0,0.0,8.195,-0.0,0.0,-0.8013,0.0
1738777416520473003,0.9673,0.04184,8.84,-0.003204,9e-06,-0.4392,-4.2e-05,-0.005554,-0.11755,0.989,7.606e-05,8.78,0.003906,-0.003906,-0.4219,-0.000352,-0.004753,-0.03357,1.0,0.0,8.195,-0.0,0.0,-0.8013,0.0
1738777416570554971,0.9673,0.04187,8.82,-0.003416,0.000109,-0.4722,-2e-05,-0.00466,-0.1175,0.989,7.606e-05,8.766,0.003906,-0.003906,-0.4375,-0.000261,-0.005013,-0.03366,1.0,0.0,8.12,-0.0,0.0,-0.83,0.0
1738777416620553016,0.967,0.04187,8.8,-0.003805,0.000233,-0.499,-4.2e-05,-0.005165,-0.1173,0.989,7.606e-05,8.734,0.0,-0.003906,-0.4766,-0.0002718,-0.004322,-0.034,1.0,0.0,8.12,-0.0,0.0,-0.83,0.0
1738777416670578002,0.967,0.04187,8.766,-0.003822,0.000312,-0.5215,-1.6e-05,-0.00375,-0.1171,0.989,7.606e-05,8.72,0.003906,-0.003906,-0.496,-0.0003538,-0.00458,-0.034,1.0,0.0,8.03,-0.0,0.0,-0.857,0.0
1738777416720600366,0.967,0.0419,8.74,-0.003391,0.000329,-0.537,9e-06,-0.003077,-0.11694,0.989,7.606e-05,8.695,0.0,-0.007812,-0.5273,-0.0002959,-0.002941,-0.03366,1.0,0.0,8.03,-0.0,0.0,-0.857,0.0
1738777416770566225,0.9663,0.0419,8.71,-0.002645,0.000303,-0.5664,1e-05,-0.003061,-0.1168,0.989,7.606e-05,8.68,0.0,-0.007812,-0.535,-0.0002141,-0.00268,-0.0335,1.0,0.0,7.945,-0.0,0.0,-0.8813,0.0
1738777416820595502,0.9663,0.04193,8.69,-0.002607,0.000372,-0.5913,-4.1e-05,-0.00477,-0.11676,0.989,-0.02644,8.64,0.0,-0.007812,-0.574,-0.0002089,-0.003025,-0.03314,1.0,0.0,7.945,-0.0,0.0,-0.8813,0.0
1738777416870571374,0.9663,0.04196,8.66,-0.002607,0.000444,-0.613,-3.4e-05,-0.00392,-0.1167,0.989,-0.02644,8.62,0.003906,-0.007812,-0.59,-0.000277,-0.00415,-0.033,1.0,0.0,7.855,-0.0,0.0,-0.9043,0.0
1738777416920588493,0.9663,0.04196,8.625,-0.002363,0.000492,-0.6284,8e-06,-0.003565,-0.11664,0.989,7.606e-05,8.586,0.0,-0.003906,-0.621,-0.0002916,-0.003284,-0.0327,1.0,0.0,7.855,-0.0,0.0,-0.9043,0.0
1738777416970573663,0.966,0.042,8.59,-0.001737,0.000469,-0.634,2.5e-05,-0.002232,-0.1166,0.989,-0.02644,8.57,0.0,-0.003906,-0.629,-0.0002097,-0.003025,-0.03262,1.0,0.0,7.76,-0.0,0.0,-0.9243,0.0
1738777417020565986,0.966,0.04202,8.56,-0.000429,0.000368,-0.6367,3.1e-05,-0.001383,-0.11664,0.989,-0.02644,8.52,0.003906,-0.007812,-0.6367,-0.000238,-0.001299,-0.03247,1.0,0.0,7.76,-0.0,0.0,-0.9243,0.0
1738777417070619344,0.966,0.04202,8.53,0.000772,0.000273,-0.6616,-2e-06,-0.002733,-0.11664,0.989,-0.02644,8.51,0.003906,-0.003906,-0.6367,-0.0002463,-0.000781,-0.03247,1.0,0.0,7.67,-0.0,0.0,-0.9424,0.0
1738777417120631694,0.966,0.04205,8.49,0.000594,0.00038,-0.6855,-0.000112,-0.005676,-0.11664,0.989,-0.02644,8.47,0.003906,-0.007812,-0.672,-0.0002892,-0.003458,-0.03247,1.0,0.0,7.67,-0.0,0.0,-0.9424,0.0
1738777417170593261,0.966,0.04208,8.46,2.6e-05,0.000559,-0.7075,-0.000137,-0.005337,-0.11664,0.989,-0.02644,8.45,0.003906,-0.003906,-0.6836,-0.000352,-0.004925,-0.03238,1.0,0.0,7.574,-0.0,0.0,-0.958,0.0
1738777417220581769,0.966,0.0421,8.42,-0.000451,0.00073,-0.7227,-0.000125,-0.004936,-0.11664,0.989,-0.02644,8.41,0.003906,-0.003906,-0.711,-0.0003536,-0.004753,-0.0328,1.0,0.0,7.574,-0.0,0.0,-0.958,0.0
1738777417270588159,0.966,0.04214,8.39,-0.000473,0.000838,-0.741,-9e-05,-0.004147,-0.11664,0.989,-0.02644,8.375,0.0,-0.007812,-0.7227,-0.0003598,-0.00441,-0.03262,1.0,0.0,7.477,-0.0,0.0,-0.971,0.0
1738777417320604562,0.966,0.04218,8.35,-0.000485,0.000929,-0.7544,-9.7e-05,-0.004307,-0.11664,0.989,-0.02644,8.336,0.0,-0.003906,-0.746,-0.0003712,-0.003717,-0.03247,1.0,0.0,7.477,-0.0,0.0,-0.971,0.0
1738777417370615720,0.966,0.04224,8.31,-0.000292,0.001023,-0.775,-0.0001,-0.003893,-0.1167,0.989,-0.02644,8.31,0.0,-0.003906,-0.754,-0.0003715,-0.003717,-0.03238,1.0,0.0,7.38,-0.0,0.0,-0.982,0.0
1738777417420585393,0.966,0.0423,8.27,-0.00023,0.001108,-0.786,-9.8e-05,-0.0041,-0.11676,0.989,-0.02644,8.266,0.0,-0.003906,-0.7773,-0.0002894,-0.003458,-0.0323,1.0,0.0,7.38,-0.0,0.0,-0.982,0.0
1738777417470568418,0.966,0.04236,8.23,-3.1e-05,0.00118,-0.817,-0.0001,-0.00452,-0.1168,0.989,-0.02644,8.234,0.0,-0.003906,-0.785,-0.0003743,-0.003546,-0.0323,1.0,0.0,7.28,-0.0,0.0,-0.99,0.0
1738777417520611763,0.966,0.04242,8.19,-0.000631,0.001346,-0.8384,-0.000129,-0.006077,-0.1169,0.989,-0.02644,8.19,0.0,-0.003906,-0.824,-0.00027,-0.004665,-0.0323,1.0,0.0,7.28,-0.0,0.0,-0.99,0.0
1738777417570609807,0.966,0.04248,8.15,-0.001223,0.001515,-0.8613,-0.000103,-0.005028,-0.11694,0.989,-0.02644,8.164,0.0,-0.003906,-0.836,-0.000343,-0.005444,-0.03253,1.0,0.0,7.184,-0.0,0.0,-0.9956,0.0
1738777417620615005,0.966,0.04257,8.1,-0.001439,0.001631,-0.8745,-8.1e-05,-0.00425,-0.1169,0.989,-0.02644,8.11,0.0,-0.003906,-0.8633,-0.0003593,-0.00441,-0.0328,1.0,0.0,7.184,-0.0,0.0,-0.9956,0.0
1738777417670570135,0.966,0.04263,8.06,-0.001112,0.001661,-0.879,-4.9e-05,-0.002783,-0.1169,0.989,-0.02644,8.08,0.0,-0.003906,-0.875,-0.0003679,-0.003891,-0.0327,1.0,0.0,7.082,-0.0,0.0,-0.999,0.0
1738777417720572233,0.966,0.04272,8.02,-0.000233,0.001618,-0.8813,-3.9e-05,-0.001872,-0.1169,0.989,-0.02644,8.03,0.0,-0.003906,-0.883,-0.000317,-0.001732,-0.03262,1.0,0.0,7.082,-0.0,0.0,-0.999,0.0
1738777417770575046,0.966,0.0428,7.977,0.000981,0.001541,-0.894,-2.3e-05,-0.002293,-0.11694,0.989,-0.02644,8.01,0.0,-0.003906,-0.883,-0.0002378,-0.001299,-0.03253,1.0,0.0,6.984,-0.0,0.0,-1.0,0.0
1738777417820585489,0.966,0.04288,7.93,0.001475,0.001549,-0.9062,-7.3e-05,-0.003815,-0.11694,0.989,-0.02644,7.945,0.0,-0.003906,-0.8984,-0.000306,-0.002422,-0.03253,1.0,0.0,6.984,-0.0,0.0,-1.0,0.0
1738777417870579719,0.966,0.04294,7.887,0.001654,0.001607,-0.922,-9.1e-05,-0.004047,-0.117,0.989,-0.02644,7.914,0.0,-0.003906,-0.9062,-0.000292,-0.003284,-0.03247,1.0,0.0,6.883,-0.0,0.0,-0.9985,0.0
1738777417920573472,0.966,0.04303,7.84,0.001499,0.001717,-0.936,-0.000115,-0.0048,-0.117,0.989,-0.02644,7.863,0.0,-0.003906,-0.9297,-0.0002809,-0.003975,-0.03238,1.0,0.0,6.883,-0.0,0.0,-0.9985,0.0
1738777417970582246,0.966,0.04312,7.793,0.0014,0.001825,-0.9414,-9.8e-05,-0.003906,-0.11707,0.989,-0.02644,7.836,0.0,-0.003906,-0.9375,-0.0003633,-0.004234,-0.0323,1.0,0.0,6.785,-0.0,0.0,-0.994,0.0
1738777418020542621,0.9663,0.0432,7.746,0.001855,0.001846,-0.9434,-5.1e-05,-0.002926,-0.1171,0.989,-0.02644,7.773,0.0,-0.003906,-0.9453,-0.0002978,-0.00294,-0.0323,1.0,0.0,6.785,-0.0,0.0,-0.994,0.0
1738777418070502042,0.9663,0.0433,7.7,0.002504,0.001834,-0.9556,-5.7e-05,-0.003225,-0.11725,0.989,-0.02644,7.74,0.0,-0.003906,-0.9453,-0.0003064,-0.002422,-0.0322,1.0,0.0,6.684,-0.0,0.0,-0.9873,0.0
1738777418120548009,0.9663,0.0434,7.65,0.002567,0.001903,-0.9683,-9.7e-05,-0.004627,-0.1173,0.989,-0.02644,7.684,0.0,-0.003906,-0.965,-0.0002897,-0.003458,-0.0322,1.0,0.0,6.684,-0.0,0.0,-0.9873,0.0
1738777418170563220,0.9663,0.0435,7.6,0.002436,0.001995,-0.9736,-8e-05,-0.004112,-0.1174,0.989,-0.02644,7.656,0.0,-0.003906,-0.9688,-0.0003662,-0.004063,-0.0322,1.0,0.0,6.586,-0.0,0.0,-0.9785,0.0
1738777418220579147,0.967,0.0436,7.55,0.002714,0.002028,-0.976,-2.2e-05,-0.00333,-0.1175,0.989,-0.02644,7.59,0.0,-0.003906,-0.9766,-0.0002925,-0.003284,-0.0321,1.0,0.0,6.586,-0.0,0.0,-0.9785,0.0
1738777418270573377,0.967,0.0437,7.504,0.003164,0.002016,-0.9883,-1.9e-05,-0.003632,-0.1176,0.989,-0.02644,7.56,0.0,-0.003906,-0.9805,-0.000301,-0.002768,-0.0321,1.0,0.0,6.49,-0.0,0.0,-0.967,0.0
1738777418320592403,0.967,0.0438,7.453,0.003042,0.00209,-1.001,-6.1e-05,-0.004936,-0.1177,0.989,-0.02644,7.504,0.0,-0.003906,-0.996,-0.000287,-0.00363,-0.0321,1.0,0.0,6.49,-0.0,0.0,-0.967,0.0
1738777418370588302,0.967,0.0439,7.402,0.002792,0.00218,-1.005,-5.5e-05,-0.004303,-0.1178,0.989,-0.02644,7.473,0.003906,-0.003906,-1.0,-0.000361,-0.00441,-0.0321,1.0,0.0,6.395,-0.0,0.0,-0.9526,0.0
1738777418420586347,0.9673,0.04404,7.35,0.002998,0.002213,-1.008,-2.2e-05,-0.003443,-0.1179,0.989,-0.02644,7.402,0.003906,-0.003906,-1.008,-0.0003774,-0.003372,-0.0321,1.0,0.0,6.395,-0.0,0.0,-0.9526,0.0
1738777418470585823,0.9673,0.04413,7.305,0.003448,0.002193,-1.009,-4e-06,-0.003113,-0.11804,0.989,-0.02644,7.367,0.0,-0.003906,-1.012,-0.000298,-0.00294,-0.0321,1.0,0.0,6.297,-0.0,0.0,-0.9365,0.0
1738777418520576715,0.968,0.04425,7.25,0.004013,0.002163,-1.009,1.6e-05,-0.003065,-0.11816,0.989,7.606e-05,7.31,0.0,0.0,-1.012,-0.0003037,-0.002594,-0.0321,1.0,0.0,6.297,-0.0,0.0,-0.9365,0.0
1738777418570628166,0.968,0.04434,7.203,0.004513,0.002132,-1.01,-6e-06,-0.003166,-0.1183,0.989,7.606e-05,7.273,0.0,-0.003906,-1.012,-0.0002186,-0.002506,-0.0322,1.0,0.0,6.207,-0.0,0.0,-0.918,0.0
1738777418620574235,0.968,0.04446,7.15,0.004967,0.002123,-1.01,-3.5e-05,-0.003366,-0.1184,0.989,7.606e-05,7.215,0.003906,0.0,-1.012,-0.0003035,-0.002594,-0.0322,1.0,0.0,6.207,-0.0,0.0,-0.918,0.0
1738777418670565128,0.9683,0.04456,7.1,0.005295,0.002129,-1.01,-1.9e-05,-0.003553,-0.1185,0.989,7.606e-05,7.17,0.003906,0.0,-1.012,-0.0003858,-0.002855,-0.0322,1.0,0.0,6.113,-0.0,0.0,-0.897,0.0
1738777418720575094,0.9688,0.04468,7.05,0.005543,0.00213,-1.011,1.4e-05,-0.003775,-0.1186,0.989,7.606e-05,7.117,0.003906,0.0,-1.012,-0.0002952,-0.003113,-0.0322,1.0,0.0,6.113,-0.0,0.0,-0.897,0.0
1738777418770572900,0.9688,0.04477,7.0,0.005684,0.002144,-1.012,-3e-06,-0.003906,-0.1187,0.989,7.606e-05,7.086,0.003906,0.0,-1.016,-0.0002925,-0.003284,-0.0322,1.0,0.0,6.027,-0.0,0.0,-0.8735,0.0
1738777418820579528,0.969,0.0449,6.95,0.005783,0.002165,-1.012,2e-06,-0.003994,-0.11884,0.989,7.606e-05,7.02,0.007812,0.0,-1.016,-0.0002897,-0.003458,-0.0322,1.0,0.0,6.027,-0.0,0.0,-0.8735,0.0
1738777418870573997,0.969,0.04498,6.9,0.005848,0.002184,-1.013,1.6e-05,-0.00403,-0.11896,0.989,7.606e-05,6.98,0.007812,0.0,-1.016,-0.0002897,-0.003458,-0.0322,1.0,0.0,5.94,-0.0,0.0,-0.848,0.0
1738777418920573711,0.9697,0.0451,6.848,0.0059,0.002192,-1.014,4.1e-05,-0.004055,-0.1191,0.989,7.606e-05,6.918,0.007812,0.0,-1.016,-0.0003746,-0.003546,-0.0322,1.0,0.0,5.94,-0.0,0.0,-0.848,0.0
1738777418970549583,0.9697,0.0452,6.797,0.005943,0.002193,-1.014,6.2e-05,-0.00406,-0.1192,0.989,7.606e-05,6.887,0.007812,0.0,-1.016,-0.0003743,-0.003546,-0.0323,1.0,0.0,5.855,-0.0,0.0,-0.821,0.0
1738777419020519733,0.97,0.04532,6.746,0.00599,0.0022,-1.014,2.8e-05,-0.004066,-0.1193,0.989,7.606e-05,6.82,0.007812,0.0,-1.016,-0.0003746,-0.003546,-0.0322,1.0,0.0,5.855,-0.0,0.0,-0.821,0.0
1738777419070515155,0.9707,0.0454,6.695,0.00602,0.002207,-1.014,4.9e-05,-0.004097,-0.11945,0.989,7.606e-05,6.785,0.007812,0.0,-1.016,-0.0003743,-0.003546,-0.0323,1.0,0.0,5.777,-0.0,0.0,-0.791,0.0
1738777419120497465,0.9707,0.04553,6.645,0.00604,0.002209,-1.015,7.1e-05,-0.004116,-0.11957,0.989,7.606e-05,6.72,0.007812,0.0,-1.016,-0.0003743,-0.003546,-0.0323,1.0,0.0,5.777,-0.0,0.0,-0.791,0.0
1738777419170542001,0.971,0.04565,6.594,0.00612,0.002184,-1.002,0.000118,-0.003325,-0.1197,0.989,7.606e-05,6.695,0.007812,0.0,-1.016,-0.0003743,-0.003546,-0.0323,1.0,0.0,5.7,-0.0,0.0,-0.7593,0.0
1738777419220557212,0.9717,0.04575,6.543,0.00697,0.002048,-0.9907,0.000136,-0.00213,-0.1199,0.989,7.606e-05,6.625,0.007812,0.0,-1.0,-0.0002241,-0.002161,-0.0323,1.0,0.0,5.7,-0.0,0.0,-0.7593,0.0
1738777419270554065,0.9717,0.04584,6.496,0.00773,0.001929,-0.9873,0.000123,-0.00306,-0.12,0.989,7.606e-05,6.59,0.007812,0.0,-0.996,-0.0002325,-0.001644,-0.0323,1.0,0.0,5.625,-0.0,0.0,-0.726,0.0
1738777419320570707,0.972,0.04596,6.445,0.00795,0.00188,-0.9863,7.7e-05,-0.00414,-0.1201,0.989,7.606e-05,6.53,0.007812,0.0,-0.9883,-0.0002978,-0.00294,-0.03238,1.0,0.0,5.625,-0.0,0.0,-0.726,0.0
1738777419370548963,0.9727,0.04605,6.4,0.00786,0.001888,-0.9736,8.5e-05,-0.003895,-0.12024,0.989,7.606e-05,6.504,0.007812,0.0,-0.9883,-0.0003743,-0.003546,-0.03238,1.0,0.0,5.555,-0.0,0.0,-0.6904,0.0
1738777419420556545,0.973,0.04614,6.348,0.00831,0.001813,-0.9634,0.000123,-0.002947,-0.12036,0.989,7.606e-05,6.438,0.007812,0.0,-0.9766,-0.0002978,-0.00294,-0.03238,1.0,0.0,5.555,-0.0,0.0,-0.6904,0.0
1738777419470548391,0.9736,0.04623,6.3,0.00878,0.00173,-0.9473,0.000129,-0.002972,-0.1205,0.989,7.606e-05,6.4,0.007812,0.0,-0.9688,-0.0003061,-0.002422,-0.03238,1.0,0.0,5.49,-0.0,0.0,-0.654,0.0
1738777419520562171,0.974,0.0463,6.254,0.009514,0.001607,-0.936,0.000128,-0.00272,-0.1206,0.989,7.606e-05,6.344,0.007812,0.0,-0.9453,-0.0003088,-0.002249,-0.03247,1.0,0.0,5.49,-0.0,0.0,-0.654,0.0
1738777419570553302,0.9746,0.0464,6.207,0.00987,0.001542,-0.932,0.000105,-0.004025,-0.1207,0.989,7.606e-05,6.316,0.01172,0.0,-0.9414,-0.0003116,-0.002077,-0.03247,1.0,0.0,5.42,-0.0,0.0,-0.615,0.0
1738777419620560884,0.975,0.04648,6.16,0.00956,0.001573,-0.931,6.7e-05,-0.005116,-0.12085,0.989,7.606e-05,6.25,0.01172,0.0,-0.9336,-0.0002804,-0.003975,-0.03262,1.0,0.0,5.42,-0.0,0.0,-0.615,0.0
1738777419670555591,0.9756,0.04654,6.113,0.00903,0.001625,-0.918,7.8e-05,-0.00468,-0.1209,0.989,7.606e-05,6.22,0.01172,0.0,-0.9336,-0.0003562,-0.00458,-0.033,1.0,0.0,5.363,-0.0,0.0,-0.5747,0.0
1738777419720563411,0.9756,0.04663,6.07,0.009125,0.001602,-0.907,0.000116,-0.003479,-0.121,0.989,7.606e-05,6.16,0.01172,0.0,-0.918,-0.0003755,-0.003374,-0.03333,1.0,0.0,5.363,-0.0,0.0,-0.5747,0.0
1738777419770548582,0.976,0.0467,6.023,0.0094,0.001539,-0.89,0.000147,-0.00339,-0.121,0.989,7.606e-05,6.137,0.01172,0.0,-0.91,-0.0002964,-0.00294,-0.03323,1.0,0.0,5.31,-0.0,0.0,-0.533,0.0
1738777419820566892,0.9766,0.04678,5.98,0.00993,0.001434,-0.878,0.000144,-0.003035,-0.12103,0.989,7.606e-05,6.074,0.01172,0.0,-0.8906,-0.0003023,-0.002594,-0.03305,1.0,0.0,5.31,-0.0,0.0,-0.533,0.0
1738777419870552062,0.977,0.04684,5.938,0.010254,0.001363,-0.861,0.000133,-0.003424,-0.1211,0.989,7.606e-05,6.043,0.01172,0.0,-0.883,-0.0002177,-0.002508,-0.033,1.0,0.0,5.258,-0.0,0.0,-0.4902,0.0
1738777419920522689,0.978,0.0469,5.895,0.010704,0.001282,-0.8477,0.000123,-0.00323,-0.12115,0.989,7.606e-05,5.99,0.01172,0.0,-0.8594,-0.0003026,-0.002594,-0.0329,1.0,0.0,5.258,-0.0,0.0,-0.4902,0.0
1738777419970537185,0.9785,0.04697,5.85,0.01091,0.001237,-0.8306,0.000102,-0.003689,-0.1212,0.989,7.606e-05,5.965,0.01172,0.0,-0.8516,-0.0003026,-0.002594,-0.0329,1.0,0.0,5.21,-0.0,0.0,-0.446,0.0
1738777420020557165,0.979,0.04703,5.81,0.01119,0.001201,-0.819,6.7e-05,-0.003643,-0.1213,0.989,7.606e-05,5.906,0.01172,0.0,-0.832,-0.0002093,-0.003025,-0.0328,1.0,0.0,5.21,-0.0,0.0,-0.446,0.0
1738777420070548534,0.9795,0.0471,5.77,0.011185,0.001202,-0.8022,6.9e-05,-0.004097,-0.12134,0.989,7.606e-05,5.88,0.01172,0.0,-0.824,-0.0002942,-0.003113,-0.0328,1.0,0.0,5.168,-0.0,0.0,-0.401,0.0
1738777420120571851,0.98,0.04715,5.73,0.0113,0.001188,-0.79,9.4e-05,-0.003836,-0.12146,0.989,7.606e-05,5.832,0.01172,0.0,-0.801,-0.0002918,-0.003286,-0.03262,1.0,0.0,5.168,-0.0,0.0,-0.401,0.0
1738777420170569896,0.9805,0.0472,5.69,0.01123,0.001183,-0.7734,0.000102,-0.004196,-0.1215,0.989,7.606e-05,5.805,0.01172,0.0,-0.793,-0.0002918,-0.003286,-0.03262,1.0,0.0,5.13,-0.0,0.0,-0.3545,0.0
1738777420220568180,0.981,0.04727,5.652,0.01129,0.001154,-0.7617,0.000126,-0.00394,-0.12164,0.989,7.606e-05,5.754,0.01172,0.0,-0.7734,-0.000289,-0.003458,-0.03262,1.0,0.0,5.13,-0.0,0.0,-0.3545,0.0
1738777420270572185,0.982,0.04733,5.617,0.01122,0.001125,-0.734,0.000178,-0.00363,-0.1217,0.989,7.606e-05,5.727,0.01172,0.0,-0.7656,-0.000289,-0.003458,-0.03262,1.0,0.0,5.098,-0.0,0.0,-0.3074,0.0
1738777420320587635,0.9824,0.0474,5.582,0.01196,0.000975,-0.711,0.000234,-0.001947,-0.1218,0.989,7.606e-05,5.684,0.01172,0.0,-0.7305,-0.0001361,-0.002247,-0.03253,1.0,0.0,5.098,-0.0,0.0,-0.3074,0.0
1738777420370562553,0.983,0.04742,5.543,0.01277,0.000793,-0.6885,0.00023,-0.003044,-0.12195,0.989,7.606e-05,5.664,0.01172,0.0,-0.715,-0.0001501,-0.001384,-0.03253,1.0,0.0,5.07,-0.0,0.0,-0.2593,0.0
1738777420420574426,0.9834,0.04745,5.51,0.0131,0.000691,-0.676,0.000175,-0.00373,-0.1221,0.989,7.606e-05,5.637,0.01172,0.0,-0.703,-0.0002238,-0.002163,-0.03262,1.0,0.0,5.07,-0.0,0.0,-0.2593,0.0
1738777420470563411,0.9844,0.0475,5.477,0.01279,0.000695,-0.671,0.000115,-0.005554,-0.1222,0.989,7.606e-05,5.637,0.01172,0.0,-0.703,-0.0002238,-0.002163,-0.03262,1.0,0.0,5.047,-0.0,0.0,-0.2108,0.0
1738777420520575523,0.985,0.04755,5.445,0.01177,0.000809,-0.669,6.5e-05,-0.006565,-0.1223,0.989,7.606e-05,5.637,0.01172,0.0,-0.703,-0.0002238,-0.002163,-0.03262,1.0,0.0,5.047,-0.0,0.0,-0.2108,0.0
1738777420570561885,0.9854,0.04758,5.41,0.01043,0.000981,-0.6685,6.8e-05,-0.006725,-0.1223,1.007,7.61e-05,5.574,0.01563,0.0,-0.676,-0.0002744,-0.004322,-0.0328,1.0,0.0,5.027,-0.0,0.0,-0.1616,0.0
1738777420620566129,0.986,0.04764,5.375,0.009125,0.001129,-0.6416,0.000111,-0.00524,-0.1224,1.007,7.61e-05,5.484,0.01172,0.0,-0.672,-0.0003283,-0.006134,-0.03366,1.0,0.0,5.027,-0.0,0.0,-0.1616,0.0
1738777420670556306,0.9863,0.0477,5.348,0.009834,0.000995,-0.6045,0.000257,-0.000428,-0.1223,1.007,7.61e-05,5.46,0.01172,0.0,-0.6523,-0.0002663,-0.004665,-0.03384,1.0,0.0,5.01,-0.0,0.0,-0.1122,0.0
1738777420720567226,0.987,0.04773,5.316,0.01173,0.000669,-0.5884,0.000274,-0.001211,-0.1223,1.007,7.61e-05,5.418,0.01172,0.0,-0.6016,-0.0001785,0.0003424,-0.03366,1.0,0.0,5.01,-0.0,0.0,-0.1122,0.0
1738777420770562410,0.9873,0.04776,5.29,0.01238,0.000513,-0.569,0.000201,-0.003529,-0.12225,1.007,7.61e-05,5.402,0.01563,0.0,-0.5938,-0.000161,-0.0006933,-0.03366,1.0,0.0,5.004,-0.0,0.0,-0.06235,0.0
1738777420820560932,0.9883,0.0478,5.258,0.012535,0.00044,-0.556,0.000172,-0.004097,-0.12225,1.007,7.61e-05,5.367,0.01563,0.0,-0.5703,-0.0002084,-0.003025,-0.0335,1.0,0.0,5.004,-0.0,0.0,-0.06235,0.0
1738777420870559215,0.989,0.0478,5.23,0.01228,0.000429,-0.518,0.000172,-0.003656,-0.12225,1.007,7.61e-05,5.344,0.01563,0.0,-0.5586,-0.0001999,-0.003544,-0.03333,1.0,0.0,5.0,-0.0,0.0,-0.01239,0.0
1738777420920565366,0.9893,0.04782,5.207,0.01339,0.00024,-0.4832,0.000251,-0.000679,-0.12225,1.007,7.61e-05,5.31,0.01563,0.0,-0.508,-0.0002375,-0.001299,-0.03314,1.0,0.0,5.0,-0.0,0.0,-0.01239,0.0
1738777420970568418,0.99,0.04782,5.184,0.014885,-3e-05,-0.444,0.000249,-0.001791,-0.1223,1.007,7.61e-05,5.297,0.01563,0.0,-0.4883,-0.0001698,-0.0001755,-0.03305,1.0,0.0,5.0,-0.0,0.0,0.0376,0.0
1738777421020577430,0.9907,0.04782,5.164,0.01596,-0.000228,-0.418,0.000198,-0.002146,-0.1224,1.007,7.61e-05,5.266,0.01953,0.0,-0.4414,-0.0001527,-0.001211,-0.033,1.0,0.0,5.0,-0.0,0.0,0.0376,0.0
1738777421070571422,0.9917,0.0478,5.145,0.01624,-0.0003,-0.395,0.000136,-0.004505,-0.12244,1.007,7.61e-05,5.25,0.01953,0.0,-0.4219,-0.000229,-0.001817,-0.033,1.0,0.0,5.008,-0.0,0.0,0.0875,0.0
1738777421120540142,0.992,0.0478,5.125,0.0157,-0.000244,-0.3818,9.1e-05,-0.005585,-0.1225,1.007,7.61e-05,5.223,0.01953,0.0,-0.3945,-0.0002742,-0.004322,-0.033,1.0,0.0,5.008,-0.0,0.0,0.0875,0.0
1738777421170551061,0.993,0.0478,5.105,0.01452,-9.6e-05,-0.353,5.7e-05,-0.005875,-0.12256,1.007,7.61e-05,5.21,0.01953,0.0,-0.3828,-0.0002592,-0.005184,-0.03323,1.0,0.0,5.02,-0.0,0.0,0.1372,0.0
1738777421220566272,0.9937,0.0478,5.09,0.014114,-4e-05,-0.3308,0.000111,-0.004227,-0.12256,1.007,7.61e-05,5.188,0.01953,0.0,-0.3516,-0.000352,-0.004753,-0.03357,1.0,0.0,5.02,-0.0,0.0,0.1372,0.0
1738777421270540714,0.9946,0.0478,5.074,0.013855,-2.3e-05,-0.3,0.000139,-0.004467,-0.12256,1.007,7.61e-05,5.176,0.01953,0.0,-0.332,-0.0002844,-0.003632,-0.0335,1.0,0.0,5.035,-0.0,0.0,0.1865,0.0
1738777421320541620,0.995,0.04776,5.06,0.014084,-9.1e-05,-0.269,0.000175,-0.003199,-0.12256,1.007,7.61e-05,5.152,0.01563,0.0,-0.293,-0.0002058,-0.003199,-0.03333,1.0,0.0,5.035,-0.0,0.0,0.1865,0.0
1738777421370548248,0.996,0.04776,5.043,0.01413,-0.000126,-0.2477,0.000136,-0.00466,-0.1226,1.007,7.61e-05,5.15,0.01563,0.0,-0.2734,-0.0001297,-0.002592,-0.03314,1.0,0.0,5.055,-0.0,0.0,0.2354,0.0
1738777421420546293,0.9966,0.04776,5.035,0.01362,-8e-05,-0.2386,0.000112,-0.005714,-0.1226,1.007,7.61e-05,5.133,0.01563,0.0,-0.25,-0.0002737,-0.004322,-0.03314,1.0,0.0,5.055,-0.0,0.0,0.2354,0.0
1738777421470545291,0.9976,0.04776,5.023,0.012375,7e-05,-0.2028,9.8e-05,-0.005486,-0.1226,1.007,7.61e-05,5.125,0.01563,0.0,-0.2383,-0.0003436,-0.005272,-0.03342,1.0,0.0,5.082,-0.0,0.0,0.2837,0.0
1738777421520537376,0.998,0.04776,5.01,0.01261,1.9e-05,-0.1721,0.000179,-0.002405,-0.1226,1.007,7.61e-05,5.113,0.01563,0.0,-0.1953,-0.0002875,-0.003458,-0.0335,1.0,0.0,5.082,-0.0,0.0,0.2837,0.0
1738777421570528030,0.9985,0.04776,5.004,0.013176,-9.1e-05,-0.1484,0.000173,-0.003925,-0.1227,1.007,7.61e-05,5.11,0.01563,0.0,-0.1758,-0.0002288,-0.001817,-0.03333,1.0,0.0,5.113,-0.0,0.0,0.3313,0.0
1738777421620536327,0.999,0.04776,4.996,0.01289,-8.6e-05,-0.1359,0.00013,-0.0052,-0.1227,1.007,7.61e-05,5.098,0.01563,0.0,-0.1445,-0.0001945,-0.00389,-0.03314,1.0,0.0,5.113,-0.0,0.0,0.3313,0.0
1738777421670517444,1.0,0.04776,4.992,0.01189,2.7e-05,-0.1085,0.00011,-0.00567,-0.1227,1.023,7.61e-05,5.094,0.01563,0.0,-0.1367,-0.0002646,-0.00484,-0.03333,1.0,0.0,5.15,-0.0,0.0,0.378,0.0
1738777421720548629,1.0,0.04776,4.99,0.0116,4.5e-05,-0.08594,0.000153,-0.004,-0.1227,1.023,7.61e-05,5.082,0.01563,0.0,-0.09766,-0.000191,-0.004063,-0.0335,1.0,0.0,5.15,-0.0,0.0,0.378,0.0
1738777421770531892,1.001,0.04776,4.984,0.01144,3.7e-05,-0.06476,0.000155,-0.004787,-0.1227,1.023,7.61e-05,5.086,0.01563,0.0,-0.08594,-0.0002878,-0.003458,-0.03333,1.0,0.0,5.188,-0.0,0.0,0.4238,0.0
1738777421820540189,1.002,0.04776,4.98,0.01097,7.7e-05,-0.0525,0.00013,-0.00532,-0.12274,1.023,7.61e-05,5.082,0.01563,0.0,-0.0586,-0.0002737,-0.004322,-0.03314,1.0,0.0,5.188,-0.0,0.0,0.4238,0.0
1738777421870529174,1.002,0.04776,4.977,0.010025,0.000175,-0.03445,0.000108,-0.00588,-0.12274,1.023,7.61e-05,5.08,0.01172,0.0,-0.05078,-0.0002642,-0.00484,-0.0335,1.0,0.0,5.234,-0.0,0.0,0.4685,0.0
1738777421920536518,1.003,0.0478,4.977,0.00931,0.000259,-0.0203,0.00011,-0.00527,-0.1227,1.023,7.61e-05,5.07,0.01172,0.0,-0.02734,-0.0002635,-0.00484,-0.03384,1.0,0.0,5.234,-0.0,0.0,0.4685,0.0
1738777421970501899,1.003,0.0478,4.977,0.008705,0.000319,0.01098,0.000118,-0.00452,-0.1226,1.023,7.61e-05,5.07,0.01172,0.0,-0.01953,-0.000266,-0.004665,-0.034,1.0,0.0,5.28,-0.0,0.0,0.512,0.0
1738777422020494937,1.004,0.04782,4.977,0.00922,0.000236,0.03796,0.000177,-0.00255,-0.12256,1.023,7.61e-05,5.074,0.01172,0.0,0.01953,-0.0002959,-0.002941,-0.03366,1.0,0.0,5.28,-0.0,0.0,0.512,0.0
1738777422070556163,1.004,0.04782,4.98,0.00963,0.000144,0.0597,0.000176,-0.004246,-0.12256,1.023,7.61e-05,5.074,0.01172,0.0,0.03516,-0.0002255,-0.00199,-0.03366,1.0,0.0,5.336,-0.0,0.0,0.554,0.0
1738777422120548248,1.005,0.04782,4.984,0.00897,0.000198,0.07324,0.000145,-0.006638,-0.1225,1.023,7.61e-05,5.074,0.01172,0.0,0.0664,-0.0001827,-0.004578,-0.03333,1.0,0.0,5.336,-0.0,0.0,0.554,0.0
1738777422170566797,1.005,0.04785,4.99,0.00697,0.000425,0.0905,0.000124,-0.00858,-0.1225,1.023,7.61e-05,5.08,0.01172,0.0,0.0703,-0.000247,-0.005875,-0.0335,1.0,0.0,5.395,-0.0,0.0,0.595,0.0
1738777422220546483,1.005,0.04788,4.992,0.00472,0.000691,0.10114,0.000117,-0.009224,-0.12244,1.023,7.61e-05,5.086,0.007812,0.0,0.09375,-0.0002935,-0.00821,-0.03366,1.0,0.0,5.395,-0.0,0.0,0.595,0.0
1738777422270524740,1.005,0.0479,4.996,0.001995,0.001012,0.1393,0.000137,-0.00865,-0.1224,1.023,7.61e-05,5.09,0.007812,0.0,0.10156,-0.0001962,-0.00881,-0.03384,1.0,0.0,5.453,-0.0,0.0,0.635,0.0
1738777422320529222,1.006,0.04797,5.008,0.000687,0.001122,0.1759,0.000249,-0.005653,-0.1223,1.023,7.61e-05,5.094,0.003906,0.0,0.1562,-0.0002395,-0.00622,-0.034,1.0,0.0,5.453,-0.0,0.0,0.635,0.0
1738777422370537519,1.006,0.04803,5.016,-0.000315,0.001171,0.2145,0.000259,-0.00633,-0.12225,1.023,7.61e-05,5.1,0.003906,0.0,0.1758,-0.0001727,-0.005096,-0.03384,1.0,0.0,5.52,-0.0,0.0,0.6724,0.0
1738777422420530319,1.006,0.0481,5.027,-0.001017,0.001188,0.2445,0.000214,-0.005257,-0.1222,1.023,7.61e-05,5.113,0.0,0.0,0.2266,-0.0001712,-0.00527,-0.03333,1.0,0.0,5.52,-0.0,0.0,0.6724,0.0
1738777422470539093,1.005,0.04816,5.04,-0.001783,0.001234,0.2698,0.000198,-0.006294,-0.1222,1.023,7.61e-05,5.12,0.0,0.0,0.2461,-0.0001802,-0.004753,-0.03314,1.0,0.0,5.59,-0.0,0.0,0.7085,0.0
1738777422520570278,1.005,0.04822,5.055,-0.002916,0.001335,0.2864,0.000154,-0.00679,-0.1222,1.023,7.61e-05,5.137,0.0,0.0,0.2773,-0.0002475,-0.005875,-0.03333,1.0,0.0,5.59,-0.0,0.0,0.7085,0.0
1738777422570540189,1.005,0.04828,5.07,-0.00434,0.001482,0.3162,0.00016,-0.00668,-0.1222,1.023,7.61e-05,5.145,0.0,0.0,0.289,-0.0002412,-0.00622,-0.0335,1.0,0.0,5.66,-0.0,0.0,0.743,0.0
1738777422620533466,1.005,0.04837,5.086,-0.00496,0.001519,0.3406,0.000208,-0.004974,-0.12213,1.023,7.61e-05,5.168,0.0,0.0,0.3281,-0.0001704,-0.00527,-0.03366,1.0,0.0,5.66,-0.0,0.0,0.743,0.0
1738777422670548677,1.005,0.04843,5.1,-0.005493,0.001539,0.362,0.000184,-0.005802,-0.12213,1.023,7.61e-05,5.18,0.0,0.0,0.3438,-0.0001853,-0.004406,-0.0335,1.0,0.0,5.74,-0.0,0.0,0.7754,0.0
1738777422720535993,1.004,0.04852,5.12,-0.00623,0.001598,0.3787,0.000175,-0.00583,-0.12213,1.023,7.61e-05,5.195,0.0,0.0,0.371,-0.0002594,-0.005184,-0.03314,1.0,0.0,5.74,-0.0,0.0,0.7754,0.0
1738777422770523071,1.004,0.04858,5.14,-0.007042,0.001669,0.4084,0.000164,-0.005455,-0.12213,1.023,7.61e-05,5.207,0.0,0.0,0.3828,-0.0001712,-0.00527,-0.03333,1.0,0.0,5.816,-0.0,0.0,0.806,0.0
1738777422820526838,1.004,0.04868,5.164,-0.00702,0.001628,0.4326,0.000181,-0.003937,-0.12213,1.023,7.61e-05,5.234,0.0,0.0,0.4219,-0.0001918,-0.00406,-0.03305,1.0,0.0,5.816,-0.0,0.0,0.806,0.0
1738777422870523452,1.003,0.04877,5.184,-0.00702,0.001595,0.465,0.000197,-0.004307,-0.12213,1.023,7.61e-05,5.25,0.0,0.0,0.4375,-0.0002034,-0.00337,-0.033,1.0,0.0,5.9,-0.0,0.0,0.8345,0.0
1738777422920524120,1.003,0.04883,5.21,-0.006596,0.001498,0.4895,0.000185,-0.003534,-0.12225,1.023,7.61e-05,5.273,0.0,0.0,0.4805,-0.0002095,-0.003025,-0.0327,1.0,0.0,5.9,-0.0,0.0,0.8345,0.0
1738777422970525503,1.003,0.0489,5.234,-0.006565,0.001467,0.5107,0.000162,-0.004948,-0.12225,1.023,7.61e-05,5.285,0.0,0.0,0.4922,-0.0002124,-0.002853,-0.03262,1.0,0.0,5.984,-0.0,0.0,0.8613,0.0
1738777423020534992,1.002,0.04898,5.26,-0.007,0.00151,0.5254,0.000116,-0.00557,-0.1224,1.023,7.61e-05,5.32,0.0,0.0,0.5195,-0.0001847,-0.004578,-0.03247,1.0,0.0,5.984,-0.0,0.0,0.8613,0.0
1738777423070536613,1.002,0.04904,5.285,-0.00779,0.001607,0.5444,0.000103,-0.00597,-0.1225,1.023,7.61e-05,5.34,0.0,0.0,0.5312,-0.000264,-0.005013,-0.03247,1.0,0.0,6.07,-0.0,0.0,0.8857,0.0
1738777423120501756,1.001,0.04913,5.316,-0.0084,0.00169,0.5596,9.4e-05,-0.005455,-0.12256,1.023,7.61e-05,5.363,0.0,0.0,0.5547,-0.0003483,-0.0051,-0.0327,1.0,0.0,6.07,-0.0,0.0,0.8857,0.0
1738777423170516014,1.001,0.04922,5.344,-0.008995,0.001775,0.579,7.7e-05,-0.00549,-0.1226,1.023,7.61e-05,5.383,0.0,0.0,0.5625,-0.0002663,-0.00484,-0.03262,1.0,0.0,6.16,-0.0,0.0,0.9077,0.0
1738777423220490932,1.001,0.04932,5.37,-0.009315,0.00184,0.594,7.8e-05,-0.004948,-0.12274,1.007,7.61e-05,5.42,-0.003906,0.0,0.59,-0.0002697,-0.004665,-0.03247,1.0,0.0,6.16,-0.0,0.0,0.9077,0.0
1738777423270470142,1.0,0.0494,5.402,-0.009636,0.001888,0.6245,0.000127,-0.00446,-0.12286,1.007,7.61e-05,5.44,-0.003906,0.0,0.6016,-0.0002754,-0.004322,-0.03238,1.0,0.0,6.254,-0.0,0.0,0.9272,0.0
1738777423320500373,0.9995,0.0495,5.434,-0.008995,0.001777,0.651,0.000194,-0.002789,-0.1229,1.007,7.61e-05,5.473,-0.003906,0.0,0.6367,-0.0002102,-0.003025,-0.0323,1.0,0.0,6.254,-0.0,0.0,0.9272,0.0
1738777423370535373,0.999,0.0496,5.47,-0.0084,0.001668,0.685,0.000191,-0.003206,-0.1231,1.007,7.61e-05,5.496,-0.003906,0.0,0.6562,-0.0001364,-0.002247,-0.0323,1.0,0.0,6.348,-0.0,0.0,0.945,0.0
1738777423420534610,0.9985,0.04968,5.504,-0.007427,0.001498,0.712,0.000209,-0.002625,-0.1232,1.007,7.61e-05,5.54,-0.003906,0.0,0.699,-0.0001364,-0.002247,-0.0323,1.0,0.0,6.348,-0.0,0.0,0.945,0.0
1738777423470521926,0.9985,0.04974,5.54,-0.007072,0.001416,0.722,0.000183,-0.00504,-0.12335,1.007,7.61e-05,5.566,-0.003906,0.0,0.715,-0.0001392,-0.002075,-0.0323,1.0,0.0,6.44,-0.0,0.0,0.96,0.0
1738777423520544290,0.998,0.0498,5.574,-0.00793,0.001504,0.727,0.000112,-0.006935,-0.1235,1.007,7.61e-05,5.605,0.0,0.0,0.7305,-0.0002556,-0.00553,-0.03247,1.0,0.0,6.44,-0.0,0.0,0.96,0.0
1738777423570543766,0.9976,0.0499,5.61,-0.00944,0.001683,0.7417,0.000135,-0.00688,-0.1236,1.007,7.61e-05,5.625,-0.003906,0.0,0.7344,-0.000241,-0.006393,-0.03262,1.0,0.0,6.54,-0.0,0.0,0.973,0.0
1738777423620550394,0.997,0.05,5.65,-0.010315,0.001769,0.7534,0.000154,-0.005714,-0.12366,1.007,7.61e-05,5.676,-0.003906,0.0,0.75,-0.0001631,-0.005787,-0.03314,1.0,0.0,6.54,-0.0,0.0,0.973,0.0
1738777423670585393,0.9966,0.05008,5.688,-0.010925,0.00182,0.771,0.000192,-0.00536,-0.1237,1.007,7.61e-05,5.703,-0.003906,0.0,0.758,-0.000174,-0.005096,-0.03333,1.0,0.0,6.637,-0.0,0.0,0.9834,0.0
1738777423720861911,0.996,0.05017,5.727,-0.0111,0.001792,0.784,0.000211,-0.004597,-0.1237,1.007,7.61e-05,5.746,-0.007812,0.0,0.7812,-0.00010073,-0.00432,-0.03333,1.0,0.0,6.637,-0.0,0.0,0.9834,0.0
1738777423770531892,0.9956,0.05026,5.766,-0.01125,0.001777,0.8022,0.000182,-0.00467,-0.1237,1.007,7.61e-05,5.766,-0.007812,0.0,0.789,-0.0001917,-0.004063,-0.03314,1.0,0.0,6.734,-0.0,0.0,0.991,0.0
1738777423820548295,0.9946,0.05035,5.81,-0.01117,0.001736,0.8154,0.000161,-0.004284,-0.1238,1.007,7.61e-05,5.82,-0.007812,0.0,0.8125,-0.0001949,-0.00389,-0.033,1.0,0.0,6.734,-0.0,0.0,0.991,0.0
1738777423870535135,0.994,0.0504,5.848,-0.01123,0.001726,0.8335,0.000157,-0.004555,-0.12384,1.007,7.61e-05,5.848,-0.007812,0.0,0.8203,-0.0001979,-0.003716,-0.0329,1.0,0.0,6.832,-0.0,0.0,0.9966,0.0
1738777423920552492,0.9937,0.0505,5.89,-0.0111,0.001693,0.8467,0.000169,-0.004246,-0.1239,1.007,7.61e-05,5.895,-0.007812,0.0,0.8438,-0.0001984,-0.003716,-0.03262,1.0,0.0,6.832,-0.0,0.0,0.9966,0.0
