time,x_sphinx,y_sphinx,z_sphinx,vx_sphinx,vy_sphinx,vz_sphinx,roll_sphinx,pitch_sphinx,yaw_sphinx,x_anafi,y_anafi,z_anafi,vx_anafi,vy_anafi,vz_anafi,roll_anafi,pitch_anafi,yaw_anafi,wp_x,wp_y,wp_z,wp_vx,wp_vy,wp_vz,wp_yaw
1738777514308623552,1.002,0.0222,5.434,-0.04938,-0.02809,0.94,0.00016,-0.004406,-0.1192,1.041,7.61e-05,5.45,-0.03125,-0.03125,0.7734,-0.0002037,-0.003542,-0.03116,1.0,0.0,6.832,-0.0,0.0,1.993,0.0
1738777514358567237,0.9995,0.02075,5.484,-0.05002,-0.02762,1.024,7.6e-05,-0.00815,-0.11945,1.023,7.61e-05,5.492,-0.03125,-0.03125,0.918,-0.0001161,-0.003628,-0.03116,1.0,0.0,7.0,-0.0,0.0,2.0,0.0
1738777514408633947,0.997,0.01944,5.535,-0.05176,-0.02701,1.085,4.5e-05,-0.00877,-0.1197,1.023,-0.02644,5.56,-0.03125,-0.02734,1.02,-0.0002269,-0.0076,-0.03116,1.0,0.0,7.0,-0.0,0.0,2.0,0.0
1738777514458596706,0.9946,0.01817,5.586,-0.0545,-0.02625,1.14,-2.9e-05,-0.01165,-0.12,1.023,-0.02644,5.6,-0.03516,-0.02734,1.074,-0.0003064,-0.00803,-0.03116,1.0,0.0,7.2,-0.0,0.0,1.99,0.0
1738777514508660316,0.9917,0.01683,5.65,-0.05795,-0.02536,1.187,-3.9e-05,-0.01114,-0.12024,1.023,-0.02644,5.633,-0.03516,-0.02734,1.102,-0.0002732,-0.0101,-0.03134,1.0,0.0,7.2,-0.0,0.0,1.99,0.0
1738777514558581829,0.9883,0.01553,5.71,-0.06158,-0.02444,1.255,-2.4e-05,-0.01064,-0.1205,1.023,-0.02644,5.69,-0.04297,-0.02734,1.176,-0.0003533,-0.01037,-0.03177,1.0,0.0,7.4,-0.0,0.0,1.96,0.0
1738777514608610630,0.9854,0.01437,5.773,-0.06323,-0.02385,1.305,8e-05,-0.007286,-0.12067,1.023,-0.02644,5.77,-0.04688,-0.02734,1.25,-0.0002832,-0.00924,-0.0321,1.0,0.0,7.4,-0.0,0.0,1.96,0.0
1738777514658588886,0.9824,0.013245,5.836,-0.0645,-0.02321,1.369,-0.00039,-0.007633,-0.12085,1.007,-0.02644,5.816,-0.05078,-0.02734,1.289,-0.0002377,-0.006737,-0.03195,1.0,0.0,7.59,-0.0,0.0,1.911,0.0
1738777514708637475,0.979,0.01206,5.91,-0.0647,-0.02211,1.427,-0.001791,-0.0051,-0.1211,1.007,-0.02644,5.863,-0.05078,-0.02734,1.324,-0.0004025,-0.00726,-0.03186,1.0,0.0,7.59,-0.0,0.0,1.911,0.0
1738777514758591651,0.976,0.01104,5.98,-0.06494,-0.02043,1.4795,-0.002853,-0.006973,-0.12134,1.007,-0.02644,5.934,-0.05078,-0.02734,1.414,-0.001915,-0.004433,-0.03177,1.0,0.0,7.777,-0.0,0.0,1.842,0.0
1738777514808843851,0.9727,0.01004,6.06,-0.06525,-0.0181,1.527,-0.003708,-0.006123,-0.1216,1.007,-0.02644,6.027,-0.05078,-0.02734,1.48,-0.003357,-0.006096,-0.03177,1.0,0.0,7.777,-0.0,0.0,1.842,0.0
1738777514858587503,0.969,0.00917,6.137,-0.06586,-0.015335,1.573,-0.004303,-0.0076,-0.1218,1.007,-0.02644,6.086,-0.05078,-0.02734,1.52,-0.00397,-0.0055,-0.03168,1.0,0.0,7.957,-0.0,0.0,1.755,0.0
1738777514908625602,0.966,0.0085,6.215,-0.0666,-0.0126,1.6,-0.00469,-0.00789,-0.122,1.007,-0.02644,6.133,-0.05078,-0.02344,1.543,-0.0043,-0.006542,-0.03168,1.0,0.0,7.957,-0.0,0.0,1.755,0.0
1738777514958593845,0.9624,0.00793,6.297,-0.06805,-0.00933,1.646,-0.00495,-0.00787,-0.1223,0.989,-0.02644,6.215,-0.0547,-0.02344,1.59,-0.004894,-0.007156,-0.0316,1.0,0.0,8.13,-0.0,0.0,1.65,0.0
1738777515008651733,0.9595,0.007553,6.38,-0.06775,-0.00647,1.685,-0.005016,-0.003843,-0.12256,0.989,-0.02644,6.28,-0.0547,-0.01953,1.613,-0.00514,-0.00811,-0.03165,1.0,0.0,8.13,-0.0,0.0,1.65,0.0
1738777515058606147,0.956,0.00731,6.46,-0.06635,-0.003721,1.726,-0.005096,-0.003254,-0.12286,0.989,-0.05295,6.387,-0.0547,-0.01953,1.676,-0.005215,-0.003277,-0.03168,1.0,0.0,8.29,-0.0,0.0,1.529,0.0
1738777515108657121,0.9526,0.00719,6.55,-0.06433,-0.000881,1.755,-0.005165,-0.002401,-0.1231,0.989,-0.05295,6.438,-0.0547,-0.01563,1.699,-0.00522,-0.002932,-0.03168,1.0,0.0,8.29,-0.0,0.0,1.529,0.0
1738777515158600807,0.9497,0.007214,6.637,-0.06274,0.001768,1.78,-0.00524,-0.00333,-0.12335,0.989,-0.05295,6.53,-0.0547,-0.01172,1.746,-0.005325,-0.001811,-0.03186,1.0,0.0,8.44,-0.0,0.0,1.394,0.0
1738777515208640575,0.9463,0.00738,6.73,-0.06122,0.004604,1.797,-0.005295,-0.003403,-0.1236,0.989,-0.05295,6.6,-0.05078,-0.01172,1.766,-0.00531,-0.002674,-0.03192,1.0,0.0,8.44,-0.0,0.0,1.394,0.0
1738777515258587837,0.9434,0.007694,6.824,-0.06003,0.00744,1.804,-0.00537,-0.004395,-0.12384,0.9717,-0.05295,6.71,-0.05078,-0.007812,1.789,-0.005394,-0.002762,-0.032,1.0,0.0,8.57,-0.0,0.0,1.243,0.0
1738777515308618783,0.9404,0.00812,6.91,-0.0593,0.01008,1.807,-0.00544,-0.004578,-0.124,0.9717,-0.05295,6.773,-0.04688,-0.003906,1.797,-0.00547,-0.003368,-0.032,1.0,0.0,8.57,-0.0,0.0,1.243,0.0
1738777515358589887,0.9375,0.00867,6.996,-0.05844,0.0127,1.81,-0.005455,-0.004066,-0.12427,0.9717,-0.05295,6.867,-0.04688,-0.003906,1.801,-0.00546,-0.00406,-0.0321,1.0,0.0,8.68,-0.0,0.0,1.081,0.0
1738777515408648729,0.9346,0.0094,7.09,-0.05716,0.01546,1.8125,-0.005436,-0.003176,-0.1245,0.9717,-0.05295,6.94,-0.04688,0.0,1.805,-0.005554,-0.00363,-0.0321,1.0,0.0,8.68,-0.0,0.0,1.081,0.0
1738777515458629846,0.9316,0.0102,7.176,-0.05566,0.01785,1.801,-0.00547,-0.00321,-0.1247,0.9717,-0.05295,7.06,-0.04688,0.0,1.809,-0.00548,-0.002678,-0.0322,1.0,0.0,8.78,-0.0,0.0,0.907,0.0
1738777515508645534,0.9287,0.0112,7.27,-0.0544,0.02051,1.792,-0.00548,-0.003532,-0.12494,0.9717,-0.05295,7.113,-0.04688,0.0,1.805,-0.005573,-0.00242,-0.0323,1.0,0.0,8.78,-0.0,0.0,0.907,0.0
1738777515558624982,0.9263,0.01224,7.355,-0.05304,0.0228,1.766,-0.005497,-0.00309,-0.1251,0.954,-0.05295,7.21,-0.04297,0.003906,1.789,-0.00556,-0.00311,-0.0323,1.0,0.0,8.87,-0.0,0.0,0.7246,0.0
1738777515608586549,0.924,0.01349,7.445,-0.0516,0.0253,1.744,-0.005543,-0.002464,-0.1254,0.954,-0.05295,7.28,-0.04297,0.003906,1.777,-0.005486,-0.002506,-0.03238,1.0,0.0,8.87,-0.0,0.0,0.7246,0.0
1738777515658606290,0.9214,0.014755,7.53,-0.04938,0.02742,1.713,-0.00551,-0.000386,-0.1255,0.954,-0.05295,7.4,-0.04297,0.007812,1.742,-0.00558,-0.001904,-0.03244,1.0,0.0,8.93,-0.0,0.0,0.535,0.0
1738777515708599805,0.919,0.01625,7.617,-0.04654,0.02966,1.689,-0.0055,0.000491,-0.1257,0.954,-0.05295,7.45,-0.04297,0.01172,1.727,-0.005608,-0.0003502,-0.03253,1.0,0.0,8.93,-0.0,0.0,0.535,0.0
1738777515758598327,0.9165,0.01772,7.7,-0.04306,0.03152,1.657,-0.00546,0.002357,-0.1259,0.954,-0.05295,7.543,-0.03906,0.01172,1.691,-0.00554,0.0007725,-0.0327,1.0,0.0,8.97,-0.0,0.0,0.3398,0.0
1738777515808596849,0.9146,0.01941,7.785,-0.03903,0.03354,1.633,-0.005463,0.002798,-0.126,0.9365,-0.05295,7.61,-0.03906,0.01563,1.668,-0.00548,0.002586,-0.0328,1.0,0.0,8.97,-0.0,0.0,0.3398,0.0
1738777515858616590,0.9126,0.02106,7.863,-0.0348,0.0352,1.592,-0.005455,0.003729,-0.1261,0.9365,-0.05295,7.715,-0.03516,0.01563,1.633,-0.005493,0.003277,-0.03317,1.0,0.0,8.99,-0.0,0.0,0.1415,0.0
1738777515908604145,0.911,0.02293,7.945,-0.0308,0.03708,1.556,-0.005512,0.0023,-0.1262,0.9365,-0.02644,7.766,-0.03125,0.01953,1.613,-0.005424,0.0044,-0.03317,1.0,0.0,8.99,-0.0,0.0,0.1415,0.0
1738777515958674669,0.9097,0.02477,8.016,-0.02696,0.03873,1.508,-0.005505,0.003473,-0.1263,0.9365,-0.02644,7.85,-0.02734,0.02344,1.559,-0.00557,0.00267,-0.03342,1.0,0.0,9.0,-0.0,0.0,-0.0584,0.0
1738777516008669137,0.908,0.02682,8.09,-0.02303,0.0406,1.469,-0.005527,0.00273,-0.1263,0.9365,-0.02644,7.914,-0.02344,0.02344,1.527,-0.005505,0.003967,-0.0335,1.0,0.0,9.0,-0.0,0.0,-0.0584,0.0
1738777516058631896,0.907,0.02881,8.164,-0.01915,0.04196,1.401,-0.005035,0.00358,-0.1263,0.9365,-0.02644,8.01,-0.01953,0.02734,1.469,-0.005577,0.003187,-0.03366,1.0,0.0,8.984,-0.0,0.0,-0.2576,0.0
1738777516108649492,0.9062,0.03102,8.234,-0.0166,0.04318,1.322,-0.003689,-0.001453,-0.1263,0.9365,-0.02644,8.055,-0.01953,0.02734,1.445,-0.00534,0.004486,-0.0337,1.0,0.0,8.984,-0.0,0.0,-0.2576,0.0
1738777516158630132,0.906,0.0331,8.3,-0.014854,0.04382,1.243,-0.002619,0.000348,-0.1265,0.9365,-0.02644,8.125,-0.01172,0.02734,1.336,-0.00387,-0.0008426,-0.03384,1.0,0.0,8.945,-0.0,0.0,-0.4543,0.0
1738777516208671331,0.905,0.0354,8.36,-0.01281,0.04413,1.17,-0.001771,-4.7e-05,-0.1265,0.9365,-0.02644,8.18,-0.01172,0.03125,1.281,-0.002943,0.0004683,-0.03384,1.0,0.0,8.945,-0.0,0.0,-0.4543,0.0
1738777516258624792,0.9043,0.0375,8.414,-0.01005,0.04398,1.102,-0.001155,0.0037,-0.1265,0.919,-0.02644,8.26,-0.01172,0.03125,1.176,-0.00182,0.0004008,-0.03384,1.0,0.0,8.89,-0.0,0.0,-0.6465,0.0
1738777516308622121,0.904,0.0398,8.47,-0.006157,0.0435,1.045,-0.000752,0.004593,-0.1265,0.9365,-0.02644,8.3,-0.007812,0.03125,1.141,-0.0014305,0.00291,-0.03384,1.0,0.0,8.89,-0.0,0.0,-0.6465,0.0
1738777516358623743,0.904,0.04187,8.516,-0.001787,0.04276,0.969,-0.000504,0.006786,-0.1265,0.919,-0.02644,8.36,-0.003906,0.03125,1.051,-0.000942,0.004646,-0.03403,1.0,0.0,8.82,-0.0,0.0,-0.8325,0.0
1738777516408623456,0.904,0.04407,8.56,0.001928,0.04205,0.8857,-0.000485,0.002535,-0.1265,0.919,-0.02644,8.4,0.0,0.03125,1.008,-0.0007296,0.007324,-0.03418,1.0,0.0,8.82,-0.0,0.0,-0.8325,0.0
1738777516458625316,0.904,0.04608,8.61,0.00489,0.04144,0.7964,-0.000399,0.00413,-0.1263,0.919,-0.02644,8.45,0.0,0.03125,0.8984,-0.000656,0.00301,-0.03436,1.0,0.0,8.73,-0.0,0.0,-1.01,0.0
1738777516508591651,0.9043,0.04822,8.64,0.00744,0.04086,0.6943,-0.000446,0.000366,-0.1263,0.919,-0.02644,8.484,0.003906,0.03125,0.8516,-0.000589,0.004135,-0.03436,1.0,0.0,8.73,-0.0,0.0,-1.01,0.0
1738777516558619737,0.905,0.05014,8.67,0.009575,0.04034,0.6113,-0.000395,0.002811,-0.1262,0.919,7.606e-05,8.53,0.007812,0.03125,0.711,-0.0006204,0.000939,-0.03436,1.0,0.0,8.62,-0.0,0.0,-1.177,0.0
1738777516608614444,0.9053,0.05225,8.7,0.01272,0.03967,0.547,-0.000285,0.003635,-0.1261,0.9365,7.606e-05,8.555,0.007812,0.03125,0.6484,-0.000562,0.00258,-0.03436,1.0,0.0,8.62,-0.0,0.0,-1.177,0.0
1738777516658619880,0.906,0.0541,8.73,0.0165,0.0389,0.475,-0.000199,0.006428,-0.1261,0.919,7.606e-05,8.59,0.01172,0.02734,0.5547,-0.0004106,0.003792,-0.03436,1.0,0.0,8.49,-0.0,0.0,-1.333,0.0
1738777516708603620,0.9067,0.05597,8.75,0.02026,0.03812,0.4094,-0.000247,0.004875,-0.126,0.9365,7.606e-05,8.61,0.01563,0.02734,0.5195,-0.0003672,0.006294,-0.03436,1.0,0.0,8.49,-0.0,0.0,-1.333,0.0
1738777516758611440,0.908,0.05807,8.77,0.02489,0.03717,0.3218,-0.000204,0.006786,-0.1259,0.919,7.606e-05,8.64,0.01953,0.02734,0.418,-0.0003498,0.00526,-0.03455,1.0,0.0,8.35,-0.0,0.0,-1.475,0.0
1738777516808633089,0.909,0.05984,8.79,0.02849,0.03644,0.2566,-0.000262,0.004696,-0.1257,0.9365,7.606e-05,8.664,0.02344,0.02734,0.3203,-0.000377,0.006813,-0.0346,1.0,0.0,8.35,-0.0,0.0,-1.475,0.0
1738777516858619928,0.9106,0.06158,8.8,0.0321,0.03568,0.1666,-0.00024,0.005913,-0.1256,0.9365,7.606e-05,8.67,0.02734,0.02734,0.2695,-0.0003474,0.00509,-0.0347,1.0,0.0,8.195,-0.0,0.0,-1.603,0.0
1738777516908608436,0.9126,0.0633,8.8,0.03384,0.0352,0.03102,-0.000436,-0.003422,-0.1255,0.9365,7.606e-05,8.69,0.03125,0.02734,0.2266,-0.0003743,0.00664,-0.0347,1.0,0.0,8.195,-0.0,0.0,-1.603,0.0
1738777516958623409,0.914,0.0651,8.8,0.03287,0.0351,-0.06757,-0.000497,-0.003944,-0.1252,0.9365,7.606e-05,8.695,0.03516,0.02734,0.05078,-0.0005603,-0.002514,-0.03488,1.0,0.0,8.03,-0.0,0.0,-1.714,0.0
1738777517008652210,0.916,0.0669,8.8,0.03427,0.0347,-0.1189,-0.000288,0.00342,-0.1251,0.9365,7.606e-05,8.695,0.03516,0.02734,-0.02734,-0.0006967,-0.00459,-0.03503,1.0,0.0,8.03,-0.0,0.0,-1.714,0.0
1738777517058630704,0.9175,0.06854,8.79,0.03818,0.0338,-0.1962,0.000371,0.00677,-0.1249,0.9365,7.606e-05,8.69,0.03125,0.02344,-0.10547,-0.0004847,0.003014,-0.03522,1.0,0.0,7.855,-0.0,0.0,-1.809,0.0
1738777517108650922,0.9194,0.0703,8.77,0.04028,0.03275,-0.3062,0.001672,-0.00234,-0.12463,0.9365,7.606e-05,8.69,0.03516,0.02344,-0.1406,-0.00013,0.007423,-0.03503,1.0,0.0,7.855,-0.0,0.0,-1.809,0.0
1738777517158608675,0.9214,0.07184,8.76,0.04007,0.0317,-0.4111,0.002182,-0.003689,-0.12445,0.9365,7.606e-05,8.67,0.03906,0.02344,-0.2812,0.001399,-0.001011,-0.03522,1.0,0.0,7.67,-0.0,0.0,-1.885,0.0
1738777517208641767,0.924,0.0735,8.734,0.03894,0.03075,-0.5215,0.001465,-0.00736,-0.1242,0.9365,7.606e-05,8.664,0.03906,0.02344,-0.3398,0.002035,-0.002813,-0.0353,1.0,0.0,7.67,-0.0,0.0,-1.885,0.0
1738777517258616685,0.9253,0.0749,8.7,0.03778,0.03009,-0.6064,0.000988,-0.004105,-0.1239,0.9365,7.606e-05,8.63,0.03906,0.02344,-0.496,0.001412,-0.006622,-0.0355,1.0,0.0,7.477,-0.0,0.0,-1.942,0.0
1738777517308648347,0.9272,0.07635,8.67,0.03784,0.02943,-0.668,0.000627,-0.001903,-0.12366,0.9365,7.606e-05,8.62,0.03516,0.01953,-0.5547,0.001037,-0.0049,-0.03555,1.0,0.0,7.477,-0.0,0.0,-1.942,0.0
1738777517358624219,0.929,0.0779,8.64,0.0394,0.02867,-0.746,0.000392,0.001288,-0.1233,0.9365,0.0266,8.586,0.03516,0.01953,-0.6562,0.0005426,-0.001371,-0.03564,1.0,0.0,7.28,-0.0,0.0,-1.98,0.0
1738777517408672332,0.931,0.07935,8.59,0.04056,0.02809,-0.8174,0.000122,-0.00165,-0.12305,0.9365,0.0266,8.56,0.03516,0.01953,-0.703,0.0003147,0.001732,-0.0354,1.0,0.0,7.28,-0.0,0.0,-1.98,0.0
1738777517458662509,0.933,0.0807,8.555,0.04147,0.02765,-0.899,-5e-06,-0.000744,-0.12274,0.954,0.0266,8.516,0.03906,0.01953,-0.801,1.836e-05,-0.001036,-0.0354,1.0,0.0,7.082,-0.0,0.0,-1.998,0.0
1738777517508681058,0.9355,0.082,8.51,0.04153,0.02736,-0.9805,-0.000181,-0.00498,-0.12244,0.954,0.0266,8.484,0.03906,0.01563,-0.84,0.0,-0.0,-0.03555,1.0,0.0,7.082,-0.0,0.0,-1.998,0.0
1738777517558647155,0.9375,0.08344,8.46,0.041,0.02719,-1.069,-0.000234,-0.0038,-0.1221,0.954,0.0266,8.44,0.03906,0.01563,-0.965,-0.000356,-0.00424,-0.03574,1.0,0.0,6.883,-0.0,0.0,-1.997,0.0
1738777517608678340,0.9395,0.0847,8.41,0.04044,0.02705,-1.142,-0.000294,-0.00519,-0.12177,0.954,0.0266,8.4,0.03906,0.01563,-1.023,-0.0003715,-0.003374,-0.03574,1.0,0.0,6.883,-0.0,0.0,-1.997,0.0
1738777517658663988,0.9414,0.0861,8.34,0.04025,0.02678,-1.208,0.000233,-0.00201,-0.12134,0.954,0.0266,8.336,0.03516,0.01563,-1.129,-0.0003498,-0.00458,-0.03574,1.0,0.0,6.684,-0.0,0.0,-1.975,0.0
1738777517708708047,0.9434,0.0874,8.28,0.04095,0.02602,-1.252,0.001643,-0.000812,-0.121,0.954,0.0266,8.3,0.03516,0.01563,-1.168,-0.0002142,-0.002508,-0.03574,1.0,0.0,6.684,-0.0,0.0,-1.975,0.0
1738777517758691310,0.946,0.0887,8.22,0.04254,0.02454,-1.308,0.002878,0.001086,-0.1206,0.954,0.0266,8.234,0.03516,0.01563,-1.242,0.001387,-0.0003207,-0.03555,1.0,0.0,6.49,-0.0,0.0,-1.934,0.0
1738777517808699607,0.9478,0.08984,8.16,0.0438,0.02275,-1.348,0.003622,-0.000358,-0.1203,0.954,0.0266,8.19,0.03516,0.01563,-1.27,0.002304,0.001509,-0.03522,1.0,0.0,6.49,-0.0,0.0,-1.934,0.0
1738777517858640193,0.95,0.09094,8.086,0.04507,0.02065,-1.408,0.00417,-0.000243,-0.12,0.954,0.0266,8.1,0.03516,0.01563,-1.34,0.003365,0.000145,-0.03488,1.0,0.0,6.297,-0.0,0.0,-1.873,0.0
1738777517908679962,0.952,0.0919,8.016,0.04523,0.01866,-1.46,0.00443,-0.003567,-0.1198,0.954,0.0266,8.055,0.03906,0.01172,-1.367,0.003786,0.0007563,-0.0347,1.0,0.0,6.297,-0.0,0.0,-1.873,0.0
1738777517958670139,0.9546,0.09283,7.938,0.04498,0.01656,-1.533,0.004616,-0.003439,-0.1195,0.954,0.0266,7.98,0.03906,0.01172,-1.449,0.004196,-0.003035,-0.0347,1.0,0.0,6.113,-0.0,0.0,-1.794,0.0
1738777518008687973,0.9565,0.09357,7.86,0.04382,0.014725,-1.6,0.004658,-0.007137,-0.11926,0.954,0.0266,7.92,0.03906,0.007812,-1.492,0.00436,-0.002514,-0.0348,1.0,0.0,6.113,-0.0,0.0,-1.794,0.0
1738777518058634281,0.959,0.0943,7.777,0.04224,0.0126,-1.64,0.00479,-0.00374,-0.11896,0.9717,0.0266,7.83,0.03906,0.007812,-1.586,0.00443,-0.006485,-0.03488,1.0,0.0,5.94,-0.0,0.0,-1.696,0.0
1738777518108659029,0.961,0.09485,7.695,0.04282,0.01026,-1.656,0.00498,0.000539,-0.11865,0.9717,0.0266,7.773,0.03906,0.007812,-1.617,0.004574,-0.00493,-0.03488,1.0,0.0,5.94,-0.0,0.0,-1.696,0.0
1738777518158656597,0.9634,0.0953,7.61,0.04523,0.007416,-1.662,0.00513,0.003462,-0.11835,0.9717,0.0266,7.684,0.03906,0.003906,-1.648,0.004734,0.000859,-0.03452,1.0,0.0,5.777,-0.0,0.0,-1.582,0.0
1738777518208678483,0.966,0.0956,7.523,0.0485,0.00442,-1.663,0.005177,0.004143,-0.11804,0.9717,0.0266,7.617,0.03906,0.003906,-1.656,0.00486,0.00345,-0.03436,1.0,0.0,5.777,-0.0,0.0,-1.582,0.0
1738777518258647441,0.9683,0.0957,7.445,0.05145,0.001668,-1.663,0.005173,0.003513,-0.1178,0.9717,0.0266,7.52,0.04297,0.0,-1.66,0.00484,0.004658,-0.03418,1.0,0.0,5.625,-0.0,0.0,-1.452,0.0
1738777518308705329,0.9707,0.09576,7.363,0.05392,-0.000983,-1.662,0.005135,0.002235,-0.1176,0.9717,0.0266,7.46,0.04688,0.0,-1.66,0.004932,0.004402,-0.03418,1.0,0.0,5.625,-0.0,0.0,-1.452,0.0
1738777518358699798,0.9736,0.09564,7.277,0.05585,-0.003716,-1.661,0.00508,0.000623,-0.11743,0.9717,0.0531,7.37,0.05078,0.0,-1.656,0.004875,0.00276,-0.034,1.0,0.0,5.49,-0.0,0.0,-1.308,0.0
1738777518408700942,0.976,0.0954,7.2,0.05695,-0.00611,-1.661,0.005047,-0.000665,-0.11725,0.989,0.0531,7.305,0.0547,-0.003906,-1.656,0.004894,0.001551,-0.03384,1.0,0.0,5.49,-0.0,0.0,-1.308,0.0
1738777518458684921,0.979,0.095,7.113,0.05753,-0.0086,-1.66,0.005028,-0.001719,-0.11707,0.989,0.0531,7.203,0.0586,-0.003906,-1.656,0.004753,-0.000179,-0.03366,1.0,0.0,5.363,-0.0,0.0,-1.149,0.0
1738777518508685111,0.982,0.0945,7.027,0.0577,-0.010994,-1.659,0.005005,-0.002445,-0.11694,0.989,0.0531,7.145,0.0586,-0.007812,-1.656,0.004765,-0.0008698,-0.0335,1.0,0.0,5.363,-0.0,0.0,-1.149,0.0
1738777518558669328,0.985,0.09393,6.945,0.0576,-0.013145,-1.657,0.00502,-0.002878,-0.1168,0.989,0.0531,7.06,0.0586,-0.01172,-1.656,0.004692,-0.0018215,-0.03314,1.0,0.0,5.258,-0.0,0.0,-0.9805,0.0
1738777518608682870,0.988,0.0932,6.867,0.05734,-0.01528,-1.656,0.005054,-0.00315,-0.1167,0.989,0.0531,6.992,0.0625,-0.01172,-1.656,0.004696,-0.002167,-0.033,1.0,0.0,5.258,-0.0,0.0,-0.9805,0.0
1738777518658668041,0.9907,0.09235,6.78,0.05692,-0.01755,-1.654,0.005054,-0.003773,-0.1167,1.007,0.0531,6.89,0.0625,-0.01563,-1.652,0.00479,-0.002598,-0.0328,1.0,0.0,5.168,-0.0,0.0,-0.802,0.0
1738777518708685874,0.993,0.0915,6.7,0.056,-0.01958,-1.652,0.00507,-0.00528,-0.11664,1.007,0.0531,6.832,0.0625,-0.01563,-1.652,0.004707,-0.00286,-0.0327,1.0,0.0,5.168,-0.0,0.0,-0.802,0.0
1738777518758684396,0.996,0.0904,6.613,0.0543,-0.02165,-1.651,0.00508,-0.00659,-0.1165,1.007,0.0531,6.742,0.0625,-0.01563,-1.648,0.004826,-0.00467,-0.03247,1.0,0.0,5.098,-0.0,0.0,-0.6147,0.0
1738777518808691024,0.999,0.0893,6.535,0.05225,-0.02348,-1.651,0.00507,-0.007534,-0.1165,1.007,0.0531,6.676,0.0625,-0.01953,-1.648,0.00484,-0.005707,-0.03265,1.0,0.0,5.098,-0.0,0.0,-0.6147,0.0
1738777518858659029,1.001,0.0881,6.45,0.04962,-0.02539,-1.652,0.005066,-0.00833,-0.11646,1.007,0.0531,6.57,0.0586,-0.01953,-1.648,0.004776,-0.007,-0.033,1.0,0.0,5.047,-0.0,0.0,-0.4216,0.0
1738777518908665180,1.004,0.0868,6.37,0.04697,-0.0271,-1.652,0.005077,-0.0086,-0.11633,1.023,0.0531,6.52,0.0586,-0.02344,-1.648,0.004787,-0.00752,-0.03317,1.0,0.0,5.047,-0.0,0.0,-0.4216,0.0
1738777518958666324,1.006,0.0853,6.285,0.04407,-0.02914,-1.616,0.005142,-0.006527,-0.1162,1.023,0.0531,6.43,0.0547,-0.02344,-1.648,0.00488,-0.00795,-0.03336,1.0,0.0,5.01,-0.0,0.0,-0.2244,0.0
1738777519008692741,1.008,0.08386,6.207,0.0435,-0.03128,-1.583,0.005257,-0.00263,-0.1161,1.023,0.0531,6.37,0.05078,-0.02344,-1.637,0.004784,-0.007343,-0.03333,1.0,0.0,5.01,-0.0,0.0,-0.2244,0.0
1738777519058661699,1.011,0.0822,6.13,0.04327,-0.0336,-1.556,0.005238,-0.004837,-0.116,1.023,0.0266,6.258,0.05078,-0.02734,-1.582,0.004868,-0.001991,-0.033,1.0,0.0,5.0,-0.0,0.0,-0.02478,0.0
1738777519108671188,1.013,0.0805,6.055,0.04153,-0.03546,-1.541,0.00516,-0.00837,-0.11597,1.023,0.0266,6.21,0.05078,-0.02734,-1.566,0.004883,-0.003027,-0.0328,1.0,0.0,5.0,-0.0,0.0,-0.02478,0.0
1738777519158647060,1.015,0.0786,5.973,0.0377,-0.03732,-1.5,0.005116,-0.01032,-0.1159,1.023,0.0266,6.125,0.05078,-0.03125,-1.539,0.00487,-0.007603,-0.03284,1.0,0.0,5.008,-0.0,0.0,0.175,0.0
1738777519208687782,1.017,0.0768,5.902,0.03464,-0.03906,-1.467,0.005177,-0.00885,-0.1158,1.023,0.0266,6.062,0.04688,-0.03516,-1.52,0.004826,-0.00993,-0.03284,1.0,0.0,5.008,-0.0,0.0,0.175,0.0
1738777519258670806,1.018,0.0747,5.83,0.03088,-0.04102,-1.402,0.00521,-0.00971,-0.1158,1.041,0.0266,5.977,0.04297,-0.03516,-1.469,0.0048,-0.00821,-0.033,1.0,0.0,5.035,-0.0,0.0,0.373,0.0
1738777519308723688,1.02,0.0727,5.76,0.02856,-0.043,-1.341,0.005306,-0.006187,-0.11566,1.041,0.0266,5.92,0.03906,-0.03906,-1.441,0.004906,-0.0095,-0.03308,1.0,0.0,5.035,-0.0,0.0,0.373,0.0
1738777519358680248,1.0205,0.07043,5.695,0.02625,-0.0451,-1.264,0.004795,-0.008194,-0.1156,1.041,0.0266,5.848,0.03906,-0.03906,-1.348,0.005013,-0.00553,-0.03265,1.0,0.0,5.082,-0.0,0.0,0.5674,0.0
1738777519408674716,1.022,0.06824,5.637,0.02417,-0.0465,-1.197,0.003452,-0.00694,-0.1156,1.041,0.0266,5.797,0.03516,-0.04297,-1.301,0.00478,-0.007347,-0.03247,1.0,0.0,5.082,-0.0,0.0,0.5674,0.0
1738777519458633184,1.023,0.0658,5.574,0.02113,-0.04718,-1.119,0.00221,-0.01033,-0.11566,1.041,0.0266,5.72,0.03516,-0.04297,-1.203,0.003122,-0.006252,-0.03204,1.0,0.0,5.15,-0.0,0.0,0.756,0.0
1738777519508699178,1.024,0.0635,5.523,0.01797,-0.0472,-1.053,0.001435,-0.00948,-0.1157,1.041,0.0266,5.68,0.03516,-0.04688,-1.164,0.0023,-0.00886,-0.03195,1.0,0.0,5.15,-0.0,0.0,0.756,0.0
1738777519558665990,1.025,0.06107,5.47,0.013664,-0.04672,-0.9688,0.000817,-0.012344,-0.1158,1.041,0.0266,5.617,0.03125,-0.04688,-1.059,0.001176,-0.00879,-0.03177,1.0,0.0,5.234,-0.0,0.0,0.937,0.0
1738777519608638763,1.025,0.05884,5.426,0.00999,-0.0461,-0.8877,0.000558,-0.00948,-0.11584,1.041,0.0266,5.582,0.02734,-0.04688,-1.02,0.000697,-0.011215,-0.03195,1.0,0.0,5.234,-0.0,0.0,0.937,0.0
1738777519658638954,1.026,0.05646,5.383,0.00602,-0.0453,-0.7974,0.000293,-0.01214,-0.11597,1.041,0.0266,5.52,0.02344,-0.04688,-0.8984,0.0003133,-0.008804,-0.03195,1.0,0.0,5.336,-0.0,0.0,1.108,0.0
1738777519708686828,1.026,0.0543,5.344,0.002258,-0.04443,-0.715,0.000206,-0.0102,-0.11597,1.041,0.0266,5.49,0.01953,-0.04688,-0.8516,8.696e-05,-0.01079,-0.0321,1.0,0.0,5.336,-0.0,0.0,1.108,0.0
1738777519758682727,1.026,0.052,5.312,-0.00219,-0.0434,-0.6216,6.9e-05,-0.013084,-0.116,1.041,7.61e-05,5.445,0.01563,-0.04297,-0.7227,-1.94e-05,-0.0095,-0.0323,1.0,0.0,5.453,-0.0,0.0,1.27,0.0
1738777519808715820,1.026,0.04996,5.28,-0.00635,-0.04242,-0.5376,7.2e-05,-0.01101,-0.1161,1.059,7.61e-05,5.418,0.01172,-0.04297,-0.668,-0.0002369,-0.012,-0.03247,1.0,0.0,5.453,-0.0,0.0,1.27,0.0
1738777519858652830,1.025,0.0478,5.258,-0.01117,-0.0413,-0.4456,-3e-05,-0.01358,-0.1161,1.059,7.61e-05,5.38,0.007812,-0.04297,-0.547,-0.000265,-0.01028,-0.03247,1.0,0.0,5.59,-0.0,0.0,1.417,0.0
1738777519908674716,1.024,0.04584,5.24,-0.0152,-0.04025,-0.362,-2.7e-05,-0.01021,-0.1161,1.059,7.61e-05,5.363,0.003906,-0.04297,-0.5,-0.0003152,-0.012436,-0.03262,1.0,0.0,5.59,-0.0,0.0,1.417,0.0
1738777519958674192,1.024,0.04376,5.223,-0.01913,-0.03918,-0.2605,-5.8e-05,-0.0116,-0.1161,1.041,7.61e-05,5.34,0.0,-0.04297,-0.379,-0.0002725,-0.00976,-0.03262,1.0,0.0,5.74,-0.0,0.0,1.551,0.0
1738777520008679389,1.023,0.0419,5.21,-0.0215,-0.0384,-0.1338,9.9e-05,-0.00475,-0.1161,1.041,7.61e-05,5.324,0.0,-0.03906,-0.3164,-0.0004263,-0.01097,-0.03247,1.0,0.0,5.74,-0.0,0.0,1.551,0.0
1738777520058661222,1.021,0.03992,5.207,-0.02133,-0.03793,-0.01029,0.000129,-0.005604,-0.11615,1.041,7.61e-05,5.31,-0.003906,-0.03906,-0.1523,-0.000191,-0.004234,-0.0321,1.0,0.0,5.9,-0.0,0.0,1.669,0.0
1738777520108556509,1.0205,0.03812,5.21,-0.02145,-0.03748,0.1104,0.000178,-0.003712,-0.1162,1.041,7.61e-05,5.305,-0.003906,-0.03906,-0.08203,-0.000109,-0.00397,-0.032,1.0,0.0,5.9,-0.0,0.0,1.669,0.0
1738777520158541202,1.02,0.03616,5.22,-0.02199,-0.03696,0.1812,5.3e-05,-0.00987,-0.1164,1.041,7.61e-05,5.305,-0.003906,-0.03906,0.08984,-0.000211,-0.003025,-0.03177,1.0,0.0,6.07,-0.0,0.0,1.771,0.0
1738777520208542346,1.019,0.03442,5.227,-0.02658,-0.0359,0.2109,-0.000195,-0.01755,-0.11646,1.041,7.61e-05,5.31,-0.003906,-0.03906,0.1523,-0.0001509,-0.00682,-0.03168,1.0,0.0,6.07,-0.0,0.0,1.771,0.0
1738777520258608579,1.017,0.0326,5.242,-0.03528,-0.03418,0.272,-0.000296,-0.01979,-0.11664,1.041,7.61e-05,5.32,-0.01172,-0.03516,0.207,-0.000501,-0.01736,-0.03177,1.0,0.0,6.254,-0.0,0.0,1.8545,0.0
1738777520308583498,1.016,0.03099,5.254,-0.04156,-0.03284,0.3337,-0.000116,-0.01417,-0.11676,1.041,7.61e-05,5.33,-0.01563,-0.03516,0.2266,-0.0006356,-0.01978,-0.03177,1.0,0.0,6.254,-0.0,0.0,1.8545,0.0
1738777520358610868,1.013,0.02931,5.273,-0.04678,-0.03168,0.4229,-3e-05,-0.012886,-0.1169,1.041,7.61e-05,5.336,-0.02734,-0.03516,0.3203,-0.0003889,-0.01356,-0.03177,1.0,0.0,6.44,-0.0,0.0,1.92,0.0
1738777520408640146,1.011,0.02782,5.297,-0.04922,-0.03093,0.52,0.00016,-0.006012,-0.117,1.041,7.61e-05,5.35,-0.03125,-0.03516,0.371,-0.000396,-0.01305,-0.03195,1.0,0.0,6.44,-0.0,0.0,1.92,0.0
1738777520458623647,1.008,0.02621,5.33,-0.04977,-0.03047,0.621,0.000212,-0.00659,-0.1172,1.041,7.61e-05,5.38,-0.03516,-0.03125,0.504,-0.000173,-0.005444,-0.0316,1.0,0.0,6.637,-0.0,0.0,1.967,0.0
1738777520508634328,1.006,0.02477,5.36,-0.04974,-0.03015,0.7085,0.000254,-0.003654,-0.1174,1.041,7.61e-05,5.4,-0.03516,-0.03125,0.5586,-8.285e-05,-0.0057,-0.0315,1.0,0.0,6.637,-0.0,0.0,1.967,0.0
