time,x_sphinx,y_sphinx,z_sphinx,vx_sphinx,vy_sphinx,vz_sphinx,roll_sphinx,pitch_sphinx,yaw_sphinx,x_anafi,y_anafi,z_anafi,vx_anafi,vy_anafi,vz_anafi,roll_anafi,pitch_anafi,yaw_anafi,wp_x,wp_y,wp_z,wp_vx,wp_vy,wp_vz,wp_yaw
1738833811894925594,-0.05576,0.002266,6.46,-0.04163,-0.03403,2.139,-0.00473,-0.02055,0.005367,-0.00665,-0.02625,6.418,-0.02344,-0.03906,2.168,-0.002556,-0.01775,0.03497,0.0,0.0,6.832,0.0,0.0,1.993,0.0
1738833811944914102,-0.05817,0.000571,6.57,-0.0503,-0.03111,2.117,-0.005074,-0.02075,0.00513,-0.00665,-0.02625,6.504,-0.02734,-0.03516,2.133,-0.003056,-0.02179,0.03482,0.0,0.0,7.0,0.0,0.0,2.0,0.0
1738833811994920492,-0.06097,-0.000962,6.68,-0.05658,-0.02791,2.139,-0.00502,-0.01154,0.00484,-0.00665,-0.02625,6.64,-0.03906,-0.03125,2.121,-0.003225,-0.0167,0.03464,0.0,0.0,7.0,0.0,0.0,2.0,0.0
1738833812045043706,-0.0637,-0.002232,6.785,-0.05795,-0.02507,2.146,-0.004944,-0.006535,0.00462,-0.00665,-0.02625,6.676,-0.04297,-0.03125,2.133,-0.00321,-0.01091,0.03436,0.0,0.0,7.2,0.0,0.0,1.99,0.0
1738833812095047235,-0.0668,-0.003454,6.895,-0.05902,-0.02197,2.113,-0.006165,-0.01009,0.00445,-0.02414,-0.02625,6.816,-0.04297,-0.02734,2.137,-0.003405,-0.007195,0.0342,0.0,0.0,7.2,0.0,0.0,1.99,0.0
1738833812145060062,-0.0699,-0.004498,7.004,-0.06216,-0.01808,2.104,-0.00753,-0.01039,0.004333,-0.02414,-0.02625,6.9,-0.04297,-0.02734,2.11,-0.00459,-0.01089,0.03397,0.0,0.0,7.4,0.0,0.0,1.96,0.0
1738833812195017099,-0.07294,-0.00527,7.105,-0.0633,-0.01414,2.113,-0.00719,-0.004765,0.004208,-0.02414,-0.02625,7.047,-0.04688,-0.01953,2.105,-0.00565,-0.007328,0.0337,0.0,0.0,7.4,0.0,0.0,1.96,0.0
1738833812244930267,-0.0759,-0.00586,7.207,-0.06198,-0.01057,2.11,-0.006565,-0.002056,0.00411,-0.02414,-0.02625,7.074,-0.04688,-0.01953,2.11,-0.005257,-0.004574,0.03384,0.0,0.0,7.59,0.0,0.0,1.911,0.0
1738833812294880628,-0.07886,-0.006287,7.31,-0.06055,-0.0074,2.086,-0.006195,-0.003054,0.004017,-0.02414,-0.02625,7.21,-0.04688,-0.01172,2.098,-0.00453,-0.002514,0.03384,0.0,0.0,7.59,0.0,0.0,1.911,0.0
1738833812344923496,-0.082,-0.006584,7.414,-0.05917,-0.004116,2.074,-0.005844,-0.001474,0.003881,-0.02414,-0.02625,7.297,-0.04297,-0.01172,2.082,-0.0042,-0.00321,0.03384,0.0,0.0,7.777,0.0,0.0,1.842,0.0
1738833812394917726,-0.0848,-0.00671,7.516,-0.05652,-0.001228,2.07,-0.00554,0.001461,0.003738,-0.02414,-0.02625,7.43,-0.04297,-0.007812,2.07,-0.003798,6.425e-05,0.03384,0.0,0.0,7.777,0.0,0.0,1.842,0.0
1738833812444912195,-0.0876,-0.006695,7.62,-0.05234,0.001723,2.066,-0.00532,0.003345,0.003637,-0.04163,-0.02625,7.47,-0.03906,-0.003906,2.066,-0.0036,0.001615,0.03384,0.0,0.0,7.957,0.0,0.0,1.755,0.0
1738833812494903326,-0.09,-0.00655,7.723,-0.04822,0.0043,2.053,-0.005253,0.002989,0.003527,-0.04163,-0.02625,7.605,-0.03516,0.0,2.059,-0.0034,0.003164,0.03366,0.0,0.0,7.957,0.0,0.0,1.755,0.0
1738833812544902801,-0.0924,-0.006252,7.83,-0.044,0.007053,2.047,-0.005184,0.003323,0.003454,-0.04163,-0.02625,7.688,-0.03125,0.0,2.047,-0.00332,0.002731,0.03348,0.0,0.0,8.13,0.0,0.0,1.65,0.0
1738833812594927549,-0.0944,-0.005856,7.926,-0.0396,0.009384,2.045,-0.004288,0.00452,0.003393,-0.04163,-0.02625,7.82,-0.02344,0.0,2.043,-0.003132,0.003765,0.0334,0.0,0.0,8.13,0.0,0.0,1.65,0.0
1738833812644937038,-0.0964,-0.005314,8.03,-0.0344,0.011215,2.04,-0.002802,0.005096,0.003319,-0.04163,-0.02625,7.86,-0.02344,0.003906,2.04,-0.002256,0.00444,0.03333,0.0,0.0,8.29,0.0,0.0,1.529,0.0
1738833812694915771,-0.098,-0.0047,8.14,-0.02948,0.01234,2.023,-0.001793,0.003887,0.00326,-0.04163,-0.02625,7.94,-0.01953,0.003906,2.04,-0.001128,0.004852,0.03323,0.0,0.0,8.29,0.0,0.0,1.529,0.0
1738833812744920969,-0.0993,-0.00409,8.234,-0.02545,0.01297,2.012,-0.001101,0.003723,0.003252,-0.04163,-0.02625,8.07,-0.01172,0.007812,2.02,0.000142,0.003365,0.03305,0.0,0.0,8.44,0.0,0.0,1.394,0.0
1738833812794921159,-0.10046,-0.00346,8.33,-0.02151,0.01331,1.996,-0.000653,0.003319,0.003223,-0.04163,-0.02625,8.2,-0.007812,0.007812,2.0,0.000917,0.003265,0.033,0.0,0.0,8.44,0.0,0.0,1.394,0.0
1738833812844940185,-0.10144,-0.002762,8.44,-0.01736,0.01347,1.974,-0.000315,0.003681,0.003258,-0.0591,-0.02625,8.24,-0.007812,0.007812,1.992,0.001172,0.003002,0.033,0.0,0.0,8.57,0.0,0.0,1.243,0.0
1738833812894972324,-0.1022,-0.002113,8.53,-0.01451,0.013504,1.916,-0.000223,-0.001189,0.003258,-0.0591,-0.02625,8.37,-0.003906,0.007812,1.953,0.001588,0.002047,0.0329,0.0,0.0,8.57,0.0,0.0,1.243,0.0
1738833812944977045,-0.10297,-0.001412,8.625,-0.01389,0.0135,1.87,-0.000153,-0.003101,0.003302,-0.0591,-0.02625,8.445,0.0,0.007812,1.91,0.001508,-0.002787,0.033,0.0,0.0,8.68,0.0,0.0,1.081,0.0
1738833812994968175,-0.1036,-0.000764,8.71,-0.0135,0.013466,1.778,-0.000146,-0.006138,0.003307,-0.0591,-0.02625,8.57,0.0,0.007812,1.832,0.001664,-0.003826,0.0328,0.0,0.0,8.68,0.0,0.0,1.081,0.0
1738833813044973850,-0.1043,-6.6e-05,8.805,-0.01511,0.01341,1.708,-0.00012,-0.00705,0.003365,-0.0591,-0.02625,8.6,0.0,0.007812,1.773,0.001611,-0.007107,0.03262,0.0,0.0,8.78,0.0,0.0,0.907,0.0
1738833813094966888,-0.10504,0.000577,8.88,-0.01562,0.01336,1.598,-0.000108,-0.00738,0.003416,-0.0591,-0.02625,8.72,-0.003906,0.007812,1.676,0.001713,-0.006157,0.03244,0.0,0.0,8.78,0.0,0.0,0.907,0.0
1738833813145000457,-0.10596,0.001269,8.96,-0.01744,0.01328,1.514,-9e-05,-0.007175,0.003527,-0.0591,-0.02625,8.78,-0.003906,0.007812,1.586,0.001675,-0.008575,0.0323,0.0,0.0,8.87,0.0,0.0,0.7246,0.0
1738833813194976091,-0.1069,0.001959,9.04,-0.01772,0.01321,1.38,-7.2e-05,-0.00667,0.003649,-0.0591,-0.02625,8.88,-0.007812,0.007812,1.465,0.00181,-0.005554,0.032,0.0,0.0,8.87,0.0,0.0,0.7246,0.0
1738833813244920015,-0.1077,0.00259,9.1,-0.01904,0.01313,1.29,-6.4e-05,-0.006622,0.003805,-0.0591,-0.02625,8.91,-0.007812,0.007812,1.387,0.0016985,-0.007195,0.03192,0.0,0.0,8.93,0.0,0.0,0.535,0.0
1738833813294982194,-0.10864,0.003218,9.164,-0.019,0.01305,1.159,-4.6e-05,-0.00516,0.00399,-0.0591,-0.02625,8.99,-0.007812,0.007812,1.254,0.00182,-0.005035,0.03177,0.0,0.0,8.93,0.0,0.0,0.535,0.0
1738833813344974279,-0.1097,0.003895,9.22,-0.01968,0.01296,1.067,-3.4e-05,-0.00435,0.004177,-0.0591,-0.02625,9.05,-0.007812,0.007812,1.145,0.001803,-0.006073,0.03168,0.0,0.0,8.97,0.0,0.0,0.3398,0.0
1738833813394929647,-0.1106,0.004513,9.266,-0.01831,0.01286,0.945,5e-05,-0.000549,0.004406,-0.0591,-0.02625,9.12,-0.007812,0.003906,1.027,0.001795,-0.00115,0.0315,0.0,0.0,8.97,0.0,0.0,0.3398,0.0
1738833813444924831,-0.1115,0.00518,9.31,-0.01779,0.012764,0.8154,-2.9e-05,-0.004887,0.004665,-0.0766,-0.02625,9.13,-0.007812,0.007812,0.9414,0.001877,-0.0014105,0.03134,0.0,0.0,8.99,0.0,0.0,0.1415,0.0
1738833813494914770,-0.1124,0.00584,9.35,-0.01775,0.01268,0.6606,-9.8e-05,-0.005226,0.00493,-0.0766,-0.02625,9.19,-0.007812,0.003906,0.7773,0.001826,-0.004692,0.03116,0.0,0.0,8.99,0.0,0.0,0.1415,0.0
1738833813544926643,-0.1133,0.00645,9.38,-0.01802,0.01261,0.563,-5.4e-05,-0.003048,0.005234,-0.0766,-0.02625,9.22,-0.007812,0.003906,0.6562,0.001725,-0.00564,0.03107,0.0,0.0,9.0,0.0,0.0,-0.0584,0.0
1738833813594926595,-0.1142,0.007103,9.41,-0.01642,0.01253,0.4192,2e-06,-0.000943,0.00555,-0.0766,-0.02625,9.26,-0.007812,0.003906,0.5117,0.001803,-0.0006323,0.03099,0.0,0.0,9.0,0.0,0.0,-0.0584,0.0
1738833813644922018,-0.1149,0.0077,9.42,-0.01538,0.01243,0.324,4.3e-05,-0.000418,0.005905,-0.0766,-0.02625,9.266,-0.003906,0.003906,0.4258,0.001793,-0.001323,0.03082,0.0,0.0,8.984,0.0,0.0,-0.2576,0.0
1738833813695003986,-0.11566,0.00835,9.44,-0.01302,0.01234,0.1799,2.6e-05,0.001288,0.006298,-0.0766,-0.02625,9.28,-0.003906,0.003906,0.3594,0.00179,-0.001495,0.03082,0.0,0.0,8.984,0.0,0.0,-0.2576,0.0
1738833813744940280,-0.1163,0.008934,9.445,-0.011086,0.01226,0.0859,9e-06,0.002342,0.00663,-0.0766,-0.02625,9.3,0.0,0.003906,0.1758,0.001737,0.0006638,0.03116,0.0,0.0,8.945,0.0,0.0,-0.4543,0.0
1738833813794945955,-0.1167,0.00952,9.445,-0.008026,0.01219,-0.04727,7e-06,0.003902,0.00693,-0.0766,-0.02625,9.305,0.0,0.007812,0.03516,0.001879,0.0042,0.03143,0.0,0.0,8.945,0.0,0.0,-0.4543,0.0
1738833813844942331,-0.11707,0.010155,9.44,-0.00523,0.01212,-0.1525,1e-06,0.003681,0.007248,-0.0766,-0.02625,9.31,0.0,0.007812,-0.04297,0.001863,0.003164,0.03152,0.0,0.0,8.89,0.0,0.0,-0.6465,0.0
1738833813894922733,-0.11725,0.010735,9.43,-0.001963,0.01206,-0.2876,-2.2e-05,0.004463,0.00751,-0.0766,-0.02625,9.305,0.003906,0.007812,-0.1836,0.001891,0.00489,0.03177,0.0,0.0,8.89,0.0,0.0,-0.6465,0.0
1738833813944943904,-0.11725,0.01136,9.414,0.000907,0.01201,-0.392,-3.4e-05,0.004078,0.00782,-0.0766,-0.02625,9.3,0.007812,0.007812,-0.2969,0.001779,0.003252,0.03177,0.0,0.0,8.82,0.0,0.0,-0.8325,0.0
1738833813994928359,-0.1171,0.01193,9.39,0.004284,0.01196,-0.5254,-3.2e-05,0.00511,0.008064,-0.0766,-0.02625,9.27,0.01172,0.007812,-0.4375,0.001817,0.00567,0.03195,0.0,0.0,8.82,0.0,0.0,-0.8325,0.0
1738833814044954538,-0.1168,0.01256,9.36,0.00731,0.01191,-0.6313,-2.8e-05,0.004494,0.008354,-0.0766,-0.02625,9.266,0.01172,0.007812,-0.5234,0.001795,0.004288,0.03195,0.0,0.0,8.73,0.0,0.0,-1.01,0.0
1738833814094927549,-0.1164,0.01313,9.33,0.01064,0.01187,-0.7666,-2.9e-05,0.00515,0.00861,-0.0766,-0.02625,9.23,0.01563,0.007812,-0.66,0.001905,0.005753,0.0321,0.0,0.0,8.73,0.0,0.0,-1.01,0.0
1738833814144963979,-0.11584,0.013695,9.29,0.01336,0.01182,-0.8623,-4.8e-05,0.004253,0.008865,-0.0766,-0.02625,9.195,0.01953,0.007812,-0.7734,0.00179,0.003944,0.0321,0.0,0.0,8.62,0.0,0.0,-1.177,0.0
1738833814194917201,-0.11505,0.01431,9.234,0.01685,0.01179,-1.005,-4.5e-05,0.004517,0.00913,-0.0766,-0.02625,9.14,0.02344,0.007812,-0.914,0.001905,0.005753,0.0322,0.0,0.0,8.62,0.0,0.0,-1.177,0.0
1738833814244901657,-0.1141,0.01492,9.18,0.01917,0.01174,-1.11,-5.4e-05,0.00243,0.00942,-0.0766,-0.02625,9.125,0.02734,0.007812,-1.0,0.001784,0.003597,0.0321,0.0,0.0,8.49,0.0,0.0,-1.333,0.0
1738833814294900655,-0.1131,0.01549,9.125,0.02159,0.01171,-1.235,-7.4e-05,0.002707,0.00965,-0.0766,-0.02625,9.055,0.03125,0.007812,-1.141,0.001867,0.003336,0.0323,0.0,0.0,8.49,0.0,0.0,-1.333,0.0
1738833814344974279,-0.11206,0.01605,9.06,0.02354,0.01167,-1.315,-3.8e-05,0.002771,0.00991,-0.0766,-0.02625,9.01,0.03125,0.007812,-1.242,0.001842,0.001783,0.03238,0.0,0.0,8.35,0.0,0.0,-1.475,0.0
1738833814394944429,-0.1107,0.01665,8.99,0.02678,0.01163,-1.438,2.4e-05,0.00452,0.010155,-0.0591,-0.02625,8.92,0.03516,0.007812,-1.359,0.001895,0.005062,0.03247,0.0,0.0,8.35,0.0,0.0,-1.475,0.0
1738833814444950103,-0.10925,0.01726,8.914,0.02913,0.011566,-1.534,-1.2e-05,0.002272,0.01038,-0.0591,-0.02625,8.9,0.03906,0.007812,-1.434,0.00196,0.003767,0.03247,0.0,0.0,8.195,0.0,0.0,-1.603,0.0
1738833814494927883,-0.10767,0.01785,8.836,0.0318,0.01152,-1.627,-1.2e-05,0.003736,0.01065,-0.0591,-0.02625,8.8,0.04297,0.007812,-1.555,0.001862,0.00299,0.03262,0.0,0.0,8.195,0.0,0.0,-1.603,0.0
1738833814544902324,-0.1061,0.0184,8.76,0.03528,0.011475,-1.666,8.7e-05,0.007175,0.010864,-0.0591,-0.02625,8.734,0.04297,0.007812,-1.625,0.001876,0.003855,0.03262,0.0,0.0,8.03,0.0,0.0,-1.714,0.0
1738833814594905614,-0.10425,0.01895,8.67,0.04108,0.01141,-1.681,0.000237,0.011375,0.011086,-0.0591,0.0002708,8.625,0.04688,0.007812,-1.668,0.002056,0.009636,0.03265,0.0,0.0,8.03,0.0,0.0,-1.714,0.0
1738833814644919157,-0.1019,0.01955,8.586,0.04846,0.01129,-1.6875,0.000323,0.01153,0.01132,-0.0591,0.0002708,8.6,0.05078,0.007812,-1.676,0.002172,0.011444,0.03265,0.0,0.0,7.855,0.0,0.0,-1.809,0.0
1738833814694892883,-0.0994,0.02008,8.51,0.0547,0.01118,-1.689,0.000298,0.009415,0.01151,-0.0591,0.0002708,8.53,0.0586,0.007812,-1.68,0.002174,0.011444,0.033,0.0,0.0,7.855,0.0,0.0,-1.809,0.0
1738833814744928836,-0.0967,0.02061,8.42,0.05975,0.01106,-1.691,0.000235,0.006874,0.01171,-0.0591,0.0002708,8.42,0.0703,0.007812,-1.684,0.002129,0.00868,0.033,0.0,0.0,7.67,0.0,0.0,-1.885,0.0
1738833814794893980,-0.09344,0.0212,8.336,0.0639,0.01096,-1.692,0.000132,0.0042,0.0119,-0.04163,0.0002708,8.31,0.0781,0.007812,-1.6875,0.002071,0.005234,0.033,0.0,0.0,7.67,0.0,0.0,-1.885,0.0
1738833814844924211,-0.09033,0.02171,8.26,0.0666,0.0109,-1.693,6.6e-05,0.00217,0.0121,-0.04163,0.0002708,8.28,0.0781,0.007812,-1.6875,0.00196,0.003767,0.033,0.0,0.0,7.477,0.0,0.0,-1.942,0.0
1738833814894891262,-0.0868,0.02228,8.164,0.0686,0.01086,-1.694,5e-06,0.000435,0.01227,-0.04163,0.0002708,8.17,0.08594,0.01172,-1.691,0.001834,0.001265,0.03314,0.0,0.0,7.477,0.0,0.0,-1.942,0.0
1738833814944915771,-0.0832,0.02284,8.08,0.0698,0.010826,-1.695,-1.9e-05,-0.000912,0.01247,-0.02414,0.0002708,8.11,0.08594,0.007812,-1.691,0.001814,5.61e-05,0.03333,0.0,0.0,7.28,0.0,0.0,-1.98,0.0
1738833814994890689,-0.07983,0.02336,7.996,0.0703,0.010796,-1.695,-1.3e-05,-0.002811,0.01261,-0.02414,0.0002708,8.0,0.08984,0.007812,-1.691,0.001782,-0.0018425,0.03348,0.0,0.0,7.28,0.0,0.0,-1.98,0.0
1738833815044913291,-0.0765,0.02388,7.918,0.0698,0.01076,-1.694,-2e-05,-0.00466,0.01275,-0.02414,0.0002708,7.97,0.08984,0.007812,-1.691,0.001849,-0.002966,0.03366,0.0,0.0,7.082,0.0,0.0,-1.998,0.0
1738833815094900369,-0.0729,0.02444,7.83,0.06854,0.01071,-1.693,-5.2e-05,-0.00594,0.01285,-0.00665,0.0002708,7.86,0.08984,0.007812,-1.691,0.001811,-0.00521,0.034,0.0,0.0,7.082,0.0,0.0,-1.998,0.0
1738833815144921779,-0.06964,0.02495,7.746,0.0669,0.010666,-1.692,-5.5e-05,-0.00677,0.01292,-0.00665,0.0002708,7.793,0.08984,0.007812,-1.6875,0.0018835,-0.00599,0.034,0.0,0.0,6.883,0.0,0.0,-1.997,0.0
1738833815194893360,-0.0662,0.02551,7.66,0.06464,0.01061,-1.69,-4.4e-05,-0.00844,0.01304,-0.00665,0.0002708,7.684,0.08984,0.007812,-1.6875,0.001862,-0.00737,0.03366,0.0,0.0,6.883,0.0,0.0,-1.997,0.0
1738833815244936704,-0.0629,0.02606,7.57,0.06143,0.01054,-1.6875,-2.9e-05,-0.01015,0.01317,-0.00665,0.0002708,7.652,0.08984,0.007812,-1.6875,0.001842,-0.008575,0.03366,0.0,0.0,6.684,0.0,0.0,-1.975,0.0
1738833815294927358,-0.06006,0.02657,7.49,0.05792,0.01046,-1.685,-5e-05,-0.01116,0.01329,0.01084,0.0002708,7.543,0.08594,0.007812,-1.684,0.00181,-0.010475,0.03348,0.0,0.0,6.684,0.0,0.0,-1.975,0.0
1738833815344979524,-0.05737,0.02705,7.41,0.05402,0.0104,-1.683,-8.1e-05,-0.01193,0.01341,0.01084,0.0002708,7.473,0.08203,0.007812,-1.68,0.0018835,-0.01125,0.03348,0.0,0.0,6.49,0.0,0.0,-1.934,0.0
1738833815394941806,-0.0547,0.0276,7.32,0.04953,0.01032,-1.68,-7.5e-05,-0.01254,0.01358,0.01084,0.0002708,7.363,0.0781,0.007812,-1.676,0.001869,-0.012115,0.03348,0.0,0.0,6.49,0.0,0.0,-1.934,0.0
1738833815444978713,-0.05222,0.02814,7.234,0.0448,0.010254,-1.677,-8.2e-05,-0.013,0.01374,0.01084,0.0002708,7.336,0.0742,0.007812,-1.676,0.0018635,-0.01247,0.03348,0.0,0.0,6.297,0.0,0.0,-1.873,0.0
1738833815494916677,-0.05017,0.02863,7.152,0.0403,0.010185,-1.674,-8.1e-05,-0.013245,0.013855,0.01084,0.0002708,7.227,0.0703,0.007812,-1.672,0.001854,-0.012985,0.03357,0.0,0.0,6.297,0.0,0.0,-1.873,0.0
1738833815544973850,-0.04837,0.02911,7.074,0.0358,0.01011,-1.671,-6.7e-05,-0.01353,0.014,0.02832,0.0002708,7.16,0.0664,0.007812,-1.668,0.001851,-0.01315,0.03357,0.0,0.0,6.113,0.0,0.0,-1.794,0.0
1738833815594908714,-0.04663,0.02963,6.99,0.03062,0.010025,-1.668,-4e-05,-0.014824,0.01414,0.02832,0.0002708,7.05,0.0586,0.007812,-1.668,0.001836,-0.014015,0.03366,0.0,0.0,6.113,0.0,0.0,-1.794,0.0
1738833815644932508,-0.0453,0.03012,6.906,0.02516,0.009926,-1.664,-6.1e-05,-0.01614,0.01427,0.02832,0.0002708,7.02,0.0547,0.007812,-1.664,0.0018215,-0.01488,0.03366,0.0,0.0,5.94,0.0,0.0,-1.696,0.0
1738833815694958925,-0.04416,0.03062,6.82,0.01898,0.00983,-1.66,-6.7e-05,-0.01591,0.01437,0.02832,0.0002708,6.96,0.0547,0.007812,-1.66,0.001803,-0.01591,0.03375,0.0,0.0,5.94,0.0,0.0,-1.696,0.0
1738833815744975566,-0.0433,0.03114,6.734,0.01324,0.009735,-1.657,-7.6e-05,-0.01524,0.01447,0.02832,0.0002708,6.844,0.04297,0.007812,-1.656,0.001808,-0.01557,0.0339,0.0,0.0,5.777,0.0,0.0,-1.582,0.0
1738833815794923782,-0.04282,0.03162,6.656,0.00818,0.00965,-1.654,-8.6e-05,-0.01497,0.01455,0.02832,0.0002708,6.734,0.03906,0.007812,-1.652,0.001731,-0.01496,0.034,0.0,0.0,5.777,0.0,0.0,-1.582,0.0
1738833815844967603,-0.04254,0.03207,6.574,0.003271,0.009575,-1.65,-7.6e-05,-0.01473,0.014656,0.02832,0.0002708,6.703,0.03125,0.01172,-1.652,0.001819,-0.01488,0.034,0.0,0.0,5.625,0.0,0.0,-1.452,0.0
1738833815894928216,-0.0425,0.03256,6.49,-0.00187,0.00948,-1.646,-4.7e-05,-0.01451,0.014725,0.02832,0.0002708,6.594,0.02734,0.01172,-1.645,0.001824,-0.014534,0.0341,0.0,0.0,5.625,0.0,0.0,-1.452,0.0
1738833815944977045,-0.04272,0.03305,6.406,-0.00688,0.00939,-1.643,-4.8e-05,-0.014435,0.01481,0.02832,0.0002708,6.527,0.01953,0.01172,-1.645,0.001827,-0.014366,0.0341,0.0,0.0,5.49,0.0,0.0,-1.308,0.0
1738833815994939088,-0.0432,0.03354,6.32,-0.011826,0.00929,-1.639,-4.5e-05,-0.01444,0.01487,0.02832,0.02678,6.42,0.01563,0.01172,-1.637,0.001827,-0.014366,0.0341,0.0,0.0,5.49,0.0,0.0,-1.308,0.0
1738833816044951915,-0.0439,0.03397,6.242,-0.01634,0.0092,-1.636,-2.4e-05,-0.01441,0.01496,0.02832,0.02678,6.39,0.01172,0.01172,-1.637,0.001827,-0.014366,0.0341,0.0,0.0,5.363,0.0,0.0,-1.149,0.0
1738833816094909906,-0.0448,0.03442,6.16,-0.02065,0.00911,-1.639,-3.2e-05,-0.01386,0.01501,0.02832,0.02678,6.28,0.003906,0.01172,-1.633,0.00183,-0.01419,0.0341,0.0,0.0,5.363,0.0,0.0,-1.149,0.0
1738833816144957065,-0.04587,0.03485,6.082,-0.0246,0.009026,-1.638,-2.8e-05,-0.01282,0.01506,0.02832,0.02678,6.22,0.0,0.01172,-1.637,0.001754,-0.01359,0.0341,0.0,0.0,5.258,0.0,0.0,-0.9805,0.0
1738833816194985151,-0.04727,0.0353,6.0,-0.02815,0.008934,-1.635,-1e-06,-0.01128,0.01515,0.02832,0.02678,6.11,0.0,0.01172,-1.633,0.001784,-0.011856,0.034,0.0,0.0,5.258,0.0,0.0,-0.9805,0.0
1738833816244951963,-0.04868,0.03574,5.918,-0.03085,0.008835,-1.633,6.8e-05,-0.01063,0.0152,0.02832,0.02678,6.08,-0.003906,0.01172,-1.633,0.001796,-0.01117,0.034,0.0,0.0,5.168,0.0,0.0,-0.802,0.0
1738833816294922828,-0.05035,0.0362,5.836,-0.0336,0.00845,-1.63,0.001176,-0.01033,0.01531,0.01084,0.02678,5.97,-0.007812,0.01172,-1.629,0.00224,-0.01057,0.0338,0.0,0.0,5.168,0.0,0.0,-0.802,0.0
1738833816344919443,-0.05215,0.03662,5.75,-0.03613,0.00746,-1.629,0.00255,-0.00997,0.01541,0.01084,0.02678,5.906,-0.007812,0.01172,-1.629,0.00328,-0.01025,0.0338,0.0,0.0,5.098,0.0,0.0,-0.6147,0.0
1738833816394901990,-0.05396,0.03693,5.67,-0.03815,0.00604,-1.627,0.003466,-0.008865,0.01551,0.01084,0.02678,5.797,-0.01172,0.01172,-1.625,0.004845,-0.009575,0.03363,0.0,0.0,5.098,0.0,0.0,-0.6147,0.0
1738833816444893836,-0.05582,0.0372,5.594,-0.03952,0.004234,-1.613,0.00417,-0.00708,0.01563,0.01084,0.02678,5.76,-0.01563,0.01172,-1.625,0.00538,-0.00872,0.03363,0.0,0.0,5.047,0.0,0.0,-0.4216,0.0
1738833816494936466,-0.0579,0.03735,5.51,-0.039,0.001714,-1.534,0.004814,0.00046,0.0158,0.01084,0.02678,5.656,-0.01563,0.007812,-1.586,0.006138,-0.004593,0.0338,0.0,0.0,5.047,0.0,0.0,-0.4216,0.0
1738833816544921398,-0.05966,0.03735,5.44,-0.0347,-0.000694,-1.482,0.00519,0.00342,0.01591,0.01084,0.02678,5.594,-0.01563,0.007812,-1.527,0.006687,0.002216,0.03403,0.0,0.0,5.01,0.0,0.0,-0.2244,0.0
1738833816594905138,-0.06134,0.03726,5.367,-0.02998,-0.003672,-1.38,0.00539,0.0044,0.016,0.01084,0.02678,5.5,-0.01172,0.003906,-1.4375,0.00695,0.002644,0.03418,0.0,0.0,5.01,0.0,0.0,-0.2244,0.0
1738833816644899606,-0.0626,0.03702,5.3,-0.02461,-0.00628,-1.316,0.00543,0.00408,0.01607,0.01084,0.02678,5.47,-0.007812,0.0,-1.379,0.007076,0.0048,0.03445,0.0,0.0,5.0,0.0,0.0,-0.02478,0.0
1738833816694890737,-0.0638,0.0366,5.234,-0.01997,-0.00952,-1.168,0.00546,0.004482,0.01608,-0.00665,0.02678,5.42,-0.003906,0.0,-1.332,0.007156,0.004364,0.03473,0.0,0.0,5.0,0.0,0.0,-0.02478,0.0
1738833816744930744,-0.06464,0.036,5.18,-0.01151,-0.01266,-1.031,0.00554,0.00993,0.01602,-0.00665,0.02678,5.332,0.0,0.0,-1.152,0.007195,0.006607,0.03543,0.0,0.0,5.008,0.0,0.0,0.175,0.0
1738833816794914245,-0.065,0.03534,5.133,-0.003752,-0.015396,-0.878,0.004456,0.00737,0.0159,-0.00665,0.02678,5.266,0.007812,-0.003906,-0.9766,0.006783,0.007565,0.03568,0.0,0.0,5.008,0.0,0.0,0.175,0.0
1738833816844928741,-0.065,0.03455,5.094,0.00291,-0.0172,-0.768,0.003109,0.005142,0.01576,-0.00665,0.02678,5.246,0.01172,-0.007812,-0.875,0.006,0.007145,0.03586,0.0,0.0,5.035,0.0,0.0,0.373,0.0
1738833816894907712,-0.06476,0.03363,5.06,0.006878,-0.01852,-0.5977,0.001997,0.001387,0.015564,-0.00665,0.02678,5.195,0.01953,-0.007812,-0.7227,0.00417,0.001306,0.03616,0.0,0.0,5.035,0.0,0.0,0.373,0.0
1738833816944935083,-0.0643,0.0327,5.035,0.011894,-0.0192,-0.4514,0.001412,0.005146,0.01536,-0.00665,0.02678,5.168,0.01953,-0.01172,-0.578,0.0035,0.002525,0.03644,0.0,0.0,5.082,0.0,0.0,0.5674,0.0
1738833816994986295,-0.06354,0.0317,5.016,0.0169,-0.01959,-0.2708,0.000925,0.002354,0.01506,-0.00665,0.02678,5.137,0.02734,-0.01172,-0.379,0.00281,0.002539,0.03677,0.0,0.0,5.082,0.0,0.0,0.5674,0.0
1738833817045001983,-0.06256,0.03069,5.004,0.0212,-0.0197,-0.133,0.000585,0.000814,0.01475,-0.00665,0.02678,5.13,0.03125,-0.01172,-0.254,0.002548,0.002457,0.03696,0.0,0.0,5.15,0.0,0.0,0.756,0.0
1738833817094982624,-0.06146,0.02974,5.0,0.0224,-0.01967,0.02869,0.000342,-0.002333,0.01442,-0.00665,0.02678,5.113,0.03516,-0.01563,-0.09766,0.002205,-0.002113,0.0371,0.0,0.0,5.15,0.0,0.0,0.756,0.0
1738833817145012378,-0.06036,0.02881,5.008,0.02428,-0.01952,0.1584,0.000239,-0.000973,0.014046,-0.00665,0.02678,5.113,0.03516,-0.01563,0.03906,0.002043,-0.001593,0.03748,0.0,0.0,5.234,0.0,0.0,0.937,0.0
1738833817195003509,-0.05908,0.02779,5.02,0.02472,-0.0193,0.326,0.000118,-0.003588,0.0136,-0.00665,0.02678,5.12,0.03516,-0.01563,0.2188,0.002,-0.003836,0.0372,0.0,0.0,5.234,0.0,0.0,0.937,0.0
1738833817244936943,-0.05786,0.02687,5.04,0.0254,-0.01906,0.4375,6.6e-05,-0.003862,0.01323,-0.00665,0.02678,5.13,0.03516,-0.01563,0.336,0.001929,-0.003057,0.03702,0.0,0.0,5.336,0.0,0.0,1.108,0.0
1738833817294895648,-0.05658,0.0259,5.062,0.02368,-0.0188,0.5923,3e-06,-0.006413,0.01284,-0.00665,0.02678,5.156,0.03516,-0.01563,0.4766,0.001775,-0.006767,0.03687,0.0,0.0,5.336,0.0,0.0,1.108,0.0
1738833817344973325,-0.05548,0.025,5.094,0.02306,-0.01852,0.6943,5e-06,-0.005665,0.012474,-0.00665,0.02678,5.176,0.03125,-0.01563,0.6016,0.001797,-0.005558,0.03677,0.0,0.0,5.453,0.0,0.0,1.27,0.0
1738833817394923925,-0.05432,0.02403,5.137,0.02028,-0.01825,0.834,4e-06,-0.008675,0.0121,-0.00665,0.02678,5.227,0.03125,-0.01563,0.746,0.001825,-0.00875,0.03668,0.0,0.0,5.453,0.0,0.0,1.27,0.0
1738833817444987058,-0.0534,0.02316,5.176,0.01787,-0.018,0.923,1e-05,-0.0095,0.01174,-0.00665,0.02678,5.246,0.02734,-0.01563,0.8438,0.001831,-0.00841,0.03668,0.0,0.0,5.59,0.0,0.0,1.417,0.0
1738833817494912147,-0.0526,0.02223,5.23,0.0129,-0.01778,1.05,-5e-06,-0.01149,0.01137,-0.00665,0.0002708,5.305,0.02344,-0.01563,0.961,0.001765,-0.01203,0.03668,0.0,0.0,5.59,0.0,0.0,1.417,0.0
1738833817544903516,-0.0521,0.0214,5.28,0.00918,-0.01755,1.124,-1.6e-05,-0.01202,0.01102,-0.00665,0.0002708,5.348,0.01953,-0.01563,1.059,0.001784,-0.010994,0.03668,0.0,0.0,5.74,0.0,0.0,1.551,0.0
1738833817594902992,-0.05176,0.02048,5.344,0.003393,-0.0173,1.252,1.3e-05,-0.01085,0.010605,0.01084,0.0002708,5.418,0.01172,-0.01563,1.176,0.001739,-0.01341,0.03687,0.0,0.0,5.74,0.0,0.0,1.551,0.0
1738833817644928693,-0.05167,0.01965,5.406,0.001111,-0.01709,1.343,6.6e-05,-0.007706,0.01019,-0.00665,0.0002708,5.438,0.01172,-0.01563,1.25,0.001802,-0.009964,0.03687,0.0,0.0,5.9,0.0,0.0,1.669,0.0
1738833817694890022,-0.05167,0.01877,5.477,-0.001119,-0.01689,1.468,0.000126,-0.006264,0.009766,-0.00665,0.0002708,5.48,0.007812,-0.01563,1.3125,0.001928,-0.007805,0.03677,0.0,0.0,5.9,0.0,0.0,1.669,0.0
1738833817744923353,-0.05176,0.01796,5.55,-0.001972,-0.01671,1.54,7.9e-05,-0.00746,0.00938,-0.00665,0.0002708,5.582,0.003906,-0.01563,1.473,0.001965,-0.005905,0.0366,0.0,0.0,6.07,0.0,0.0,1.771,0.0
1738833817794888734,-0.05194,0.0171,5.633,-0.004833,-0.01651,1.691,8e-05,-0.005657,0.00895,-0.00665,0.0002708,5.68,0.003906,-0.01563,1.59,0.001822,-0.00893,0.0365,0.0,0.0,6.07,0.0,0.0,1.771,0.0
1738833817844910383,-0.05212,0.01631,5.72,-0.003017,-0.01633,1.809,0.000265,0.000211,0.00857,-0.00665,0.0002708,5.707,0.0,-0.01563,1.6875,0.001908,-0.004265,0.0365,0.0,0.0,6.254,0.0,0.0,1.8545,0.0
1738833817894896984,-0.05222,0.01553,5.81,-0.001196,-0.01624,1.95,0.000262,-0.001873,0.00818,-0.00665,0.0002708,5.82,0.003906,-0.01563,1.852,0.001952,-0.001848,0.03625,0.0,0.0,6.254,0.0,0.0,1.8545,0.0
1738833817944903612,-0.05222,0.014694,5.914,0.001098,-0.01611,2.062,0.000257,-0.001515,0.007767,-0.00665,0.0002708,5.9,0.007812,-0.01953,1.973,0.002048,-0.001246,0.03644,0.0,0.0,6.44,0.0,0.0,1.92,0.0
1738833817994883060,-0.05215,0.013855,6.023,0.000424,-0.01596,2.137,6.4e-05,-0.009346,0.007355,-0.00665,0.0002708,6.03,0.007812,-0.01953,2.098,0.001959,-0.006252,0.03607,0.0,0.0,6.44,0.0,0.0,1.92,0.0
1738833818044893741,-0.05225,0.0131,6.125,-0.003714,-0.01573,2.172,-0.000147,-0.014626,0.006992,-0.00665,0.0002708,6.06,0.007812,-0.01953,2.129,0.001894,-0.00987,0.03607,0.0,0.0,6.637,0.0,0.0,1.967,0.0
1738833818094889163,-0.0526,0.01228,6.24,-0.01061,-0.01541,2.188,-0.00027,-0.01845,0.00661,-0.00665,0.0002708,6.207,0.0,-0.01953,2.176,0.001595,-0.01712,0.03564,0.0,0.0,6.637,0.0,0.0,1.967,0.0
