time,x_sphinx,y_sphinx,z_sphinx,vx_sphinx,vy_sphinx,vz_sphinx,roll_sphinx,pitch_sphinx,yaw_sphinx,x_anafi,y_anafi,z_anafi,vx_anafi,vy_anafi,vz_anafi,roll_anafi,pitch_anafi,yaw_anafi,wp_x,wp_y,wp_z,wp_vx,wp_vy,wp_vz,wp_yaw
1738833733461457014,-0.0426,0.04578,6.85,-0.02605,0.003141,1.133,0.000133,-0.000746,0.004017,-0.02414,0.0002708,6.83,-0.01953,-0.003906,1.148,0.001887,-0.000722,0.03323,0.0,0.0,6.934,0.0,0.0,0.9995,0.0
1738833733511477708,-0.04382,0.04593,6.906,-0.0253,0.003147,1.1,-4.1e-05,-0.00597,0.004047,-0.02414,0.0002708,6.863,-0.01953,-0.003906,1.141,0.001946,-0.002363,0.03333,0.0,0.0,7.0,0.0,0.0,1.0,0.0
1738833733561443805,-0.04517,0.04608,6.965,-0.02666,0.00322,1.095,-0.000173,-0.006332,0.00404,-0.02414,0.0002708,6.92,-0.01953,-0.003906,1.102,0.001771,-0.0078,0.03296,0.0,0.0,7.0,0.0,0.0,1.0,0.0
1738833733611457109,-0.04645,0.04623,7.016,-0.02577,0.00331,1.129,-2.5e-05,0.000924,0.004074,-0.02414,0.0002708,6.96,-0.01953,-0.003906,1.109,0.001731,-0.00495,0.03314,0.0,0.0,7.1,0.0,0.0,0.9985,0.0
1738833733661442756,-0.04767,0.04642,7.074,-0.02147,0.003334,1.135,9.4e-05,0.003275,0.004078,-0.02414,0.0002708,7.035,-0.01563,-0.003906,1.148,0.00195,0.003075,0.03323,0.0,0.0,7.1,0.0,0.0,0.9985,0.0
1738833733711475372,-0.04865,0.04657,7.13,-0.01906,0.00335,1.103,-5.2e-05,-0.002686,0.004116,-0.02414,0.0002708,7.074,-0.01172,-0.003906,1.141,0.001837,0.001437,0.03314,0.0,0.0,7.2,0.0,0.0,0.995,0.0
1738833733761463880,-0.04962,0.04675,7.188,-0.01912,0.003439,1.097,-0.000177,-0.004112,0.00413,-0.02414,0.0002708,7.133,-0.01172,-0.003906,1.102,0.001728,-0.005123,0.03333,0.0,0.0,7.2,0.0,0.0,0.995,0.0
1738833733811468601,-0.0506,0.04694,7.246,-0.01701,0.003536,1.133,-9e-06,0.003006,0.00415,-0.02414,0.0002708,7.176,-0.01172,-0.003906,1.117,0.001777,-0.002188,0.03348,0.0,0.0,7.3,0.0,0.0,0.989,0.0
1738833733861443758,-0.05124,0.0471,7.293,-0.012794,0.003561,1.138,5.8e-05,0.004627,0.004124,-0.04163,0.0002708,7.246,-0.007812,-0.003906,1.152,0.001974,0.004456,0.03342,0.0,0.0,7.3,0.0,0.0,0.989,0.0
1738833733911476850,-0.05182,0.04727,7.35,-0.00995,0.00361,1.089,-0.000158,-0.003035,0.004135,-0.04163,0.0002708,7.285,-0.003906,-0.003906,1.141,0.001936,0.002213,0.03333,0.0,0.0,7.4,0.0,0.0,0.98,0.0
1738833733961459398,-0.05234,0.0475,7.41,-0.010666,0.003754,1.074,-0.000316,-0.005306,0.004158,-0.02414,0.0002708,7.344,0.0,-0.003906,1.086,0.00162,-0.006416,0.03314,0.0,0.0,7.4,0.0,0.0,0.98,0.0
1738833734011484384,-0.05286,0.04767,7.46,-0.009384,0.003895,1.105,-0.000128,0.002205,0.004166,-0.02414,0.0002708,7.383,0.0,-0.003906,1.09,0.001663,-0.003826,0.03314,0.0,0.0,7.496,0.0,0.0,0.9688,0.0
1738833734061454772,-0.0532,0.04785,7.52,-0.00452,0.003963,1.108,1.5e-05,0.00476,0.004204,-0.04163,0.0002708,7.46,0.0,-0.003906,1.125,0.001976,0.004627,0.03323,0.0,0.0,7.496,0.0,0.0,0.9688,0.0
1738833734111470222,-0.05334,0.04807,7.57,-0.001854,0.004017,1.062,-0.000173,-0.002329,0.00422,-0.04163,0.0002708,7.49,0.0,-0.003906,1.117,0.001868,0.003336,0.03314,0.0,0.0,7.59,0.0,0.0,0.9556,0.0
1738833734161448478,-0.05344,0.04828,7.625,-0.002266,0.00416,1.048,-0.000323,-0.00462,0.004272,-0.02414,0.0002708,7.555,0.003906,-0.003906,1.055,0.001635,-0.005554,0.03314,0.0,0.0,7.59,0.0,0.0,0.9556,0.0
1738833734211437225,-0.05353,0.04846,7.676,-0.000938,0.00431,1.078,-0.000143,0.001747,0.004295,-0.02414,0.0002708,7.625,0.003906,-0.003906,1.082,0.001656,0.000922,0.03333,0.0,0.0,7.688,0.0,0.0,0.9395,0.0
1738833734261464118,-0.0535,0.04868,7.727,0.0029,0.004375,1.085,-1.9e-05,0.003212,0.00432,-0.02414,0.0002708,7.668,0.007812,-0.003906,1.098,0.001865,0.003162,0.03333,0.0,0.0,7.688,0.0,0.0,0.9395,0.0
1738833734311507701,-0.05325,0.04892,7.785,0.004936,0.00445,1.036,-0.000221,-0.00403,0.004337,-0.02414,0.0002708,7.7,0.01172,-0.003906,1.086,0.001828,0.0009193,0.03333,0.0,0.0,7.777,0.0,0.0,0.921,0.0
1738833734361539125,-0.05304,0.04913,7.836,0.003763,0.004604,1.021,-0.000365,-0.005756,0.004402,-0.02414,0.0002708,7.758,0.01172,-0.003906,1.031,0.001612,-0.00693,0.03305,0.0,0.0,7.777,0.0,0.0,0.921,0.0
1738833734411534547,-0.05283,0.04938,7.89,0.004753,0.004776,1.054,-0.000171,0.001325,0.004467,-0.02414,0.0002708,7.797,0.01172,-0.003906,1.039,0.001666,-0.003654,0.03314,0.0,0.0,7.87,0.0,0.0,0.9004,0.0
1738833734461489200,-0.05252,0.04962,7.94,0.00819,0.00486,1.055,-5.8e-05,0.002209,0.004505,-0.02414,0.0002708,7.867,0.01172,-0.003906,1.07,0.001854,0.002472,0.03333,0.0,0.0,7.87,0.0,0.0,0.9004,0.0
1738833734511419296,-0.0521,0.04987,7.992,0.009445,0.00493,1.008,-0.000241,-0.00565,0.004543,-0.02414,0.0002708,7.9,0.01563,-0.003906,1.059,0.001814,5.61e-05,0.03333,0.0,0.0,7.957,0.0,0.0,0.8774,0.0
1738833734561395883,-0.05164,0.0501,8.04,0.007088,0.005085,0.9907,-0.00038,-0.00855,0.0046,-0.02414,0.0002708,7.957,0.01563,-0.003906,1.0,0.001572,-0.00935,0.03314,0.0,0.0,7.957,0.0,0.0,0.8774,0.0
1738833734611423254,-0.05133,0.05035,8.09,0.006184,0.00524,1.007,-0.00023,-0.002813,0.004627,-0.02414,0.0002708,8.016,0.01172,-0.003906,1.012,0.001754,-0.003569,0.03323,0.0,0.0,8.05,0.0,0.0,0.8525,0.0
1738833734661399126,-0.05096,0.05063,8.14,0.00786,0.00534,1.002,-0.000116,-0.001005,0.00469,-0.02414,0.0002708,8.055,0.01563,-0.003906,1.02,0.001709,-0.001064,0.03333,0.0,0.0,8.05,0.0,0.0,0.8525,0.0
1738833734711432456,-0.0506,0.0509,8.19,0.00807,0.00542,0.952,-0.000249,-0.007294,0.00471,-0.02414,0.0002708,8.086,0.01563,-0.003906,1.008,0.001864,-0.002104,0.03342,0.0,0.0,8.13,0.0,0.0,0.825,0.0
1738833734761436462,-0.05023,0.05118,8.24,0.00528,0.005547,0.9287,-0.000342,-0.009155,0.004787,-0.02414,0.0002708,8.14,0.01563,-0.003906,0.9453,0.001557,-0.010216,0.03314,0.0,0.0,8.13,0.0,0.0,0.825,0.0
1738833734811448574,-0.05002,0.05145,8.28,0.004005,0.005684,0.9316,-0.000225,-0.004234,0.004833,-0.02414,0.0002708,8.17,0.01172,-0.003906,0.9375,0.001592,-0.00814,0.03314,0.0,0.0,8.21,0.0,0.0,0.796,0.0
1738833734861443996,-0.0498,0.05176,8.33,0.004856,0.00577,0.9214,-0.000129,-0.002197,0.004887,-0.02414,0.0002708,8.234,0.01172,-0.003906,0.9414,0.001856,-0.00262,0.03323,0.0,0.0,8.21,0.0,0.0,0.796,0.0
1738833734911437511,-0.04956,0.05203,8.375,0.00501,0.005844,0.883,-0.000224,-0.0062,0.00496,-0.02414,0.0002708,8.266,0.01172,-0.003906,0.926,0.00185,-0.002966,0.03333,0.0,0.0,8.29,0.0,0.0,0.7646,0.0
1738833734961417675,-0.04935,0.05234,8.42,0.003313,0.00596,0.8613,-0.000266,-0.00703,0.00502,-0.02414,0.0002708,8.32,0.01172,-0.003906,0.879,0.001682,-0.00788,0.03305,0.0,0.0,8.29,0.0,0.0,0.7646,0.0
1738833735011434078,-0.0492,0.0526,8.46,0.002594,0.006054,0.853,-0.000204,-0.004436,0.00509,-0.02414,0.0002708,8.34,0.01172,-0.003906,0.867,0.001706,-0.006504,0.03296,0.0,0.0,8.36,0.0,0.0,0.7314,0.0
1738833735061432600,-0.04904,0.05295,8.51,0.003,0.006134,0.8374,-0.000147,-0.003067,0.005207,-0.02414,0.0002708,8.41,0.01172,-0.003906,0.8594,0.001754,-0.003569,0.03314,0.0,0.0,8.36,0.0,0.0,0.7314,0.0
1738833735111463308,-0.04892,0.05322,8.55,0.002914,0.006218,0.796,-0.000256,-0.00652,0.005276,-0.02414,0.0002708,8.43,0.01172,-0.003906,0.8438,0.001751,-0.003742,0.03314,0.0,0.0,8.44,0.0,0.0,0.697,0.0
1738833735161443948,-0.0488,0.05353,8.586,0.001313,0.006317,0.7744,-0.000284,-0.007133,0.005367,-0.02414,0.0002708,8.48,0.007812,-0.003906,0.789,0.00168,-0.00806,0.03296,0.0,0.0,8.44,0.0,0.0,0.697,0.0
1738833735211485862,-0.04877,0.05386,8.625,0.000632,0.00643,0.7646,-0.000217,-0.004044,0.005478,-0.02414,0.0002708,8.51,0.007812,-0.003906,0.7773,0.001709,-0.00633,0.0328,0.0,0.0,8.5,0.0,0.0,0.66,0.0
1738833735261455535,-0.0487,0.0542,8.664,0.00128,0.00651,0.7485,-0.00014,-0.0026,0.0056,-0.02414,0.0002708,8.56,0.007812,-0.003906,0.7656,0.001762,-0.003052,0.03314,0.0,0.0,8.5,0.0,0.0,0.66,0.0
1738833735311494588,-0.04865,0.0545,8.695,0.001435,0.006588,0.7085,-0.000256,-0.005947,0.005695,-0.02414,0.0002708,8.58,0.007812,-0.003906,0.75,0.001842,-0.003485,0.03333,0.0,0.0,8.57,0.0,0.0,0.6216,0.0
1738833735361463308,-0.0486,0.05487,8.734,4e-05,0.0067,0.687,-0.000304,-0.00632,0.005787,-0.02414,0.0002708,8.625,0.007812,0.0,0.703,0.001604,-0.00745,0.03296,0.0,0.0,8.57,0.0,0.0,0.6216,0.0
1738833735411497354,-0.0486,0.05518,8.766,-0.000259,0.006813,0.679,-0.000217,-0.003569,0.005894,-0.02414,0.0002708,8.65,0.007812,0.0,0.6914,0.001718,-0.005814,0.03296,0.0,0.0,8.625,0.0,0.0,0.5815,0.0
1738833735461448669,-0.0486,0.0555,8.8,0.000505,0.00688,0.666,-0.00014,-0.00228,0.00599,-0.02414,0.0002708,8.695,0.007812,0.0,0.6797,0.001768,-0.002707,0.03333,0.0,0.0,8.625,0.0,0.0,0.5815,0.0
1738833735511491060,-0.04855,0.05588,8.83,0.000799,0.006954,0.621,-0.000224,-0.005978,0.00608,-0.02414,0.0002708,8.72,0.007812,0.0,0.66,0.001757,-0.003397,0.03333,0.0,0.0,8.68,0.0,0.0,0.5405,0.0
1738833735561444520,-0.04855,0.0562,8.86,-0.000558,0.007034,0.6,-0.000269,-0.006687,0.00615,-0.02414,0.0002708,8.75,0.007812,0.0,0.6133,0.001688,-0.007538,0.03314,0.0,0.0,8.68,0.0,0.0,0.5405,0.0
1738833735611486434,-0.0486,0.05658,8.89,-0.001006,0.00713,0.5903,-0.000182,-0.003662,0.006252,-0.02414,0.0002708,8.77,0.003906,0.0,0.6016,0.001715,-0.005985,0.03296,0.0,0.0,8.734,0.0,0.0,0.4976,0.0
1738833735661451339,-0.04865,0.05692,8.92,-0.000266,0.00719,0.577,-0.000123,-0.00231,0.006332,-0.02414,0.0002708,8.81,0.003906,0.0,0.5938,0.001853,-0.002794,0.03333,0.0,0.0,8.734,0.0,0.0,0.4976,0.0
1738833735711481809,-0.04865,0.0573,8.945,4.3e-05,0.007244,0.532,-0.000217,-0.005928,0.006435,-0.02414,0.0002708,8.836,0.007812,0.0,0.5703,0.001756,-0.003397,0.03348,0.0,0.0,8.78,0.0,0.0,0.4536,0.0
1738833735761441230,-0.04868,0.05765,8.98,-0.00127,0.007324,0.511,-0.000274,-0.006596,0.00651,-0.02414,0.0002708,8.87,0.003906,0.0,0.5234,0.001603,-0.00745,0.03314,0.0,0.0,8.78,0.0,0.0,0.4536,0.0
1738833735811503648,-0.04874,0.05804,9.0,-0.001652,0.007423,0.502,-0.000204,-0.003525,0.006626,-0.02414,0.0002708,8.88,0.003906,0.0,0.5117,0.001629,-0.005898,0.03314,0.0,0.0,8.83,0.0,0.0,0.4084,0.0
1738833735861462116,-0.04883,0.05838,9.02,-0.000839,0.007496,0.4885,-0.000157,-0.002186,0.006695,-0.02414,0.0002708,8.914,0.003906,0.0,0.504,0.001768,-0.002707,0.03348,0.0,0.0,8.83,0.0,0.0,0.4084,0.0
1738833735911469221,-0.04883,0.05878,9.05,-0.000478,0.007557,0.444,-0.000231,-0.005817,0.006775,-0.02414,0.0002708,8.93,0.003906,0.0,0.4844,0.001759,-0.003223,0.03348,0.0,0.0,8.87,0.0,0.0,0.3623,0.0
1738833735961477518,-0.0489,0.05917,9.07,-0.001811,0.007645,0.422,-0.000273,-0.00627,0.006832,-0.02414,0.0002708,8.96,0.003906,0.0,0.4336,0.00169,-0.007366,0.03333,0.0,0.0,8.87,0.0,0.0,0.3623,0.0
1738833736011469602,-0.049,0.05954,9.09,-0.002062,0.00773,0.4133,-0.000202,-0.003513,0.00692,-0.02414,0.0002708,8.98,0.003906,0.0,0.4258,0.001717,-0.005814,0.03314,0.0,0.0,8.9,0.0,0.0,0.3154,0.0
1738833736061571598,-0.04907,0.0599,9.11,-0.001258,0.007786,0.3992,-0.000131,-0.002213,0.006992,-0.02414,0.0002708,9.0,0.003906,0.0,0.414,0.001768,-0.002707,0.03348,0.0,0.0,8.9,0.0,0.0,0.3154,0.0
1738833736111535549,-0.04913,0.06033,9.125,-0.001048,0.00785,0.3403,-0.000255,-0.00694,0.00707,-0.02414,0.0002708,9.016,0.003906,0.0,0.3906,0.001841,-0.003485,0.03366,0.0,0.0,8.93,0.0,0.0,0.2676,0.0
1738833736161460399,-0.04922,0.0607,9.14,-0.003054,0.007935,0.3113,-0.000339,-0.00827,0.007126,-0.02414,0.0002708,9.04,0.003906,0.0,0.3242,0.001574,-0.00918,0.03333,0.0,0.0,8.93,0.0,0.0,0.2676,0.0
1738833736211491584,-0.0494,0.06113,9.164,-0.004017,0.00804,0.298,-0.000245,-0.004166,0.007225,-0.02414,0.0002708,9.05,0.0,0.0,0.3086,0.001605,-0.00728,0.03333,0.0,0.0,8.95,0.0,0.0,0.219,0.0
1738833736261466741,-0.0496,0.0615,9.17,-0.00327,0.0081,0.2832,-0.000137,-0.002024,0.007313,-0.02414,0.0002708,9.07,0.0,0.0,0.2969,0.001768,-0.002707,0.03342,0.0,0.0,8.95,0.0,0.0,0.219,0.0
1738833736311482191,-0.04974,0.06192,9.19,-0.002838,0.00815,0.2241,-0.000214,-0.00633,0.00741,-0.02414,0.0002708,9.08,0.0,0.0,0.2734,0.001761,-0.003052,0.03348,0.0,0.0,8.97,0.0,0.0,0.1699,0.0
1738833736361449480,-0.04993,0.06232,9.195,-0.004517,0.00821,0.1947,-0.000285,-0.00758,0.007504,-0.02414,0.0002708,9.09,0.0,0.0,0.207,0.001671,-0.008575,0.03323,0.0,0.0,8.97,0.0,0.0,0.1699,0.0
1738833736411475896,-0.05017,0.06274,9.21,-0.00515,0.0083,0.1808,-0.000191,-0.00365,0.007603,-0.02414,0.0002708,9.1,0.0,0.0,0.1914,0.001617,-0.006588,0.03314,0.0,0.0,8.984,0.0,0.0,0.1205,0.0
1738833736461464166,-0.0504,0.0632,9.22,-0.004196,0.00834,0.1649,-0.000101,-0.001659,0.007706,-0.02414,0.0002708,9.11,0.0,0.0,0.1797,0.001774,-0.002361,0.03333,0.0,0.0,8.984,0.0,0.0,0.1205,0.0
1738833736511507511,-0.0506,0.0636,9.22,-0.00361,0.00837,0.1055,-0.0002,-0.006027,0.007812,-0.02414,0.0002708,9.12,0.0,0.0,0.1523,0.001853,-0.002794,0.03348,0.0,0.0,8.99,0.0,0.0,0.07074,0.0
1738833736561469793,-0.0508,0.06396,9.23,-0.00515,0.00842,0.07587,-0.000276,-0.007324,0.0079,-0.02414,0.0002708,9.125,0.0,0.0,0.08984,0.001677,-0.00823,0.03314,0.0,0.0,8.99,0.0,0.0,0.07074,0.0
1738833736611395597,-0.0511,0.06445,9.23,-0.00565,0.00851,0.06256,-0.000191,-0.00336,0.00803,-0.02414,0.0002708,9.125,0.0,0.0,0.0742,0.001708,-0.006332,0.03314,0.0,0.0,9.0,0.0,0.0,0.0208,0.0
1738833736661441087,-0.05136,0.0648,9.234,-0.004547,0.00855,0.0502,-0.000103,-0.00129,0.00813,-0.02414,0.0002708,9.13,0.0,0.0,0.0586,0.00178,-0.002016,0.03333,0.0,0.0,9.0,0.0,0.0,0.0208,0.0
1738833736711508512,-0.05154,0.0653,9.234,-0.003405,0.008575,0.01909,-0.000142,-0.003386,0.00825,-0.02414,0.0002708,9.13,0.0,0.0,0.04297,0.00178,-0.002016,0.03348,0.0,0.0,9.0,0.0,0.0,-0.0292,0.0
1738833736761438131,-0.0517,0.0657,9.234,-0.003286,0.00862,0.000253,-0.000184,-0.003838,0.00832,-0.02414,0.0002708,9.14,0.0,0.0,0.01172,0.001738,-0.004433,0.03384,0.0,0.0,9.0,0.0,0.0,-0.0292,0.0
1738833736811447620,-0.05188,0.06616,9.234,-0.002941,0.008675,-0.02098,-0.000162,-0.00366,0.00837,-0.02414,0.0002708,9.14,0.0,0.0,-0.0,0.001744,-0.004086,0.03384,0.0,0.0,8.99,0.0,0.0,-0.0791,0.0
1738833736861499309,-0.052,0.0666,9.234,-0.002502,0.00871,-0.04028,-0.000151,-0.00313,0.00839,-0.02414,0.0002708,9.13,0.0,0.0,-0.02344,0.001749,-0.003742,0.03418,0.0,0.0,8.99,0.0,0.0,-0.0791,0.0
1738833736911437273,-0.05212,0.067,9.23,-0.002258,0.00875,-0.07074,-0.000171,-0.00487,0.00842,-0.02414,0.0002708,9.13,0.0,0.0,-0.03906,0.001837,-0.003658,0.03418,0.0,0.0,8.984,0.0,0.0,-0.1288,0.0
1738833736961388111,-0.05225,0.06744,9.23,-0.002707,0.00879,-0.0901,-0.000187,-0.004826,0.008415,-0.02414,0.0002708,9.13,0.0,0.0,-0.0742,0.001717,-0.005642,0.034,0.0,0.0,8.984,0.0,0.0,-0.1288,0.0
1738833737011373519,-0.0524,0.0679,9.22,-0.002733,0.008835,-0.11176,-0.000166,-0.004227,0.00844,-0.02414,0.0002708,9.13,0.0,0.0,-0.09375,0.001732,-0.004776,0.034,0.0,0.0,8.97,0.0,0.0,-0.1782,0.0
1738833737061382293,-0.05252,0.0683,9.22,-0.002552,0.008865,-0.1287,-0.000156,-0.003506,0.00846,-0.02414,0.0002708,9.125,0.0,0.0,-0.1133,0.001828,-0.004177,0.03418,0.0,0.0,8.97,0.0,0.0,-0.1782,0.0
1738833737111385583,-0.05264,0.0688,9.21,-0.00238,0.00891,-0.1619,-0.000184,-0.005028,0.008446,-0.02414,0.0002708,9.12,0.0,0.0,-0.1328,0.001743,-0.00409,0.03418,0.0,0.0,8.945,0.0,0.0,-0.2272,0.0
1738833737161383867,-0.05276,0.0692,9.2,-0.002861,0.00895,-0.1846,-0.000183,-0.00498,0.00847,-0.02414,0.0002708,9.11,0.0,0.0,-0.168,0.001718,-0.005642,0.03384,0.0,0.0,8.945,0.0,0.0,-0.2272,0.0
1738833737211379766,-0.05295,0.0697,9.19,-0.003277,0.00899,-0.2227,-0.000187,-0.005836,0.00851,-0.02414,0.0002708,9.1,0.0,0.0,-0.1953,0.0016365,-0.00538,0.03366,0.0,0.0,8.92,0.0,0.0,-0.2756,0.0
1738833737261378049,-0.0531,0.0701,9.18,-0.003885,0.00902,-0.2467,-0.000159,-0.004967,0.00857,-0.02414,0.0002708,9.086,0.0,0.0,-0.2305,0.001717,-0.005814,0.03333,0.0,0.0,8.92,0.0,0.0,-0.2756,0.0
1738833737311379432,-0.0533,0.07056,9.164,-0.00411,0.00903,-0.2786,-0.000143,-0.005306,0.00868,-0.02414,0.0002708,9.08,0.0,0.0,-0.25,0.001813,-0.00521,0.03314,0.0,0.0,8.89,0.0,0.0,-0.3232,0.0
1738833737361377239,-0.0535,0.071,9.15,-0.004505,0.00904,-0.3015,-0.000101,-0.004562,0.00882,-0.02414,0.0002708,9.07,0.0,0.0,-0.2852,0.001723,-0.005466,0.0329,0.0,0.0,8.89,0.0,0.0,-0.3232,0.0
1738833737411383152,-0.05374,0.0715,9.13,-0.00456,0.00904,-0.3374,-0.000104,-0.005062,0.00898,-0.02414,0.0002708,9.055,0.0,0.0,-0.3086,0.001822,-0.004692,0.0328,0.0,0.0,8.86,0.0,0.0,-0.37,0.0
1738833737461388111,-0.054,0.0719,9.12,-0.004883,0.00904,-0.3608,-0.000122,-0.00445,0.009155,-0.02414,0.0002708,9.03,0.0,0.0,-0.3477,0.001814,-0.00521,0.03262,0.0,0.0,8.86,0.0,0.0,-0.37,0.0
1738833737511387586,-0.05423,0.0724,9.09,-0.004875,0.00906,-0.397,-0.000158,-0.004917,0.00937,-0.02414,0.02678,9.02,0.0,0.0,-0.3633,0.001739,-0.004604,0.03244,0.0,0.0,8.82,0.0,0.0,-0.4163,0.0
1738833737561389684,-0.05447,0.0728,9.08,-0.00513,0.00909,-0.4207,-0.000126,-0.0043,0.00957,-0.02414,0.02678,9.01,0.0,0.0,-0.4062,0.001815,-0.00521,0.03244,0.0,0.0,8.82,0.0,0.0,-0.4163,0.0
1738833737611475944,-0.05472,0.0733,9.055,-0.00506,0.0091,-0.4573,-0.000132,-0.004837,0.00982,-0.02414,0.02678,8.99,0.0,0.0,-0.4258,0.001825,-0.00452,0.0328,0.0,0.0,8.77,0.0,0.0,-0.4612,0.0
1738833737661451101,-0.055,0.0737,9.03,-0.005283,0.00912,-0.481,-0.000143,-0.004234,0.00999,-0.02414,0.02678,8.96,0.0,0.0,-0.4648,0.001729,-0.005123,0.03296,0.0,0.0,8.77,0.0,0.0,-0.4612,0.0
1738833737711463689,-0.05524,0.0742,9.01,-0.00517,0.00915,-0.517,-0.000157,-0.004715,0.01018,-0.02414,0.02678,8.945,0.0,0.0,-0.4844,0.001827,-0.00435,0.03314,0.0,0.0,8.73,0.0,0.0,-0.505,0.0
1738833737761479139,-0.0555,0.07465,8.984,-0.00535,0.00917,-0.541,-0.00016,-0.004192,0.01031,-0.02414,0.02678,8.92,0.0,0.0,-0.5273,0.001815,-0.00504,0.03348,0.0,0.0,8.73,0.0,0.0,-0.505,0.0
1738833737811408042,-0.0558,0.07513,8.95,-0.005234,0.00921,-0.5776,-0.000174,-0.00473,0.01042,-0.02414,0.02678,8.9,0.0,0.0,-0.547,0.001826,-0.00435,0.03375,0.0,0.0,8.67,0.0,0.0,-0.5474,0.0
1738833737861386299,-0.05603,0.07556,8.92,-0.005417,0.00924,-0.598,-0.000173,-0.004074,0.010506,-0.02414,0.02678,8.87,0.0,0.0,-0.586,0.001814,-0.00504,0.034,0.0,0.0,8.67,0.0,0.0,-0.5474,0.0
1738833737911387681,-0.0563,0.07605,8.89,-0.00495,0.00928,-0.619,-0.000128,-0.003126,0.01054,-0.02414,0.02678,8.84,0.0,0.003906,-0.6016,0.001746,-0.003914,0.03418,0.0,0.0,8.62,0.0,0.0,-0.5884,0.0
1738833737961455106,-0.05652,0.0765,8.86,-0.004215,0.0093,-0.6353,-0.0001,-0.002275,0.01058,-0.04163,0.02678,8.81,0.0,0.0,-0.625,0.001848,-0.002968,0.03436,0.0,0.0,8.62,0.0,0.0,-0.5884,0.0
1738833738011413574,-0.05673,0.07697,8.83,-0.003487,0.00932,-0.6685,-0.000167,-0.004044,0.010574,-0.04163,0.02678,8.79,0.0,0.003906,-0.6445,0.001845,-0.00314,0.03436,0.0,0.0,8.555,0.0,0.0,-0.628,0.0
1738833738061396837,-0.0569,0.07745,8.8,-0.003595,0.00936,-0.688,-0.000206,-0.004208,0.010574,-0.04163,0.02678,8.74,0.0,0.0,-0.6797,0.001816,-0.004868,0.03452,0.0,0.0,8.555,0.0,0.0,-0.628,0.0
1738833738111392974,-0.05707,0.07794,8.76,-0.003336,0.00941,-0.7085,-0.000197,-0.003672,0.01054,-0.04163,0.02678,8.72,0.0,0.0,-0.6914,0.0017395,-0.00426,0.03452,0.0,0.0,8.49,0.0,0.0,-0.6665,0.0
1738833738161385297,-0.05722,0.07837,8.73,-0.002907,0.00945,-0.7246,-0.000158,-0.00294,0.01052,-0.04163,0.02678,8.69,0.0,0.0,-0.715,0.001836,-0.003658,0.0347,0.0,0.0,8.49,0.0,0.0,-0.6665,0.0
1738833738211388349,-0.05734,0.0788,8.69,-0.00235,0.00949,-0.7563,-0.000203,-0.003515,0.01046,-0.04163,0.02678,8.664,0.0,0.0,-0.7305,0.001842,-0.003313,0.0347,0.0,0.0,8.42,0.0,0.0,-0.7026,0.0
1738833738261386632,-0.05746,0.07935,8.65,-0.001841,0.00956,-0.7803,-0.000226,-0.002216,0.0104,-0.04163,0.02678,8.61,0.0,0.0,-0.7695,0.001754,-0.003397,0.0347,0.0,0.0,8.42,0.0,0.0,-0.7026,0.0
1738833738311388969,-0.05753,0.07983,8.61,-0.000548,0.00962,-0.8003,-0.000206,-0.000841,0.01032,-0.04163,0.02678,8.586,0.0,0.0,-0.785,0.001778,-0.002016,0.0347,0.0,0.0,8.35,0.0,0.0,-0.7373,0.0
1738833738361392974,-0.05753,0.08026,8.57,0.00128,0.009674,-0.8174,-0.000171,0.000547,0.010284,-0.04163,0.02678,8.54,0.003906,0.0,-0.8047,0.00172,-0.0003753,0.0347,0.0,0.0,8.35,0.0,0.0,-0.7373,0.0
1738833738411389350,-0.05737,0.0808,8.52,0.003391,0.009735,-0.8516,-0.000216,-0.000631,0.01021,-0.04163,0.02678,8.516,0.003906,0.0,-0.824,0.001726,-2.98e-05,0.03452,0.0,0.0,8.27,0.0,0.0,-0.77,0.0
1738833738461381673,-0.0572,0.08124,8.484,0.004845,0.009796,-0.867,-0.0002,-0.000157,0.01018,-0.04163,0.02678,8.46,0.003906,0.0,-0.8594,0.001705,-0.001238,0.03452,0.0,0.0,8.27,0.0,0.0,-0.77,0.0
1738833738511394500,-0.0569,0.0818,8.44,0.00747,0.00986,-0.8735,-0.000156,0.002361,0.01012,-0.04163,0.02678,8.43,0.007812,0.0,-0.871,0.001732,0.0003154,0.03452,0.0,0.0,8.195,0.0,0.0,-0.8013,0.0
1738833738561391592,-0.05643,0.0822,8.4,0.01073,0.0099,-0.8843,-0.000135,0.00329,0.0101,-0.04163,0.02678,8.38,0.01172,0.0,-0.875,0.001859,0.002644,0.03436,0.0,0.0,8.195,0.0,0.0,-0.8013,0.0
1738833738611392498,-0.0558,0.08276,8.35,0.01347,0.009964,-0.916,-0.000228,-0.000562,0.01006,-0.04163,0.02678,8.35,0.01172,0.0,-0.8906,0.001843,0.001781,0.03418,0.0,0.0,8.12,0.0,0.0,-0.83,0.0
1738833738661397695,-0.0551,0.08325,8.305,0.014305,0.01003,-0.9307,-0.000262,-0.0023,0.01007,-0.04163,0.02678,8.29,0.01563,0.0,-0.926,0.001767,-0.002707,0.03418,0.0,0.0,8.12,0.0,0.0,-0.83,0.0
1738833738711529970,-0.0544,0.08374,8.26,0.01527,0.01011,-0.937,-0.00024,-0.001306,0.01008,-0.04163,0.02678,8.266,0.01563,0.003906,-0.9336,0.001769,-0.002533,0.03427,0.0,0.0,8.03,0.0,0.0,-0.857,0.0
1738833738761471748,-0.0536,0.0842,8.21,0.01672,0.01018,-0.951,-0.000201,-0.00115,0.01004,-0.04163,0.02678,8.21,0.01563,0.003906,-0.9414,0.001787,-0.001498,0.03436,0.0,0.0,8.03,0.0,0.0,-0.857,0.0
1738833738811494827,-0.0527,0.0848,8.164,0.01732,0.01024,-0.9814,-0.000276,-0.00434,0.01004,-0.04163,0.02678,8.17,0.01563,0.003906,-0.961,0.001769,-0.002535,0.03436,0.0,0.0,7.945,0.0,0.0,-0.8813,0.0
1738833738861470222,-0.05188,0.08527,8.12,0.01682,0.01031,-0.9946,-0.000277,-0.00452,0.01,-0.04163,0.02678,8.11,0.01563,0.003906,-0.992,0.001723,-0.005295,0.034,0.0,0.0,7.945,0.0,0.0,-0.8813,0.0
1738833738911501407,-0.051,0.0858,8.06,0.017,0.01037,-1.0,-0.000214,-0.002642,0.01002,-0.04163,0.02678,8.08,0.01563,0.003906,-0.996,0.001738,-0.004433,0.03418,0.0,0.0,7.855,0.0,0.0,-0.9043,0.0
1738833738961544513,-0.05017,0.0863,8.016,0.01782,0.01042,-1.013,-0.000188,-0.00209,0.009995,-0.04163,0.02678,8.02,0.01563,0.003906,-1.004,0.001858,-0.002449,0.03418,0.0,0.0,7.855,0.0,0.0,-0.9043,0.0
1738833739011527776,-0.04922,0.08685,7.96,0.01805,0.01047,-1.043,-0.000279,-0.005047,0.01,-0.04163,0.02678,7.99,0.01563,0.003906,-1.02,0.001755,-0.003397,0.03418,0.0,0.0,7.76,0.0,0.0,-0.9243,0.0
1738833739061484575,-0.04837,0.08734,7.91,0.01726,0.01054,-1.056,-0.00029,-0.005077,0.01,-0.04163,0.02678,7.918,0.01563,0.003906,-1.051,0.001712,-0.005985,0.03384,0.0,0.0,7.76,0.0,0.0,-0.9243,0.0
1738833739111528873,-0.04755,0.0879,7.86,0.01717,0.0106,-1.062,-0.000234,-0.003185,0.01001,-0.04163,0.02678,7.887,0.01563,0.003906,-1.059,0.001729,-0.00495,0.03384,0.0,0.0,7.67,0.0,0.0,-0.9424,0.0
1738833739161473512,-0.04663,0.08844,7.805,0.01785,0.01065,-1.068,-0.00017,-0.002216,0.01004,-0.04163,0.02678,7.824,0.01563,0.003906,-1.0625,0.001764,-0.002878,0.034,0.0,0.0,7.67,0.0,0.0,-0.9424,0.0
1738833739211537361,-0.04578,0.0889,7.754,0.01842,0.01068,-1.083,-0.000191,-0.003384,0.01004,-0.04163,0.02678,7.785,0.01563,0.003906,-1.074,0.001849,-0.002966,0.034,0.0,0.0,7.574,0.0,0.0,-0.958,0.0
1738833739261449813,-0.0448,0.0895,7.695,0.01842,0.01072,-1.091,-0.000213,-0.0037,0.01005,-0.04163,0.02678,7.71,0.01563,0.003906,-1.09,0.00174,-0.00426,0.03418,0.0,0.0,7.574,0.0,0.0,-0.958,0.0
1738833739311508655,-0.04385,0.09,7.64,0.01872,0.010765,-1.095,-0.000196,-0.002888,0.01005,-0.02414,0.02678,7.684,0.01563,0.003906,-1.094,0.001746,-0.003914,0.03436,0.0,0.0,7.477,0.0,0.0,-0.971,0.0
1738833739361482143,-0.04294,0.0906,7.586,0.01926,0.0108,-1.103,-0.000177,-0.002775,0.01,-0.04163,0.02678,7.617,0.01563,0.003906,-1.098,0.001758,-0.003225,0.03436,0.0,0.0,7.477,0.0,0.0,-0.971,0.0
1738833739411533117,-0.04193,0.0911,7.527,0.01941,0.01083,-1.118,-0.000232,-0.004356,0.00997,-0.04163,0.02678,7.58,0.01563,0.003906,-1.105,0.001749,-0.003742,0.03436,0.0,0.0,7.38,0.0,0.0,-0.982,0.0
1738833739461484193,-0.04092,0.0917,7.47,0.01903,0.010895,-1.119,-0.000233,-0.00409,0.00993,-0.02414,0.02678,7.5,0.01953,0.003906,-1.121,0.001727,-0.00495,0.03452,0.0,0.0,7.38,0.0,0.0,-0.982,0.0
1738833739511495113,-0.03995,0.0922,7.414,0.01956,0.01094,-1.108,-0.000154,-0.001587,0.009865,-0.02414,0.02678,7.465,0.01563,0.003906,-1.117,0.001745,-0.003914,0.03452,0.0,0.0,7.28,0.0,0.0,-0.99,0.0
1738833739561511754,-0.03903,0.0927,7.363,0.0207,0.010956,-1.109,-0.000127,-0.001493,0.009796,-0.02414,0.02678,7.402,0.01953,0.003906,-1.105,0.001697,-0.001756,0.03452,0.0,0.0,7.28,0.0,0.0,-0.99,0.0
1738833739611526250,-0.03796,0.0933,7.305,0.02121,0.01097,-1.122,-0.000173,-0.004147,0.00972,-0.02414,0.02678,7.363,0.01953,0.003906,-1.113,0.001763,-0.00288,0.03452,0.0,0.0,7.184,0.0,0.0,-0.9956,0.0
1738833739661489486,-0.03693,0.0938,7.25,0.02077,0.010994,-1.121,-0.000201,-0.00451,0.009674,-0.02414,0.05328,7.285,0.01953,0.003906,-1.125,0.001721,-0.005295,0.0346,0.0,0.0,7.184,0.0,0.0,-0.9956,0.0
1738833739711491346,-0.03586,0.0944,7.195,0.02097,0.011024,-1.109,-0.000134,-0.002348,0.00958,-0.02414,0.05328,7.258,0.01953,0.003906,-1.121,0.001821,-0.00452,0.0347,0.0,0.0,7.082,0.0,0.0,-0.999,0.0
1738833739761475324,-0.03482,0.0949,7.14,0.0218,0.01103,-1.111,-0.000109,-0.002459,0.00949,-0.02414,0.05328,7.19,0.01953,0.007812,-1.109,0.001769,-0.002535,0.0347,0.0,0.0,7.082,0.0,0.0,-0.999,0.0
1738833739811523437,-0.0337,0.0955,7.082,0.02184,0.01104,-1.123,-0.000187,-0.005005,0.009415,-0.02414,0.05328,7.152,0.01953,0.007812,-1.117,0.001833,-0.00383,0.0347,0.0,0.0,6.984,0.0,0.0,-1.0,0.0
1738833739861498832,-0.03265,0.09607,7.027,0.02104,0.01105,-1.124,-0.000151,-0.005257,0.00934,-0.02414,0.05328,7.08,0.01953,0.007812,-1.129,0.001711,-0.005985,0.03418,0.0,0.0,6.984,0.0,0.0,-1.0,0.0
1738833739911528348,-0.0316,0.0966,6.97,0.02087,0.01077,-1.112,0.00106,-0.002897,0.00931,-0.02414,0.05328,7.04,0.01953,0.007812,-1.121,0.001986,-0.005043,0.03418,0.0,0.0,6.883,0.0,0.0,-0.9985,0.0
1738833739961535692,-0.03056,0.0971,6.918,0.02159,0.00994,-1.113,0.002365,-0.002577,0.00927,-0.02414,0.05328,6.98,0.01953,0.007812,-1.109,0.003836,-0.002914,0.03436,0.0,0.0,6.883,0.0,0.0,-0.9985,0.0
1738833740011543035,-0.02943,0.0976,6.86,0.02162,0.00853,-1.125,0.003292,-0.005005,0.00923,-0.02414,0.05328,6.94,0.01953,0.007812,-1.117,0.00451,-0.003963,0.03436,0.0,0.0,6.785,0.0,0.0,-0.994,0.0
1738833740061469554,-0.02841,0.09796,6.805,0.02084,0.006844,-1.126,0.003914,-0.00526,0.00918,-0.02414,0.05328,6.863,0.01953,0.003906,-1.129,0.005596,-0.005966,0.0338,0.0,0.0,6.785,0.0,0.0,-0.994,0.0
1738833740111499547,-0.02734,0.09827,6.746,0.02069,0.004715,-1.114,0.004436,-0.002909,0.0092,-0.02414,0.05328,6.83,0.01953,0.003906,-1.125,0.00587,-0.00519,0.0338,0.0,0.0,6.684,0.0,0.0,-0.9873,0.0
1738833740161467790,-0.02632,0.09845,6.69,0.02141,0.002642,-1.115,0.00475,-0.002592,0.00922,-0.02414,0.05328,6.766,0.01953,0.003906,-1.113,0.006424,-0.002958,0.034,0.0,0.0,6.684,0.0,0.0,-0.9873,0.0
1738833740211521863,-0.0252,0.0985,6.633,0.02142,0.000358,-1.127,0.00487,-0.005047,0.00921,-0.02414,0.05328,6.727,0.01953,0.0,-1.121,0.00658,-0.003998,0.034,0.0,0.0,6.586,0.0,0.0,-0.9785,0.0
1738833740261536598,-0.0242,0.09845,6.582,0.02065,-0.001849,-1.124,0.00497,-0.005184,0.0092,-0.00665,0.05328,6.65,0.01953,0.0,-1.133,0.006718,-0.00607,0.03366,0.0,0.0,6.586,0.0,0.0,-0.9785,0.0
1738833740311526060,-0.02313,0.0983,6.523,0.02084,-0.004395,-1.097,0.005154,-0.001353,0.00924,-0.00665,0.05328,6.613,0.01953,0.0,-1.121,0.00674,-0.00469,0.03366,0.0,0.0,6.49,0.0,0.0,-0.967,0.0
1738833740361505985,-0.0221,0.098,6.47,0.02249,-0.006668,-1.091,0.005245,-0.000853,0.00927,-0.00665,0.05328,6.55,0.02344,0.0,-1.09,0.006977,-0.000895,0.03384,0.0,0.0,6.49,0.0,0.0,-0.967,0.0
1738833740411541938,-0.02098,0.09766,6.418,0.02309,-0.008865,-1.1,0.005165,-0.00434,0.00923,-0.00665,0.05328,6.51,0.02344,0.0,-1.094,0.00695,-0.00262,0.03384,0.0,0.0,6.395,0.0,0.0,-0.9526,0.0
1738833740461525678,-0.0198,0.09717,6.36,0.02225,-0.01127,-1.094,0.005116,-0.005344,0.00924,-0.00665,0.05328,6.44,0.02344,-0.003906,-1.102,0.0068,-0.006157,0.03366,0.0,0.0,6.395,0.0,0.0,-0.9526,0.0
1738833740511532306,-0.01875,0.09656,6.31,0.02225,-0.01357,-1.068,0.005222,-0.001993,0.009285,-0.00665,0.05328,6.402,0.02344,-0.007812,-1.09,0.006824,-0.004776,0.0338,0.0,0.0,6.297,0.0,0.0,-0.9365,0.0
1738833740561517000,-0.01755,0.09576,6.254,0.02364,-0.01596,-1.062,0.005264,-0.001767,0.00927,-0.00665,0.05328,6.34,0.02344,-0.007812,-1.0625,0.00696,-0.001759,0.03384,0.0,0.0,6.297,0.0,0.0,-0.9365,0.0
1738833740611489772,-0.01631,0.0949,6.2,0.02374,-0.01823,-1.071,0.005173,-0.00539,0.00924,-0.00665,0.05328,6.305,0.02734,-0.01172,-1.066,0.00702,-0.003572,0.034,0.0,0.0,6.207,0.0,0.0,-0.918,0.0
1738833740661479234,-0.0152,0.09393,6.15,0.0226,-0.02037,-1.064,0.005142,-0.00598,0.00923,-0.00665,0.05328,6.234,0.02734,-0.01172,-1.074,0.00679,-0.006847,0.03363,0.0,0.0,6.207,0.0,0.0,-0.918,0.0
1738833740711494207,-0.01413,0.09296,6.098,0.02232,-0.0226,-1.039,0.005264,-0.00247,0.00928,-0.00665,0.05328,6.203,0.02344,-0.01172,-1.0625,0.006897,-0.005726,0.03366,0.0,0.0,6.113,0.0,0.0,-0.897,0.0
1738833740761412620,-0.01294,0.0917,6.043,0.02353,-0.02495,-1.026,0.005325,-0.001876,0.009285,-0.00665,0.05328,6.137,0.02734,-0.01563,-1.031,0.007046,-0.002018,0.03384,0.0,0.0,6.113,0.0,0.0,-0.897,0.0
1738833740811455965,-0.011795,0.09045,5.992,0.024,-0.02705,-1.021,0.005287,-0.003693,0.0093,-0.00665,0.05328,6.1,0.02734,-0.01563,-1.027,0.007027,-0.003054,0.03384,0.0,0.0,6.027,0.0,0.0,-0.8735,0.0
1738833740861418008,-0.01055,0.089,5.94,0.02368,-0.02934,-1.01,0.005272,-0.004578,0.00929,0.01084,0.05328,6.03,0.02734,-0.01953,-1.02,0.006992,-0.005127,0.0341,0.0,0.0,6.027,0.0,0.0,-0.8735,0.0
1738833740911431312,-0.00932,0.0874,5.89,0.02388,-0.0317,-0.981,0.00533,-0.002014,0.0093,0.01084,0.05328,6.0,0.02734,-0.01953,-1.004,0.007004,-0.004436,0.03418,0.0,0.0,5.94,0.0,0.0,-0.848,0.0
1738833740961407899,-0.00815,0.0858,5.844,0.0249,-0.03375,-0.969,0.005257,-0.002352,0.009254,0.01084,0.05328,5.945,0.02734,-0.02344,-0.9766,0.006954,-0.002277,0.03427,0.0,0.0,5.94,0.0,0.0,-0.848,0.0
1738833741011441707,-0.006847,0.084,5.793,0.02502,-0.0356,-0.965,0.003956,-0.004562,0.0092,0.01084,0.05328,5.91,0.03125,-0.02344,-0.9688,0.006668,-0.00374,0.03433,0.0,0.0,5.855,0.0,0.0,-0.821,0.0
1738833741061403036,-0.00566,0.0823,5.746,0.02434,-0.0367,-0.953,0.002693,-0.005383,0.00917,0.01084,0.05328,5.848,0.03125,-0.02734,-0.965,0.00482,-0.005695,0.03433,0.0,0.0,5.855,0.0,0.0,-0.821,0.0
1738833741111428499,-0.00451,0.0805,5.7,0.02386,-0.03735,-0.9253,0.001831,-0.00396,0.009094,0.01084,0.05328,5.816,0.03125,-0.02734,-0.9453,0.00405,-0.00542,0.03452,0.0,0.0,5.777,0.0,0.0,-0.791,0.0
1738833741161434412,-0.003267,0.07855,5.652,0.02373,-0.03763,-0.9053,0.001146,-0.00502,0.00901,0.01084,0.05328,5.76,0.02734,-0.02734,-0.918,0.00311,-0.004803,0.03452,0.0,0.0,5.777,0.0,0.0,-0.791,0.0
1738833741211470842,-0.00215,0.0767,5.61,0.02278,-0.0376,-0.887,0.000728,-0.006287,0.008934,0.01084,0.05328,5.73,0.02734,-0.03125,-0.9023,0.002745,-0.006004,0.0347,0.0,0.0,5.7,0.0,0.0,-0.7593,0.0
1738833741261432170,-0.001006,0.07477,5.562,0.02106,-0.03738,-0.8687,0.00041,-0.00791,0.00885,0.01084,0.05328,5.67,0.02734,-0.03125,-0.883,0.002195,-0.0079,0.03418,0.0,0.0,5.7,0.0,0.0,-0.7593,0.0
1738833741311477899,-4.5e-05,0.073,5.523,0.01918,-0.0371,-0.8394,0.000296,-0.006893,0.00878,0.01084,0.05328,5.645,0.02734,-0.03125,-0.8633,0.002192,-0.00824,0.034,0.0,0.0,5.625,0.0,0.0,-0.726,0.0
1738833741361428022,0.000915,0.07104,5.48,0.01764,-0.03674,-0.8193,0.000194,-0.007618,0.00876,0.01084,0.05328,5.594,0.02344,-0.03125,-0.832,0.002031,-0.007545,0.03366,0.0,0.0,5.625,0.0,0.0,-0.726,0.0
1738833741411462068,0.001712,0.06934,5.44,0.015594,-0.03638,-0.8003,0.000115,-0.008446,0.00878,0.01084,0.05328,5.566,0.02344,-0.03125,-0.8164,0.00193,-0.00849,0.03348,0.0,0.0,5.555,0.0,0.0,-0.6904,0.0
1738833741461445569,0.002457,0.06744,5.4,0.01296,-0.03595,-0.7812,2.7e-05,-0.00954,0.00883,0.02832,0.02678,5.508,0.01953,-0.03125,-0.793,0.001822,-0.00979,0.03333,0.0,0.0,5.555,0.0,0.0,-0.6904,0.0
1738833741511505842,0.003014,0.06573,5.363,0.010475,-0.03552,-0.751,6.4e-05,-0.00809,0.00891,0.02832,0.02678,5.49,0.01953,-0.03125,-0.7773,0.001822,-0.00979,0.03333,0.0,0.0,5.49,0.0,0.0,-0.654,0.0
1738833741561435937,0.003508,0.0639,5.324,0.00849,-0.0351,-0.7295,4.3e-05,-0.00848,0.00897,0.02832,0.02678,5.44,0.01563,-0.02734,-0.742,0.001846,-0.00841,0.03314,0.0,0.0,5.49,0.0,0.0,-0.654,0.0
1738833741611490249,0.003859,0.06223,5.29,0.006165,-0.03467,-0.7104,4.7e-05,-0.009125,0.00907,0.02832,0.02678,5.414,0.01563,-0.02734,-0.7266,0.001833,-0.00927,0.03296,0.0,0.0,5.42,0.0,0.0,-0.615,0.0
1738833741661433696,0.00411,0.06042,5.254,0.003313,-0.03424,-0.691,2e-05,-0.010056,0.00921,0.02832,0.02678,5.367,0.01172,-0.02734,-0.703,0.001816,-0.01031,0.03296,0.0,0.0,5.42,0.0,0.0,-0.615,0.0
1738833741711436510,0.004196,0.05878,5.223,0.000688,-0.03384,-0.6606,4.2e-05,-0.008514,0.00931,0.02832,0.02678,5.344,0.007812,-0.02734,-0.6836,0.001819,-0.01013,0.03296,0.0,0.0,5.363,0.0,0.0,-0.5747,0.0
1738833741761388301,0.00418,0.05704,5.188,-0.001406,-0.03342,-0.6396,5e-05,-0.008865,0.00944,0.02832,0.02678,5.3,0.007812,-0.02734,-0.6523,0.0018425,-0.00875,0.0328,0.0,0.0,5.363,0.0,0.0,-0.5747,0.0
1738833741811413764,0.004055,0.05545,5.156,-0.00382,-0.03305,-0.6206,2.8e-05,-0.009476,0.009575,0.02832,0.02678,5.277,0.003906,-0.02734,-0.633,0.001913,-0.0097,0.0328,0.0,0.0,5.31,0.0,0.0,-0.533,0.0
1738833741861388444,0.00378,0.05374,5.125,-0.006725,-0.03262,-0.601,-7e-06,-0.0103,0.009735,0.02832,0.02678,5.24,0.0,-0.02734,-0.6133,0.001811,-0.01065,0.0328,0.0,0.0,5.31,0.0,0.0,-0.533,0.0
1738833741911429405,0.00339,0.0522,5.098,-0.00935,-0.03223,-0.5713,5.6e-05,-0.00869,0.00987,0.02832,0.02678,5.22,0.0,-0.02734,-0.5938,0.001817,-0.0103,0.0328,0.0,0.0,5.258,0.0,0.0,-0.4902,0.0
1738833741961390733,0.00285,0.0505,5.066,-0.01143,-0.03186,-0.5503,7.2e-05,-0.00898,0.010025,0.02832,0.02678,5.18,0.0,-0.02734,-0.5625,0.00184,-0.00892,0.0328,0.0,0.0,5.258,0.0,0.0,-0.4902,0.0
1738833742011392116,0.002245,0.04898,5.043,-0.01379,-0.0315,-0.531,5.1e-05,-0.00951,0.01018,0.02832,0.02678,5.16,0.0,-0.02734,-0.547,0.001913,-0.0097,0.0328,0.0,0.0,5.21,0.0,0.0,-0.446,0.0
1738833742061385869,0.001456,0.04736,5.016,-0.0166,-0.0311,-0.511,1e-05,-0.01024,0.01034,0.02832,0.02678,5.125,-0.003906,-0.02734,-0.5234,0.001811,-0.01065,0.0328,0.0,0.0,5.21,0.0,0.0,-0.446,0.0
1738833742111389398,0.000595,0.04587,4.992,-0.01894,-0.03075,-0.4773,7.6e-05,-0.007446,0.0105,0.02832,0.02678,5.1,-0.003906,-0.02344,-0.508,0.001822,-0.00996,0.0328,0.0,0.0,5.168,0.0,0.0,-0.401,0.0
1738833742161383390,-0.000412,0.04428,4.97,-0.01958,-0.03036,-0.4443,0.00012,-0.00508,0.01066,0.02832,0.02678,5.066,-0.007812,-0.02344,-0.4648,0.001889,-0.005814,0.03323,0.0,0.0,5.168,0.0,0.0,-0.401,0.0
1738833742211419343,-0.001434,0.04272,4.945,-0.01965,-0.03001,-0.4136,0.000125,-0.00462,0.01077,0.02832,0.02678,5.05,-0.007812,-0.02344,-0.4414,0.001986,-0.005215,0.03348,0.0,0.0,5.13,0.0,0.0,-0.3545,0.0
1738833742261392831,-0.002298,0.0414,4.926,-0.01979,-0.0297,-0.3909,7.6e-05,-0.005436,0.01083,0.02832,0.02678,5.023,-0.007812,-0.02344,-0.4102,0.001978,-0.005558,0.03384,0.0,0.0,5.13,0.0,0.0,-0.3545,0.0
1738833742311426877,-0.003416,0.03976,4.906,-0.01976,-0.0293,-0.3384,0.000113,-0.002842,0.0109,0.02832,0.02678,5.008,-0.007812,-0.02344,-0.379,0.001896,-0.0053,0.034,0.0,0.0,5.098,0.0,0.0,-0.3074,0.0
1738833742361393451,-0.00426,0.03848,4.895,-0.01874,-0.02898,-0.3105,0.000136,-0.00307,0.0109,0.01084,0.02678,4.984,-0.007812,-0.02344,-0.3281,0.001933,-0.003056,0.03418,0.0,0.0,5.098,0.0,0.0,-0.3074,0.0
1738833742411419153,-0.005222,0.037,4.88,-0.01822,-0.02864,-0.2747,0.000142,-0.003778,0.010895,0.01084,0.02678,4.973,-0.007812,-0.02344,-0.3008,0.001915,-0.00409,0.03436,0.0,0.0,5.07,0.0,0.0,-0.2593,0.0
1738833742461389303,-0.00616,0.0355,4.863,-0.01814,-0.0283,-0.2505,9.7e-05,-0.00548,0.010864,0.01084,0.02678,4.953,-0.007812,-0.02344,-0.2695,0.001982,-0.005215,0.03452,0.0,0.0,5.07,0.0,0.0,-0.2593,0.0
1738833742511421680,-0.007046,0.03415,4.85,-0.0186,-0.02798,-0.2211,0.000109,-0.005024,0.0108,0.01084,0.0002708,4.95,-0.007812,-0.02344,-0.25,0.001883,-0.00599,0.0346,0.0,0.0,5.047,0.0,0.0,-0.2108,0.0
1738833742561389923,-0.00802,0.0327,4.84,-0.01894,-0.02763,-0.2001,7.7e-05,-0.006046,0.010704,0.01084,0.0002708,4.93,-0.007812,-0.02344,-0.2188,0.00197,-0.005905,0.0348,0.0,0.0,5.047,0.0,0.0,-0.2108,0.0
1738833742611420631,-0.00894,0.03137,4.832,-0.01958,-0.02733,-0.1704,0.000104,-0.005142,0.01064,0.01084,0.0002708,4.92,-0.007812,-0.02344,-0.1953,0.001872,-0.006508,0.03488,0.0,0.0,5.027,0.0,0.0,-0.1616,0.0
1738833742661387681,-0.00989,0.03008,4.824,-0.0197,-0.02702,-0.1532,0.000103,-0.005394,0.01053,0.01084,0.0002708,4.91,-0.007812,-0.02344,-0.168,0.00189,-0.00547,0.03503,0.0,0.0,5.027,0.0,0.0,-0.1616,0.0
1738833742711400032,-0.010925,0.02869,4.816,-0.02032,-0.02669,-0.1364,6.7e-05,-0.00602,0.01039,0.01084,0.0002708,4.91,-0.007812,-0.01953,-0.1523,0.001878,-0.00616,0.03503,0.0,0.0,5.01,0.0,0.0,-0.1122,0.0
1738833742761388301,-0.01201,0.0273,4.812,-0.0213,-0.02635,-0.1233,5.4e-05,-0.00702,0.01028,0.01084,0.0002708,4.895,-0.007812,-0.01953,-0.1367,0.00186,-0.0072,0.03513,0.0,0.0,5.01,0.0,0.0,-0.1122,0.0
1738833742811483383,-0.013054,0.02605,4.805,-0.02211,-0.02605,-0.09546,0.0001,-0.00493,0.01012,0.01084,0.0002708,4.89,-0.01172,-0.01953,-0.1211,0.001949,-0.006943,0.03522,0.0,0.0,5.004,0.0,0.0,-0.06235,0.0
1738833742861479997,-0.0142,0.0247,4.8,-0.02188,-0.02574,-0.0755,0.000158,-0.004505,0.00996,0.01084,0.0002708,4.883,-0.01172,-0.01953,-0.08984,0.00199,-0.004696,0.03522,0.0,0.0,5.004,0.0,0.0,-0.06235,0.0
1738833742911499023,-0.01524,0.02347,4.797,-0.02188,-0.02548,-0.0583,0.000182,-0.00471,0.00982,0.01084,0.0002708,4.883,-0.01172,-0.01953,-0.0742,0.001984,-0.005043,0.03522,0.0,0.0,5.0,0.0,0.0,-0.01239,0.0
1738833742961510896,-0.01639,0.02216,4.797,-0.02214,-0.0252,-0.0477,0.000147,-0.005917,0.00965,0.01084,0.0002708,4.875,-0.01172,-0.01953,-0.0586,0.001968,-0.005905,0.03522,0.0,0.0,5.0,0.0,0.0,-0.01239,0.0
1738833743011491537,-0.01747,0.02095,4.793,-0.02275,-0.02495,-0.03308,0.000159,-0.00556,0.00947,0.01084,0.0002708,4.875,-0.01172,-0.01953,-0.04688,0.001959,-0.006424,0.03522,0.0,0.0,5.0,0.0,0.0,0.0376,0.0
1738833743061450242,-0.01866,0.01967,4.793,-0.02315,-0.02467,-0.01651,0.000174,-0.005486,0.0093,0.01084,0.0002708,4.87,-0.01172,-0.01953,-0.02734,0.001968,-0.005905,0.03522,0.0,0.0,5.0,0.0,0.0,0.0376,0.0
1738833743111451864,-0.01978,0.01848,4.793,-0.02315,-0.02444,0.0124,0.000234,-0.003515,0.00911,0.01084,0.0002708,4.87,-0.01172,-0.01953,-0.01172,0.001978,-0.005386,0.03522,0.0,0.0,5.008,0.0,0.0,0.0875,0.0
1738833743161430358,-0.02095,0.01721,4.793,-0.02226,-0.02422,0.03418,0.000253,-0.003416,0.00892,0.01084,0.0002708,4.867,-0.01172,-0.01953,0.01563,0.00201,-0.003489,0.03522,0.0,0.0,5.008,0.0,0.0,0.0875,0.0
1738833743211466073,-0.02202,0.01605,4.797,-0.02179,-0.02402,0.05292,0.000243,-0.003906,0.00872,0.01084,0.0002708,4.87,-0.01172,-0.01953,0.03516,0.002087,-0.004093,0.03522,0.0,0.0,5.02,0.0,0.0,0.1372,0.0
1738833743261444807,-0.02306,0.01491,4.797,-0.02164,-0.0238,0.0686,0.00022,-0.00492,0.00856,0.01084,0.0002708,4.875,-0.01172,-0.01953,0.0547,0.00198,-0.005215,0.03503,0.0,0.0,5.02,0.0,0.0,0.1372,0.0
1738833743311486959,-0.02419,0.01368,4.8,-0.02159,-0.02359,0.1,0.000275,-0.003622,0.00837,0.01084,0.0002708,4.88,-0.01172,-0.01953,0.0742,0.002068,-0.00513,0.03503,0.0,0.0,5.035,0.0,0.0,0.1865,0.0
1738833743361462354,-0.02528,0.01246,4.81,-0.02094,-0.02339,0.12463,0.000302,-0.003904,0.008194,0.01084,0.0002708,4.883,-0.007812,-0.01563,0.10547,0.00209,-0.00392,0.03503,0.0,0.0,5.035,0.0,0.0,0.1865,0.0
1738833743411470651,-0.02628,0.01134,4.816,-0.02045,-0.02322,0.1552,0.000322,-0.003101,0.008,-0.00665,0.0002708,4.887,-0.007812,-0.01563,0.1289,0.002083,-0.00427,0.03503,0.0,0.0,5.055,0.0,0.0,0.2354,0.0
1738833743461414575,-0.02724,0.01023,4.824,-0.01973,-0.02306,0.1754,0.000303,-0.003944,0.007835,-0.00665,0.0002708,4.9,-0.007812,-0.01563,0.1641,0.002087,-0.004093,0.03503,0.0,0.0,5.055,0.0,0.0,0.2354,0.0
1738833743511472225,-0.02826,0.00903,4.832,-0.0195,-0.0229,0.2081,0.000331,-0.003765,0.007652,-0.00665,0.0002708,4.906,-0.007812,-0.01563,0.1836,0.002077,-0.004612,0.03497,0.0,0.0,5.082,0.0,0.0,0.2837,0.0
1738833743561420202,-0.02919,0.00794,4.844,-0.01907,-0.02274,0.2311,0.000318,-0.004295,0.007492,-0.00665,0.0002708,4.914,-0.007812,-0.01563,0.2188,0.00208,-0.00444,0.03488,0.0,0.0,5.082,0.0,0.0,0.2837,0.0
1738833743611447095,-0.03017,0.00676,4.855,-0.01883,-0.02258,0.267,0.000337,-0.00349,0.007317,-0.00665,0.0002708,4.92,-0.007812,-0.01563,0.2422,0.002077,-0.004612,0.03488,0.0,0.0,5.113,0.0,0.0,0.3313,0.0
1738833743661403894,-0.03107,0.00568,4.87,-0.01828,-0.02242,0.291,0.000296,-0.004143,0.007133,-0.00665,0.0002708,4.94,-0.007812,-0.01563,0.2812,0.002085,-0.004265,0.03488,0.0,0.0,5.113,0.0,0.0,0.3313,0.0
1738833743711457014,-0.032,0.00452,4.887,-0.01807,-0.02225,0.3267,0.000258,-0.003702,0.006958,-0.00665,0.0002708,4.953,-0.007812,-0.01563,0.3047,0.002075,-0.004784,0.03488,0.0,0.0,5.15,0.0,0.0,0.378,0.0
1738833743761450529,-0.03287,0.003456,4.902,-0.0177,-0.02206,0.349,0.000233,-0.004604,0.006798,-0.00665,0.0002708,4.965,-0.007812,-0.01563,0.3398,0.002077,-0.004612,0.03488,0.0,0.0,5.15,0.0,0.0,0.378,0.0
1738833743811495780,-0.03378,0.002314,4.92,-0.01773,-0.02187,0.3853,0.000243,-0.00401,0.006607,-0.00665,0.0002708,4.977,-0.007812,-0.01563,0.3633,0.00207,-0.00513,0.03488,0.0,0.0,5.188,0.0,0.0,0.4238,0.0
1738833743861429691,-0.03464,0.001269,4.94,-0.01743,-0.02168,0.4087,0.000249,-0.004593,0.00644,-0.00665,-0.02625,5.008,-0.007812,-0.01563,0.4023,0.002075,-0.004784,0.03488,0.0,0.0,5.188,0.0,0.0,0.4238,0.0
1738833743911485910,-0.03555,0.000146,4.96,-0.01747,-0.0215,0.4443,0.000257,-0.00412,0.006268,-0.00665,-0.02625,5.02,-0.007812,-0.01563,0.4258,0.00207,-0.00513,0.03488,0.0,0.0,5.234,0.0,0.0,0.4685,0.0
1738833743961547613,-0.03638,-0.000881,4.984,-0.01726,-0.02133,0.468,0.000268,-0.00478,0.006084,-0.00665,-0.02625,5.043,-0.007812,-0.01563,0.461,0.002075,-0.004784,0.03488,0.0,0.0,5.234,0.0,0.0,0.4685,0.0
1738833744011493206,-0.03726,-0.001986,5.01,-0.01736,-0.02116,0.504,0.000296,-0.00413,0.005905,-0.00665,-0.02625,5.06,-0.007812,-0.01563,0.4883,0.00207,-0.00513,0.03488,0.0,0.0,5.28,0.0,0.0,0.512,0.0
1738833744061458587,-0.0381,-0.002998,5.035,-0.01714,-0.021,0.5273,0.000214,-0.004776,0.005726,-0.00665,-0.02625,5.094,-0.007812,-0.01563,0.5234,0.002071,-0.004955,0.03488,0.0,0.0,5.28,0.0,0.0,0.512,0.0
1738833744111468315,-0.039,-0.004078,5.062,-0.01727,-0.02051,0.5625,-0.00094,-0.004208,0.005516,-0.00665,-0.02625,5.113,-0.007812,-0.01563,0.547,0.00172,-0.005295,0.03488,0.0,0.0,5.336,0.0,0.0,0.554,0.0
1738833744161444902,-0.03983,-0.00504,5.09,-0.01714,-0.01942,0.5845,-0.002235,-0.005,0.005344,-0.00665,-0.02625,5.14,-0.007812,-0.01563,0.582,-8.73e-05,-0.005005,0.03488,0.0,0.0,5.336,0.0,0.0,0.554,0.0
1738833744211476802,-0.0407,-0.006004,5.12,-0.01738,-0.01762,0.619,-0.003225,-0.004364,0.00513,-0.00665,-0.02625,5.164,-0.007812,-0.01563,0.6055,-0.0008745,-0.005596,0.03488,0.0,0.0,5.395,0.0,0.0,0.595,0.0
1738833744261434793,-0.04153,-0.0068,5.152,-0.01726,-0.01562,0.6387,-0.003897,-0.004963,0.00496,-0.00665,-0.02625,5.203,-0.007812,-0.01172,0.6406,-0.001902,-0.005062,0.03488,0.0,0.0,5.395,0.0,0.0,0.595,0.0
1738833744311475515,-0.04245,-0.00755,5.188,-0.01775,-0.013145,0.66,-0.004375,-0.005657,0.004757,-0.00665,-0.02625,5.227,-0.007812,-0.01172,0.6523,-0.002174,-0.005833,0.03488,0.0,0.0,5.453,0.0,0.0,0.635,0.0
1738833744361428976,-0.04333,-0.008125,5.22,-0.01846,-0.01071,0.677,-0.004684,-0.00642,0.004566,-0.00665,-0.02625,5.26,-0.007812,-0.01172,0.676,-0.002705,-0.006687,0.03455,0.0,0.0,5.453,0.0,0.0,0.635,0.0
1738833744411480426,-0.0443,-0.008606,5.254,-0.01913,-0.00792,0.711,-0.004787,-0.0045,0.004387,-0.00665,-0.02625,5.29,-0.007812,-0.007812,0.699,-0.002872,-0.00634,0.03455,0.0,0.0,5.52,0.0,0.0,0.6724,0.0
1738833744461479425,-0.04523,-0.00893,5.29,-0.01884,-0.005363,0.7324,-0.004875,-0.00438,0.004208,-0.02414,-0.02625,5.336,-0.007812,-0.003906,0.7344,-0.003016,-0.00461,0.03455,0.0,0.0,5.52,0.0,0.0,0.6724,0.0
1738833744511503696,-0.0462,-0.00913,5.33,-0.0189,-0.002588,0.756,-0.004955,-0.00475,0.004044,-0.02414,-0.02625,5.36,-0.007812,-0.003906,0.75,-0.003023,-0.005127,0.03455,0.0,0.0,5.59,0.0,0.0,0.7085,0.0
1738833744561480760,-0.04712,-0.00919,5.363,-0.01912,-1.8e-05,0.7754,-0.00503,-0.00543,0.003881,-0.02414,-0.02625,5.4,-0.007812,0.0,0.7734,-0.00312,-0.00573,0.0347,0.0,0.0,5.59,0.0,0.0,0.7085,0.0
1738833744611503124,-0.04813,-0.00912,5.406,-0.01929,0.002817,0.811,-0.005,-0.003778,0.003672,-0.02414,-0.02625,5.43,-0.01172,0.0,0.801,-0.0032,-0.0053,0.0347,0.0,0.0,5.66,0.0,0.0,0.743,0.0
1738833744661472320,-0.0491,-0.008896,5.45,-0.0187,0.005512,0.8286,-0.004936,-0.00434,0.003477,-0.02414,-0.02625,5.48,-0.007812,0.0,0.832,-0.003094,-0.004177,0.0347,0.0,0.0,5.66,0.0,0.0,0.743,0.0
1738833744711502075,-0.05,-0.008575,5.49,-0.01913,0.007664,0.836,-0.003906,-0.006405,0.003317,-0.02414,-0.02625,5.508,-0.007812,0.003906,0.84,-0.002861,-0.00565,0.0347,0.0,0.0,5.74,0.0,0.0,0.7754,0.0
1738833744761427402,-0.05093,-0.00817,5.527,-0.02032,0.00925,0.848,-0.002712,-0.007153,0.00313,-0.02414,-0.02625,5.55,-0.01172,0.003906,0.8516,-0.001165,-0.007576,0.03412,0.0,0.0,5.74,0.0,0.0,0.7754,0.0
1738833744811471700,-0.05203,-0.007656,5.574,-0.0211,0.0104,0.88,-0.001651,-0.004383,0.002998,-0.02414,-0.02625,5.582,-0.01172,0.003906,0.867,-0.000372,-0.00664,0.03403,0.0,0.0,5.816,0.0,0.0,0.806,0.0
1738833744861429691,-0.05304,-0.00714,5.617,-0.02061,0.010994,0.8945,-0.00098,-0.00409,0.00287,-0.02414,-0.02625,5.645,-0.01172,0.007812,0.9023,0.0007896,-0.00433,0.034,0.0,0.0,5.816,0.0,0.0,0.806,0.0
1738833744911535978,-0.0541,-0.006557,5.664,-0.02083,0.01134,0.902,-0.000564,-0.005928,0.00277,-0.02414,-0.02625,5.67,-0.01172,0.007812,0.9062,0.001117,-0.00537,0.03418,0.0,0.0,5.9,0.0,0.0,0.8345,0.0
1738833744961511850,-0.0551,-0.00601,5.707,-0.02173,0.01149,0.9136,-0.000352,-0.00652,0.002659,-0.02414,-0.02625,5.715,-0.01172,0.007812,0.914,0.001522,-0.00702,0.03366,0.0,0.0,5.9,0.0,0.0,0.8345,0.0
1738833745011543750,-0.05627,-0.00541,5.754,-0.02193,0.01155,0.9443,-0.000127,-0.00265,0.002571,-0.02414,-0.02625,5.746,-0.01172,0.007812,0.9336,0.00163,-0.005726,0.03366,0.0,0.0,5.984,0.0,0.0,0.8613,0.0
1738833745061505317,-0.05737,-0.00481,5.805,-0.02013,0.01152,0.959,8e-06,-0.001264,0.002504,-0.02414,-0.02625,5.812,-0.01172,0.007812,0.965,0.001785,-0.001671,0.03366,0.0,0.0,5.984,0.0,0.0,0.8613,0.0
1738833745111534118,-0.05838,-0.00421,5.855,-0.01866,0.011444,0.9653,9e-06,-0.002325,0.002426,-0.02414,-0.02625,5.84,-0.007812,0.007812,0.9727,0.001867,-0.001931,0.03366,0.0,0.0,6.07,0.0,0.0,0.8857,0.0
1738833745161504268,-0.05917,-0.003712,5.9,-0.01775,0.01139,0.976,-1.1e-05,-0.002386,0.002373,-0.02414,-0.02625,5.895,-0.007812,0.007812,0.9766,0.001849,-0.002966,0.03384,0.0,0.0,6.07,0.0,0.0,0.8857,0.0
1738833745211555242,-0.06006,-0.00312,5.95,-0.01582,0.011314,1.007,7e-05,0.00069,0.002268,-0.02414,-0.02625,5.93,-0.007812,0.007812,0.996,0.001781,-0.001843,0.03384,0.0,0.0,6.16,0.0,0.0,0.9077,0.0
1738833745261512994,-0.06073,-0.002579,5.996,-0.01286,0.01122,1.0205,8.7e-05,0.001101,0.002201,-0.02414,-0.02625,5.996,-0.003906,0.007812,1.027,0.001913,0.000831,0.03384,0.0,0.0,6.16,0.0,0.0,0.9077,0.0
1738833745311545848,-0.06134,-0.001999,6.05,-0.010414,0.01113,1.026,3e-05,-0.000683,0.002108,-0.02414,-0.02625,6.03,-0.003906,0.003906,1.035,0.001896,-0.0002046,0.03366,0.0,0.0,6.254,0.0,0.0,0.9272,0.0
1738833745361495256,-0.06183,-0.001421,6.105,-0.00871,0.01106,1.04,-7e-06,-0.001289,0.002033,-0.02414,-0.02625,6.086,0.0,0.003906,1.039,0.001782,-0.001843,0.03366,0.0,0.0,6.254,0.0,0.0,0.9272,0.0
1738833745411521673,-0.0622,-0.000892,6.156,-0.006767,0.010994,1.067,8.5e-05,0.000258,0.001972,-0.02414,-0.02625,6.125,0.0,0.003906,1.059,0.001879,-0.001241,0.03375,0.0,0.0,6.348,0.0,0.0,0.945,0.0
1738833745461490631,-0.0625,-0.000323,6.21,-0.004368,0.01088,1.076,0.000114,-0.001205,0.001887,-0.02414,-0.02625,6.2,0.0,0.003906,1.086,0.001968,-0.000983,0.03366,0.0,0.0,6.348,0.0,0.0,0.945,0.0
1738833745511545419,-0.0627,0.000197,6.26,-0.003872,0.01079,1.068,1.3e-05,-0.00523,0.001838,-0.02414,-0.02625,6.23,0.0,0.003906,1.086,0.001931,-0.003227,0.03366,0.0,0.0,6.44,0.0,0.0,0.96,0.0
1738833745561501264,-0.0629,0.000757,6.316,-0.00497,0.010735,1.075,-4.4e-05,-0.00627,0.001776,-0.04163,-0.02625,6.29,0.0,0.003906,1.078,0.001868,-0.007023,0.0334,0.0,0.0,6.44,0.0,0.0,0.96,0.0
1738833745611542701,-0.0632,0.001271,6.37,-0.0052,0.01068,1.101,4e-05,-0.002953,0.001725,-0.04163,-0.02625,6.33,0.0,0.003906,1.094,0.001892,-0.005642,0.03333,0.0,0.0,6.54,0.0,0.0,0.973,0.0
1738833745661514282,-0.0634,0.001824,6.426,-0.00401,0.0106,1.108,7.9e-05,-0.002733,0.001711,-0.04163,-0.02625,6.406,0.0,0.003906,1.121,0.001941,-0.002708,0.03348,0.0,0.0,6.54,0.0,0.0,0.973,0.0
1738833745711549997,-0.0636,0.00233,6.48,-0.004005,0.01053,1.101,-2.8e-05,-0.005882,0.00167,-0.04163,-0.02625,6.44,0.0,0.003906,1.117,0.001999,-0.00435,0.03348,0.0,0.0,6.637,0.0,0.0,0.9834,0.0
1738833745761506557,-0.0638,0.002834,6.53,-0.00519,0.010506,1.105,-0.000101,-0.006557,0.001651,-0.04163,-0.02625,6.5,0.0,0.003906,1.109,0.001779,-0.007282,0.03314,0.0,0.0,6.637,0.0,0.0,0.9834,0.0
1738833745811531543,-0.0641,0.003382,6.59,-0.00532,0.01048,1.133,-3.5e-05,-0.001804,0.001645,-0.04163,-0.02625,6.54,0.0,0.003906,1.125,0.00181,-0.005383,0.03314,0.0,0.0,6.734,0.0,0.0,0.991,0.0
1738833745861526966,-0.06433,0.003925,6.652,-0.003128,0.010445,1.136,-6e-06,-0.000317,0.001633,-0.04163,-0.02625,6.617,0.0,0.003906,1.152,0.00189,-0.0005493,0.03333,0.0,0.0,6.734,0.0,0.0,0.991,0.0
1738833745911470651,-0.06445,0.004425,6.703,-0.002102,0.01042,1.115,-0.000127,-0.004063,0.001635,-0.04163,-0.02625,6.652,0.0,0.003906,1.141,0.001952,-0.002018,0.03333,0.0,0.0,6.832,0.0,0.0,0.9966,0.0
1738833745961506128,-0.0646,0.004967,6.76,-0.002455,0.010445,1.114,-0.000202,-0.004063,0.001641,-0.04163,-0.02625,6.715,0.0,0.0,1.117,0.001725,-0.005295,0.03314,0.0,0.0,6.832,0.0,0.0,0.9966,0.0
