time,x_sphinx,y_sphinx,z_sphinx,vx_sphinx,vy_sphinx,vz_sphinx,roll_sphinx,pitch_sphinx,yaw_sphinx,x_anafi,y_anafi,z_anafi,vx_anafi,vy_anafi,vz_anafi,roll_anafi,pitch_anafi,yaw_anafi,wp_x,wp_y,wp_z,wp_vx,wp_vy,wp_vz,wp_yaw
1738225739833622217,0,0,0,0,0,0,0,0,0,3.375,-0.9336,7.06,0.664,2.09,-0.01172,0.02179,0.249,0.02956,3.0,-0.04956,7.0,0.03305,2.0,0.0,0.0
1738225739883624553,0,0,0,0,0,0,0,0,0,3.416,-0.784,7.055,0.5664,2.125,-0.01563,0.01671,0.256,0.03033,3.0,0.0,7.0,-0.0,2.0,0.0,0.0
1738225739933604717,0,0,0,0,0,0,0,0,0,3.436,-0.709,7.055,0.5156,2.145,-0.01563,0.01469,0.2593,0.03047,3.0,0.0,7.0,-0.0,2.0,0.0,0.0
1738225739983618259,0,0,0,0,0,0,0,0,0,3.465,-0.5605,7.066,0.3828,2.195,-0.02734,0.01523,0.2686,0.02977,2.994,0.1998,7.0,-0.1332,1.995,0.0,0.0
1738225740033622741,0,0,0,0,0,0,0,0,0,3.477,-0.4802,7.066,0.336,2.207,-0.03125,0.01373,0.274,0.029,2.994,0.1998,7.0,-0.1332,1.995,0.0,0.0
1738225740083623647,0,0,0,0,0,0,0,0,0,3.492,-0.3525,7.062,0.2344,2.238,-0.03906,0.00833,0.282,0.0283,2.973,0.399,7.0,-0.2659,1.982,0.0,0.0
1738225740133621931,0,0,0,0,0,0,0,0,0,3.498,-0.2664,7.062,0.1875,2.25,-0.03906,0.00572,0.285,0.02869,2.973,0.399,7.0,-0.2659,1.982,0.0,0.0
1738225740183615207,0,0,0,0,0,0,0,0,0,3.504,-0.1586,7.06,0.1211,2.27,-0.03906,0.00392,0.2874,0.02881,2.94,0.596,7.0,-0.3972,1.96,0.0,0.0
1738225740233602046,0,0,0,0,0,0,0,0,0,3.504,0.002047,7.06,-0.03125,2.29,-0.03906,-0.0002162,0.2917,0.03044,2.94,0.596,7.0,-0.3972,1.96,0.0,0.0
1738225740283609867,0,0,0,0,0,0,0,0,0,3.5,0.10443,7.055,-0.1172,2.297,-0.03516,-0.01108,0.2888,0.03244,2.895,0.7905,7.0,-0.527,1.93,0.0,0.0
1738225740333619117,0,0,0,0,0,0,0,0,0,3.492,0.2069,7.055,-0.1758,2.305,-0.03125,-0.01682,0.2861,0.03223,2.895,0.7905,7.0,-0.527,1.93,0.0,0.0
1738225740383608102,0,0,0,0,0,0,0,0,0,3.482,0.3074,7.05,-0.2188,2.305,-0.02734,-0.02592,0.2822,0.0311,2.834,0.9814,7.0,-0.6543,1.89,0.0,0.0
1738225740433601140,0,0,0,0,0,0,0,0,0,3.477,0.3567,7.05,-0.289,2.297,-0.02734,-0.03123,0.28,0.03036,2.834,0.9814,7.0,-0.6543,1.89,0.0,0.0
1738225740483604907,0,0,0,0,0,0,0,0,0,3.477,0.3567,7.05,-0.289,2.297,-0.02734,-0.03123,0.28,0.03036,2.764,1.168,7.0,-0.779,1.842,0.0,0.0
1738225740533618927,0,0,0,0,0,0,0,0,0,3.42,0.692,7.043,-0.4766,2.266,-0.003906,-0.05936,0.275,0.03247,2.764,1.168,7.0,-0.779,1.842,0.0,0.0
1738225740583616256,0,0,0,0,0,0,0,0,0,3.398,0.7876,7.043,-0.5586,2.238,-0.007812,-0.071,0.2747,0.03238,2.68,1.35,7.0,-0.9,1.786,0.0,0.0
1738225740633622646,0,0,0,0,0,0,0,0,0,3.367,0.8994,7.043,-0.6094,2.227,-0.01172,-0.07166,0.2776,0.0318,2.68,1.35,7.0,-0.9,1.786,0.0,0.0
1738225740683612585,0,0,0,0,0,0,0,0,0,3.33,1.02,7.04,-0.711,2.195,-0.007812,-0.05774,0.2896,0.03143,2.584,1.525,7.0,-1.017,1.723,0.0,0.0
1738225740733613967,0,0,0,0,0,0,0,0,0,3.299,1.11,7.04,-0.7656,2.195,-0.0,-0.0487,0.293,0.0296,2.584,1.525,7.0,-1.017,1.723,0.0,0.0
1738225740783603429,0,0,0,0,0,0,0,0,0,3.26,1.21,7.04,-0.8164,2.191,-0.0,-0.04355,0.297,0.02817,2.477,1.694,7.0,-1.129,1.65,0.0,0.0
1738225740833617925,0,0,0,0,0,0,0,0,0,3.209,1.332,7.04,-0.9336,2.172,-0.003906,-0.04642,0.298,0.02637,2.477,1.694,7.0,-1.129,1.65,0.0,0.0
1738225740883580684,0,0,0,0,0,0,0,0,0,3.156,1.448,7.035,-1.027,2.156,-0.003906,-0.0706,0.2944,0.02557,2.357,1.855,7.0,-1.236,1.571,0.0,0.0
1738225740933619499,0,0,0,0,0,0,0,0,0,3.102,1.557,7.035,-1.09,2.145,-0.0,-0.07886,0.2908,0.02611,2.357,1.855,7.0,-1.236,1.571,0.0,0.0
1738225740983635663,0,0,0,0,0,0,0,0,0,3.059,1.633,7.035,-1.141,2.133,0.003906,-0.08344,0.2844,0.02718,2.229,2.008,7.0,-1.339,1.486,0.0,0.0
1738225741033629417,0,0,0,0,0,0,0,0,0,2.984,1.762,7.03,-1.246,2.086,0.007812,-0.088,0.2769,0.02783,2.229,2.008,7.0,-1.339,1.486,0.0,0.0
1738225741083612680,0,0,0,0,0,0,0,0,0,2.912,1.879,7.03,-1.309,2.066,0.01563,-0.0974,0.269,0.028,2.09,2.152,7.0,-1.435,1.394,0.0,0.0
1738225741133626222,0,0,0,0,0,0,0,0,0,2.857,1.961,7.03,-1.352,2.05,0.01563,-0.1033,0.2646,0.02792,2.09,2.152,7.0,-1.435,1.394,0.0,0.0
1738225741183589458,0,0,0,0,0,0,0,0,0,2.799,2.045,7.03,-1.387,2.031,0.01953,-0.1125,0.2595,0.02821,1.942,2.287,7.0,-1.524,1.295,0.0,0.0
1738225741233584880,0,0,0,0,0,0,0,0,0,2.715,2.16,7.03,-1.473,1.973,0.01563,-0.1285,0.254,0.03032,1.942,2.287,7.0,-1.524,1.295,0.0,0.0
1738225741283586025,0,0,0,0,0,0,0,0,0,2.625,2.275,7.027,-1.523,1.922,0.01953,-0.149,0.2488,0.02957,1.785,2.41,7.0,-1.607,1.19,0.0,0.0
1738225741333604812,0,0,0,0,0,0,0,0,0,2.55,2.365,7.027,-1.551,1.887,0.01953,-0.156,0.2473,0.02943,1.785,2.41,7.0,-1.607,1.19,0.0,0.0
1738225741383573770,0,0,0,0,0,0,0,0,0,2.492,2.436,7.027,-1.574,1.852,0.01953,-0.1656,0.2445,0.02995,1.621,2.523,7.0,-1.683,1.081,0.0,0.0
1738225741433614730,0,0,0,0,0,0,0,0,0,2.4,2.535,7.023,-1.652,1.766,0.01953,-0.1769,0.243,0.02922,1.621,2.523,7.0,-1.683,1.081,0.0,0.0
1738225741483587741,0,0,0,0,0,0,0,0,0,2.352,2.584,7.023,-1.672,1.742,0.02344,-0.183,0.2426,0.02925,1.449,2.627,7.0,-1.751,0.9663,0.0,0.0
1738225741533618450,0,0,0,0,0,0,0,0,0,2.223,2.71,7.023,-1.727,1.664,0.03125,-0.1917,0.2418,0.02853,1.449,2.627,7.0,-1.751,0.9663,0.0,0.0
1738225741583597421,0,0,0,0,0,0,0,0,0,2.158,2.771,7.023,-1.746,1.629,0.03516,-0.1956,0.241,0.0285,1.2705,2.717,7.0,-1.812,0.847,0.0,0.0
1738225741633618354,0,0,0,0,0,0,0,0,0,2.055,2.863,7.023,-1.793,1.547,0.04297,-0.2075,0.2367,0.02814,1.2705,2.717,7.0,-1.812,0.847,0.0,0.0
1738225741683589696,0,0,0,0,0,0,0,0,0,1.999,2.908,7.023,-1.801,1.496,0.04297,-0.2146,0.236,0.02689,1.087,2.797,7.0,-1.864,0.7246,0.0,0.0
1738225741733640193,0,0,0,0,0,0,0,0,0,1.869,3.01,7.023,-1.844,1.41,0.03516,-0.2319,0.2351,0.02768,1.087,2.797,7.0,-1.864,0.7246,0.0,0.0
1738225741783605337,0,0,0,0,0,0,0,0,0,1.797,3.062,7.023,-1.867,1.355,0.03516,-0.2378,0.2347,0.0268,0.8984,2.863,7.0,-1.908,0.599,0.0,0.0
1738225741833618402,0,0,0,0,0,0,0,0,0,1.682,3.139,7.023,-1.906,1.223,0.02734,-0.2534,0.2313,0.02737,0.8984,2.863,7.0,-1.908,0.599,0.0,0.0
1738225741883589267,0,0,0,0,0,0,0,0,0,1.621,3.174,7.023,-1.926,1.164,0.02734,-0.2603,0.2294,0.02773,0.7056,2.916,7.0,-1.944,0.4705,0.0,0.0
1738225741933581590,0,0,0,0,0,0,0,0,0,1.498,3.242,7.023,-1.957,1.055,0.02344,-0.2664,0.2275,0.02702,0.7056,2.916,7.0,-1.944,0.4705,0.0,0.0
1738225741983604907,0,0,0,0,0,0,0,0,0,1.416,3.285,7.023,-1.973,1.012,0.02734,-0.2695,0.2258,0.02592,0.51,2.957,7.0,-1.971,0.3398,0.0,0.0
1738225742033593893,0,0,0,0,0,0,0,0,0,1.286,3.342,7.02,-2.012,0.8633,0.03516,-0.2756,0.2201,0.02638,0.51,2.957,7.0,-1.971,0.3398,0.0,0.0
1738225742083577394,0,0,0,0,0,0,0,0,0,1.243,3.36,7.02,-2.023,0.8086,0.04297,-0.2778,0.2185,0.02762,0.3118,2.984,7.0,-1.989,0.2079,0.0,0.0
1738225742133589506,0,0,0,0,0,0,0,0,0,1.084,3.414,7.02,-2.047,0.672,0.05078,-0.286,0.2135,0.02808,0.3118,2.984,7.0,-1.989,0.2079,0.0,0.0
1738225742183583259,0,0,0,0,0,0,0,0,0,0.999,3.44,7.02,-2.055,0.629,0.0547,-0.285,0.2134,0.02882,0.11237,2.998,7.0,-1.999,0.0749,0.0,0.0
1738225742233606100,0,0,0,0,0,0,0,0,0,0.8657,3.47,7.02,-2.078,0.457,0.0547,-0.2815,0.2137,0.02913,0.11237,2.998,7.0,-1.999,0.0749,0.0,0.0
1738225742283585786,0,0,0,0,0,0,0,0,0,0.7466,3.492,7.02,-2.098,0.3438,0.0742,-0.2815,0.2108,0.02942,-0.0876,2.998,7.0,-1.999,-0.0584,0.0,0.0
1738225742333594322,0,0,0,0,0,0,0,0,0,0.6714,3.502,7.023,-2.102,0.289,0.08203,-0.2834,0.2056,0.02997,-0.0876,2.998,7.0,-1.999,-0.0584,0.0,0.0
1738225742383600234,0,0,0,0,0,0,0,0,0,0.591,3.512,7.023,-2.11,0.2344,0.08203,-0.2844,0.2012,0.0296,-0.287,2.986,7.0,-1.991,-0.1914,0.0,0.0
1738225742433608531,0,0,0,0,0,0,0,0,0,0.444,3.52,7.094,-2.125,0.08203,0.0703,-0.2878,0.1981,0.0318,-0.287,2.986,7.0,-1.991,-0.1914,0.0,0.0
1738225742483585119,0,0,0,0,0,0,0,0,0,0.3916,3.52,7.098,-2.125,0.03516,0.0742,-0.2883,0.1996,0.0318,-0.4854,2.96,7.0,-1.974,-0.3237,0.0,0.0
1738225742533591985,0,0,0,0,0,0,0,0,0,0.2445,3.516,7.1,-2.137,-0.09766,0.08984,-0.284,0.1987,0.03036,-0.4854,2.96,7.0,-1.974,-0.3237,0.0,0.0
1738225742583599805,0,0,0,0,0,0,0,0,0,0.1595,3.51,7.11,-2.137,-0.1406,0.09766,-0.2805,0.1958,0.02902,-0.6816,2.922,7.0,-1.947,-0.4543,0.0,0.0
1738225742633614540,0,0,0,0,0,0,0,0,0,0.02765,3.496,7.12,-2.14,-0.2461,0.05078,-0.2734,0.1985,0.02834,-0.6816,2.922,7.0,-1.947,-0.4543,0.0,0.0
1738225742683612346,0,0,0,0,0,0,0,0,0,-0.0975,3.477,7.125,-2.137,-0.3477,0.02734,-0.2678,0.2002,0.02704,-0.8745,2.87,7.0,-1.913,-0.583,0.0,0.0
1738225742733608722,0,0,0,0,0,0,0,0,0,-0.0975,3.477,7.125,-2.137,-0.3477,0.02734,-0.2678,0.2002,0.02704,-0.8745,2.87,7.0,-1.913,-0.583,0.0,0.0
1738225742783596038,0,0,0,0,0,0,0,0,0,-0.0975,3.477,7.125,-2.137,-0.3477,0.02734,-0.2678,0.2002,0.02704,-1.063,2.805,7.0,-1.87,-0.7095,0.0,0.0
1738225742833585500,0,0,0,0,0,0,0,0,0,-0.4094,3.418,7.13,-2.156,-0.4727,-0.0,-0.2489,0.1956,0.02798,-1.063,2.805,7.0,-1.87,-0.7095,0.0,0.0
1738225742883577346,0,0,0,0,0,0,0,0,0,-0.534,3.387,7.137,-2.18,-0.5664,-0.0547,-0.2383,0.1868,0.02513,-1.248,2.729,7.0,-1.818,-0.8325,0.0,0.0
1738225742933590173,0,0,0,0,0,0,0,0,0,-0.607,3.367,7.133,-2.184,-0.59,-0.0781,-0.2395,0.1831,0.0252,-1.248,2.729,7.0,-1.818,-0.8325,0.0,0.0
1738225742983619689,0,0,0,0,0,0,0,0,0,-0.757,3.324,7.137,-2.207,-0.6562,-0.0781,-0.2272,0.181,0.02371,-1.428,2.639,7.0,-1.759,-0.9517,0.0,0.0
1738225743033617258,0,0,0,0,0,0,0,0,0,-0.757,3.324,7.137,-2.207,-0.6562,-0.0781,-0.2272,0.181,0.02371,-1.428,2.639,7.0,-1.759,-0.9517,0.0,0.0
1738225743083595037,0,0,0,0,0,0,0,0,0,-0.757,3.324,7.137,-2.207,-0.6562,-0.0781,-0.2272,0.181,0.02371,-1.6,2.537,7.0,-1.691,-1.066,0.0,0.0
1738225743133619308,0,0,0,0,0,0,0,0,0,-1.045,3.236,7.137,-2.21,-0.672,-0.0703,-0.2208,0.1761,0.02321,-1.6,2.537,7.0,-1.691,-1.066,0.0,0.0
1738225743183606386,0,0,0,0,0,0,0,0,0,-1.161,3.2,7.125,-2.234,-0.7383,-0.1133,-0.2445,0.1665,0.02196,-1.766,2.426,7.0,-1.617,-1.177,0.0,0.0
1738225743233638763,0,0,0,0,0,0,0,0,0,-1.255,3.166,7.113,-2.242,-0.828,-0.1328,-0.266,0.1367,0.02563,-1.766,2.426,7.0,-1.617,-1.177,0.0,0.0
1738225743283581256,0,0,0,0,0,0,0,0,0,-1.352,3.127,7.105,-2.23,-0.8633,-0.1172,-0.266,0.1279,0.02605,-1.923,2.303,7.0,-1.535,-1.282,0.0,0.0
1738225743333601951,0,0,0,0,0,0,0,0,0,-1.352,3.127,7.105,-2.23,-0.8633,-0.1172,-0.266,0.1279,0.02605,-1.923,2.303,7.0,-1.535,-1.282,0.0,0.0
1738225743383597612,0,0,0,0,0,0,0,0,0,-1.591,3.031,7.11,-2.227,-0.8984,-0.09766,-0.262,0.1192,0.0277,-2.072,2.17,7.0,-1.446,-1.382,0.0,0.0
1738225743433690786,0,0,0,0,0,0,0,0,0,-1.713,2.977,7.117,-2.172,-1.008,-0.1094,-0.2864,0.10175,0.02533,-2.072,2.17,7.0,-1.446,-1.382,0.0,0.0
1738225743483663082,0,0,0,0,0,0,0,0,0,-1.844,2.908,7.1,-2.117,-1.137,-0.1758,-0.3125,0.0938,0.0279,-2.213,2.027,7.0,-1.351,-1.475,0.0,0.0
1738225743533654689,0,0,0,0,0,0,0,0,0,-1.844,2.908,7.1,-2.117,-1.137,-0.1758,-0.3125,0.0938,0.0279,-2.213,2.027,7.0,-1.351,-1.475,0.0,0.0
1738225743583643198,0,0,0,0,0,0,0,0,0,-1.844,2.908,7.1,-2.117,-1.137,-0.1758,-0.3125,0.0938,0.0279,-2.342,1.875,7.0,-1.25,-1.562,0.0,0.0
1738225743633651018,0,0,0,0,0,0,0,0,0,-2.148,2.73,7.094,-2.012,-1.316,-0.1172,-0.2854,0.0548,0.03026,-2.342,1.875,7.0,-1.25,-1.562,0.0,0.0
1738225743683655500,0,0,0,0,0,0,0,0,0,-2.258,2.652,7.094,-1.914,-1.391,-0.1133,-0.2778,0.03195,0.02574,-2.463,1.714,7.0,-1.143,-1.642,0.0,0.0
1738225743733674764,0,0,0,0,0,0,0,0,0,-2.258,2.652,7.094,-1.914,-1.391,-0.1133,-0.2778,0.03195,0.02574,-2.463,1.714,7.0,-1.143,-1.642,0.0,0.0
1738225743783638477,0,0,0,0,0,0,0,0,0,-2.258,2.652,7.094,-1.914,-1.391,-0.1133,-0.2778,0.03195,0.02574,-2.57,1.547,7.0,-1.031,-1.714,0.0,0.0
1738225743833635091,0,0,0,0,0,0,0,0,0,-2.531,2.432,7.09,-1.828,-1.469,-0.125,-0.284,0.02463,0.02644,-2.57,1.547,7.0,-1.031,-1.714,0.0,0.0
1738225743883643627,0,0,0,0,0,0,0,0,0,-2.594,2.375,7.082,-1.723,-1.57,-0.08594,-0.2932,0.006462,0.0304,-2.668,1.372,7.0,-0.9146,-1.778,0.0,0.0
1738225743933629274,0,0,0,0,0,0,0,0,0,-2.69,2.277,7.105,-1.566,-1.695,-0.0586,-0.2925,-0.00207,0.02869,-2.668,1.372,7.0,-0.9146,-1.778,0.0,0.0
1738225743983603239,0,0,0,0,0,0,0,0,0,-2.771,2.178,7.1,-1.43,-1.777,-0.08203,-0.2954,-0.003305,0.02838,-2.754,1.191,7.0,-0.794,-1.836,0.0,0.0
1738225744033639669,0,0,0,0,0,0,0,0,0,-2.838,2.092,7.098,-1.383,-1.809,-0.09766,-0.3015,-0.003027,0.0264,-2.754,1.191,7.0,-0.794,-1.836,0.0,0.0
1738225744083640336,0,0,0,0,0,0,0,0,0,-2.898,2.008,7.094,-1.305,-1.879,-0.09766,-0.3145,-0.007004,0.0252,-2.826,1.005,7.0,-0.67,-1.885,0.0,0.0
1738225744133631944,0,0,0,0,0,0,0,0,0,-2.953,1.919,7.09,-1.23,-1.9375,-0.0664,-0.3135,-0.01168,0.0262,-2.826,1.005,7.0,-0.67,-1.885,0.0,0.0
1738225744183634519,0,0,0,0,0,0,0,0,0,-3.027,1.792,7.086,-1.09,-2.016,-0.0703,-0.294,-0.0319,0.02792,-2.887,0.8145,7.0,-0.543,-1.925,0.0,0.0
1738225744233660459,0,0,0,0,0,0,0,0,0,-3.027,1.792,7.086,-1.09,-2.016,-0.0703,-0.294,-0.0319,0.02792,-2.887,0.8145,7.0,-0.543,-1.925,0.0,0.0
1738225744283613443,0,0,0,0,0,0,0,0,0,-3.027,1.792,7.086,-1.09,-2.016,-0.0703,-0.294,-0.0319,0.02792,-2.936,0.62,7.0,-0.4136,-1.957,0.0,0.0
1738225744333606481,0,0,0,0,0,0,0,0,0,-3.16,1.522,7.082,-1.023,-2.055,-0.08594,-0.292,-0.03595,0.02737,-2.936,0.62,7.0,-0.4136,-1.957,0.0,0.0
1738225744383609056,0,0,0,0,0,0,0,0,0,-3.207,1.416,7.074,-0.8555,-2.156,-0.0586,-0.2834,-0.03458,0.02812,-2.97,0.4233,7.0,-0.2822,-1.98,0.0,0.0
1738225744433627605,0,0,0,0,0,0,0,0,0,-3.234,1.339,7.07,-0.7266,-2.21,-0.03906,-0.2551,-0.0362,0.03075,-2.97,0.4233,7.0,-0.2822,-1.98,0.0,0.0
1738225744483603715,0,0,0,0,0,0,0,0,0,-3.283,1.166,7.062,-0.578,-2.277,-0.0625,-0.2457,-0.02742,0.02898,-2.992,0.2246,7.0,-0.1497,-1.994,0.0,0.0
1738225744533595085,0,0,0,0,0,0,0,0,0,-3.309,1.048,7.062,-0.5234,-2.293,-0.0664,-0.2449,-0.02448,0.02896,-2.992,0.2246,7.0,-0.1497,-1.994,0.0,0.0
1738225744583624601,0,0,0,0,0,0,0,0,0,-3.326,0.9683,7.06,-0.4844,-2.309,-0.0703,-0.2454,-0.02087,0.02827,-3.0,0.02478,7.0,-0.01653,-2.0,0.0,0.0
1738225744633635282,0,0,0,0,0,0,0,0,0,-3.35,0.8325,7.055,-0.4023,-2.344,-0.03906,-0.2401,-0.01666,0.02599,-3.0,0.02478,7.0,-0.01653,-2.0,0.0,0.0
1738225744683612585,0,0,0,0,0,0,0,0,0,-3.371,0.6924,7.05,-0.3164,-2.352,-0.03906,-0.2246,-0.02094,0.0246,-2.994,-0.1752,7.0,0.11676,-1.997,0.0,0.0
1738225744733601808,0,0,0,0,0,0,0,0,0,-3.371,0.6924,7.05,-0.3164,-2.352,-0.03906,-0.2246,-0.02094,0.0246,-2.994,-0.1752,7.0,0.11676,-1.997,0.0,0.0
1738225744783614158,0,0,0,0,0,0,0,0,0,-3.395,0.4678,7.047,-0.2305,-2.36,-0.0547,-0.2128,-0.01471,0.02208,-2.977,-0.3743,7.0,0.2495,-1.984,0.0,0.0
1738225744833633422,0,0,0,0,0,0,0,0,0,-3.402,0.358,7.047,-0.1328,-2.367,-0.02734,-0.2008,-0.01169,0.02646,-2.977,-0.3743,7.0,0.2495,-1.984,0.0,0.0
1738225744883641004,0,0,0,0,0,0,0,0,0,-3.406,0.275,7.043,-0.10156,-2.363,-0.02344,-0.1891,-0.00991,0.02742,-2.945,-0.572,7.0,0.381,-1.963,0.0,0.0
1738225744933603286,0,0,0,0,0,0,0,0,0,-3.41,0.1431,7.043,-0.0703,-2.363,-0.02344,-0.1814,-0.00916,0.02731,-2.945,-0.572,7.0,0.381,-1.963,0.0,0.0
1738225744983616352,0,0,0,0,0,0,0,0,0,-3.412,0.01767,7.043,-0.03516,-2.355,-0.02734,-0.1741,-0.00812,0.02632,-2.9,-0.7666,7.0,0.511,-1.934,0.0,0.0
1738225745033650398,0,0,0,0,0,0,0,0,0,-3.408,-0.1106,7.043,0.0781,-2.328,-0.02344,-0.1637,-0.01234,0.02734,-2.9,-0.7666,7.0,0.511,-1.934,0.0,0.0
1738225745083607435,0,0,0,0,0,0,0,0,0,-3.406,-0.1694,7.043,0.1094,-2.316,-0.02344,-0.1588,-0.01729,0.02893,-2.844,-0.958,7.0,0.6387,-1.8955,0.0,0.0
1738225745133573532,0,0,0,0,0,0,0,0,0,-3.396,-0.3157,7.043,0.1523,-2.3,-0.02344,-0.156,-0.02042,0.02866,-2.844,-0.958,7.0,0.6387,-1.8955,0.0,0.0
1738225745183606624,0,0,0,0,0,0,0,0,0,-3.396,-0.3157,7.043,0.1523,-2.3,-0.02344,-0.156,-0.02042,0.02866,-2.773,-1.1455,7.0,0.7637,-1.849,0.0,0.0
1738225745233626127,0,0,0,0,0,0,0,0,0,-3.373,-0.572,7.035,0.293,-2.219,-0.04688,-0.1476,-0.02698,0.02747,-2.773,-1.1455,7.0,0.7637,-1.849,0.0,0.0
1738225745283613920,0,0,0,0,0,0,0,0,0,-3.365,-0.617,7.035,0.3242,-2.203,-0.04688,-0.148,-0.02792,0.02618,-2.69,-1.327,7.0,0.8853,-1.794,0.0,0.0
1738225745333631515,0,0,0,0,0,0,0,0,0,-3.365,-0.617,7.035,0.3242,-2.203,-0.04688,-0.148,-0.02792,0.02618,-2.69,-1.327,7.0,0.8853,-1.794,0.0,0.0
1738225745383618593,0,0,0,0,0,0,0,0,0,-3.365,-0.617,7.035,0.3242,-2.203,-0.04688,-0.148,-0.02792,0.02618,-2.596,-1.504,7.0,1.003,-1.73,0.0,0.0
1738225745433637857,0,0,0,0,0,0,0,0,0,-3.303,-0.9834,7.03,0.4062,-2.168,-0.0547,-0.1455,-0.03207,0.02534,-2.596,-1.504,7.0,1.003,-1.73,0.0,0.0
1738225745483642101,0,0,0,0,0,0,0,0,0,-3.271,-1.114,7.023,0.551,-2.066,-0.03516,-0.1263,-0.04254,0.02545,-2.49,-1.674,7.0,1.115,-1.66,0.0,0.0
1738225745533628940,0,0,0,0,0,0,0,0,0,-3.242,-1.207,7.023,0.629,-2.023,-0.03516,-0.1218,-0.0536,0.02603,-2.49,-1.674,7.0,1.115,-1.66,0.0,0.0
1738225745583630800,0,0,0,0,0,0,0,0,0,-3.219,-1.278,7.023,0.664,-1.996,-0.03906,-0.1214,-0.0578,0.02737,-2.373,-1.836,7.0,1.224,-1.582,0.0,0.0
1738225745633616924,0,0,0,0,0,0,0,0,0,-3.197,-1.34,7.023,0.7188,-1.973,-0.04688,-0.12384,-0.06125,0.02827,-2.373,-1.836,7.0,1.224,-1.582,0.0,0.0
1738225745683626651,0,0,0,0,0,0,0,0,0,-3.197,-1.34,7.023,0.7188,-1.973,-0.04688,-0.12384,-0.06125,0.02827,-2.373,-1.836,7.0,1.224,-1.582,0.0,0.0
1738225745733592033,0,0,0,0,0,0,0,0,0,-3.197,-1.34,7.023,0.7188,-1.973,-0.04688,-0.12384,-0.06125,0.02827,-2.246,-1.989,7.0,1.326,-1.497,0.0,0.0
1738225745783603668,0,0,0,0,0,0,0,0,0,-3.049,-1.697,7.016,0.961,-1.855,-0.04688,-0.1344,-0.09125,0.02794,-2.107,-2.135,7.0,1.423,-1.405,0.0,0.0
1738225745833632946,0,0,0,0,0,0,0,0,0,-3.031,-1.727,7.016,1.031,-1.82,-0.04688,-0.1283,-0.0948,0.02716,-2.107,-2.135,7.0,1.423,-1.405,0.0,0.0
1738225745883591890,0,0,0,0,0,0,0,0,0,-3.031,-1.727,7.016,1.031,-1.82,-0.04688,-0.1283,-0.0948,0.02716,-1.961,-2.27,7.0,1.514,-1.308,0.0,0.0
1738225745933606863,0,0,0,0,0,0,0,0,0,-2.883,-1.965,7.016,1.242,-1.73,-0.0625,-0.121,-0.0947,0.02618,-1.961,-2.27,7.0,1.514,-1.308,0.0,0.0
1738225745983616828,0,0,0,0,0,0,0,0,0,-2.84,-2.023,7.01,1.281,-1.715,-0.0625,-0.1214,-0.0959,0.02689,-1.806,-2.396,7.0,1.598,-1.203,0.0,0.0
1738225746033589601,0,0,0,0,0,0,0,0,0,-2.748,-2.133,7.008,1.406,-1.645,-0.04688,-0.1182,-0.0979,0.02905,-1.806,-2.396,7.0,1.598,-1.203,0.0,0.0
1738225746083612680,0,0,0,0,0,0,0,0,0,-2.709,-2.176,7.004,1.469,-1.625,-0.03516,-0.11664,-0.1,0.03107,-1.642,-2.512,7.0,1.674,-1.095,0.0,0.0
1738225746133617162,0,0,0,0,0,0,0,0,0,-2.607,-2.28,6.996,1.582,-1.574,-0.03906,-0.1095,-0.1102,0.02931,-1.642,-2.512,7.0,1.674,-1.095,0.0,0.0
1738225746183596849,0,0,0,0,0,0,0,0,0,-2.607,-2.28,6.996,1.582,-1.574,-0.03906,-0.1095,-0.1102,0.02931,-1.471,-2.615,7.0,1.743,-0.9805,0.0,0.0
1738225746233611106,0,0,0,0,0,0,0,0,0,-2.422,-2.453,6.996,1.648,-1.555,-0.03125,-0.10516,-0.1083,0.0292,-1.471,-2.615,7.0,1.743,-0.9805,0.0,0.0
1738225746283625125,0,0,0,0,0,0,0,0,0,-2.357,-2.51,6.996,1.789,-1.465,-0.007812,-0.0907,-0.0975,0.0289,-1.293,-2.707,7.0,1.805,-0.8623,0.0,0.0
1738225746333612442,0,0,0,0,0,0,0,0,0,-2.295,-2.559,7.008,1.883,-1.414,-0.0,-0.0834,-0.08386,0.02966,-1.293,-2.707,7.0,1.805,-0.8623,0.0,0.0
1738225746383601188,0,0,0,0,0,0,0,0,0,-2.156,-2.658,7.008,1.922,-1.398,-0.007812,-0.08655,-0.0735,0.03033,-1.11,-2.787,7.0,1.858,-0.74,0.0,0.0
1738225746433657407,0,0,0,0,0,0,0,0,0,-2.057,-2.725,7.01,2.04,-1.293,-0.02344,-0.0881,-0.05603,0.02899,-1.11,-2.787,7.0,1.858,-0.74,0.0,0.0
1738225746483618497,0,0,0,0,0,0,0,0,0,-1.991,-2.766,7.008,2.07,-1.258,-0.03516,-0.08374,-0.05054,0.03072,-0.922,-2.855,7.0,1.903,-0.6147,0.0,0.0
1738225746533594131,0,0,0,0,0,0,0,0,0,-1.991,-2.766,7.008,2.07,-1.258,-0.03516,-0.08374,-0.05054,0.03072,-0.922,-2.855,7.0,1.903,-0.6147,0.0,0.0
1738225746583629369,0,0,0,0,0,0,0,0,0,-1.804,-2.875,7.01,2.09,-1.234,-0.03906,-0.073,-0.04376,0.03275,-0.73,-2.91,7.0,1.939,-0.4866,0.0,0.0
1738225746633645534,0,0,0,0,0,0,0,0,0,-1.637,-2.969,7.004,2.172,-1.137,-0.0586,-0.06085,-0.0315,0.0327,-0.73,-2.91,7.0,1.939,-0.4866,0.0,0.0
1738225746683609247,0,0,0,0,0,0,0,0,0,-1.508,-3.031,7.004,2.203,-1.086,-0.05078,-0.0585,-0.03056,0.0323,-0.534,-2.951,7.0,1.968,-0.3562,0.0,0.0
1738225746733619689,0,0,0,0,0,0,0,0,0,-1.408,-3.078,6.996,2.238,-1.031,-0.0547,-0.05136,-0.02853,0.03017,-0.534,-2.951,7.0,1.968,-0.3562,0.0,0.0
1738225746783613681,0,0,0,0,0,0,0,0,0,-1.332,-3.111,6.996,2.27,-0.9844,-0.05078,-0.04666,-0.02681,0.02872,-0.3364,-2.98,7.0,1.987,-0.2244,0.0,0.0
1738225746833635568,0,0,0,0,0,0,0,0,0,-1.189,-3.168,7.0,2.297,-0.8906,-0.03516,-0.02553,-0.01796,0.02782,-0.3364,-2.98,7.0,1.987,-0.2244,0.0,0.0
1738225746883618593,0,0,0,0,0,0,0,0,0,-1.04,-3.223,6.99,2.332,-0.8125,-0.03516,-0.02165,-0.01166,0.0282,-0.1371,-2.996,7.0,1.998,-0.09143,0.0,0.0
1738225746933603286,0,0,0,0,0,0,0,0,0,-0.9375,-3.256,6.99,2.344,-0.7695,-0.02344,-0.01906,-0.00936,0.02963,-0.1371,-2.996,7.0,1.998,-0.09143,0.0,0.0
1738225746983596801,0,0,0,0,0,0,0,0,0,-0.8438,-3.283,6.984,2.363,-0.715,-0.01563,-0.01328,-0.006393,0.03008,0.0628,-3.0,7.0,2.0,0.0419,0.0,0.0
1738225747033634901,0,0,0,0,0,0,0,0,0,-0.725,-3.314,6.99,2.398,-0.6094,-0.003906,-0.00415,5.83e-05,0.02808,0.0628,-3.0,7.0,2.0,0.0419,0.0,0.0
1738225747083607435,0,0,0,0,0,0,0,0,0,-0.6216,-3.338,6.992,2.418,-0.5547,-0.003906,-0.004726,0.002508,0.02808,0.2625,-2.988,7.0,1.992,0.175,0.0,0.0
1738225747133585453,0,0,0,0,0,0,0,0,0,-0.4531,-3.373,6.996,2.434,-0.4766,-0.007812,-0.007755,0.0145,0.0246,0.2625,-2.988,7.0,1.992,0.175,0.0,0.0
1738225747183595180,0,0,0,0,0,0,0,0,0,-0.357,-3.389,7.0,2.438,-0.4297,-0.01563,-0.00523,0.02167,0.02435,0.461,-2.965,7.0,1.977,0.3074,0.0,0.0
1738225747233612298,0,0,0,0,0,0,0,0,0,-0.2158,-3.408,7.004,2.441,-0.3047,-0.02734,0.00545,0.03485,0.0255,0.461,-2.965,7.0,1.977,0.3074,0.0,0.0
1738225747283633947,0,0,0,0,0,0,0,0,0,-0.07825,-3.422,7.008,2.434,-0.207,-0.03906,0.00858,0.0508,0.0255,0.657,-2.928,7.0,1.951,0.4382,0.0,0.0
1738225747333640336,0,0,0,0,0,0,0,0,0,0.01834,-3.428,7.008,2.43,-0.1719,-0.03906,0.00945,0.057,0.02751,0.657,-2.928,7.0,1.951,0.4382,0.0,0.0
1738225747383603811,0,0,0,0,0,0,0,0,0,0.1254,-3.434,7.004,2.422,-0.1133,-0.04297,0.01355,0.06174,0.0274,0.851,-2.877,7.0,1.918,0.5674,0.0,0.0
1738225747433662891,0,0,0,0,0,0,0,0,0,0.2832,-3.434,7.008,2.398,0.003906,-0.04297,0.0304,0.0675,0.02484,0.851,-2.877,7.0,1.918,0.5674,0.0,0.0
1738225747483670949,0,0,0,0,0,0,0,0,0,0.3472,-3.434,7.008,2.387,0.0625,-0.04688,0.03717,0.0704,0.02525,1.041,-2.814,7.0,1.876,0.694,0.0,0.0
1738225747533664941,0,0,0,0,0,0,0,0,0,0.4995,-3.424,7.01,2.371,0.1523,-0.05078,0.04053,0.0778,0.02382,1.041,-2.814,7.0,1.876,0.694,0.0,0.0
1738225747583664417,0,0,0,0,0,0,0,0,0,0.5996,-3.416,7.01,2.36,0.207,-0.05078,0.0391,0.08295,0.0235,1.226,-2.738,7.0,1.825,0.8174,0.0,0.0
1738225747633666515,0,0,0,0,0,0,0,0,0,0.654,-3.41,7.01,2.348,0.25,-0.05078,0.03625,0.0905,0.02597,1.226,-2.738,7.0,1.825,0.8174,0.0,0.0
1738225747683650493,0,0,0,0,0,0,0,0,0,0.8354,-3.383,7.016,2.293,0.371,-0.0547,0.04446,0.10693,0.03123,1.405,-2.65,7.0,1.767,0.937,0.0,0.0
1738225747734046697,0,0,0,0,0,0,0,0,0,0.9824,-3.354,7.01,2.246,0.4922,-0.0586,0.0578,0.11755,0.03008,1.405,-2.65,7.0,1.767,0.937,0.0,0.0
1738225747783706188,0,0,0,0,0,0,0,0,0,1.066,-3.332,7.01,2.227,0.547,-0.0547,0.0615,0.12396,0.03099,1.579,-2.55,7.0,1.7,1.053,0.0,0.0
1738225747833647966,0,0,0,0,0,0,0,0,0,1.107,-3.32,7.01,2.176,0.617,-0.05078,0.06354,0.1277,0.0315,1.579,-2.55,7.0,1.7,1.053,0.0,0.0
1738225747883632421,0,0,0,0,0,0,0,0,0,1.267,-3.27,7.008,2.121,0.7383,-0.05078,0.05844,0.1322,0.02896,1.745,-2.44,7.0,1.627,1.164,0.0,0.0
1738225747933650732,0,0,0,0,0,0,0,0,0,1.401,-3.215,7.004,2.066,0.8516,-0.04297,0.05438,0.1327,0.02834,1.745,-2.44,7.0,1.627,1.164,0.0,0.0
1738225747983738422,0,0,0,0,0,0,0,0,0,1.481,-3.18,7.0,2.043,0.9023,-0.03906,0.04926,0.1332,0.02849,1.904,-2.318,7.0,1.546,1.27,0.0,0.0
1738225748033649921,0,0,0,0,0,0,0,0,0,1.539,-3.152,7.0,1.988,0.9766,-0.02734,0.04517,0.1327,0.02785,1.904,-2.318,7.0,1.546,1.27,0.0,0.0
1738225748083625793,0,0,0,0,0,0,0,0,0,1.671,-3.08,6.82,1.934,1.066,-0.01953,0.0382,0.1334,0.02776,2.055,-2.186,7.0,1.458,1.369,0.0,0.0
1738225748133617877,0,0,0,0,0,0,0,0,0,1.715,-3.055,6.816,1.91,1.105,-0.01172,0.03513,0.1334,0.02744,2.055,-2.186,7.0,1.458,1.369,0.0,0.0
1738225748183615446,0,0,0,0,0,0,0,0,0,1.875,-2.955,6.805,1.852,1.195,0.01953,0.0298,0.1318,0.02705,2.195,-2.045,7.0,1.363,1.464,0.0,0.0
1738225748233623027,0,0,0,0,0,0,0,0,0,1.915,-2.928,6.8,1.789,1.25,0.03125,0.02765,0.1293,0.02638,2.195,-2.045,7.0,1.363,1.464,0.0,0.0
1738225748283624887,0,0,0,0,0,0,0,0,0,2.037,-2.838,6.805,1.742,1.324,0.0586,0.02115,0.1301,0.02792,2.326,-1.894,7.0,1.263,1.551,0.0,0.0
1738225748333620548,0,0,0,0,0,0,0,0,0,2.072,-2.809,6.8,1.715,1.355,0.08984,0.01797,0.1311,0.02785,2.326,-1.894,7.0,1.263,1.551,0.0,0.0
1738225748383632659,0,0,0,0,0,0,0,0,0,2.225,-2.682,6.81,1.664,1.418,0.1406,0.01479,0.1343,0.02705,2.447,-1.734,7.0,1.156,1.632,0.0,0.0
1738225748433615684,0,0,0,0,0,0,0,0,0,2.307,-2.607,6.82,1.586,1.492,0.1641,0.012566,0.1381,0.02779,2.447,-1.734,7.0,1.156,1.632,0.0,0.0
1738225748483714580,0,0,0,0,0,0,0,0,0,2.35,-2.564,6.824,1.5625,1.516,0.1719,0.0151,0.1403,0.02847,2.559,-1.567,7.0,1.045,1.705,0.0,0.0
1738225748533709526,0,0,0,0,0,0,0,0,0,2.398,-2.516,6.83,1.539,1.543,0.1836,0.01671,0.1427,0.02824,2.559,-1.567,7.0,1.045,1.705,0.0,0.0
1738225748583741426,0,0,0,0,0,0,0,0,0,2.486,-2.424,6.832,1.508,1.578,0.1914,0.01793,0.1455,0.02762,2.656,-1.394,7.0,0.929,1.771,0.0,0.0
1738225748633689165,0,0,0,0,0,0,0,0,0,2.568,-2.334,6.84,1.457,1.633,0.1953,0.01799,0.1536,0.02856,2.656,-1.394,7.0,0.929,1.771,0.0,0.0
1738225748683689355,0,0,0,0,0,0,0,0,0,2.648,-2.238,6.855,1.371,1.691,0.1953,0.01967,0.1633,0.02917,2.744,-1.214,7.0,0.809,1.829,0.0,0.0
1738225748733697891,0,0,0,0,0,0,0,0,0,2.688,-2.188,6.863,1.344,1.719,0.1914,0.01913,0.1659,0.02829,2.744,-1.214,7.0,0.809,1.829,0.0,0.0
1738225748783722639,0,0,0,0,0,0,0,0,0,2.688,-2.188,6.863,1.344,1.719,0.1914,0.01913,0.1659,0.02829,2.818,-1.028,7.0,0.6855,1.879,0.0,0.0
1738225748833625555,0,0,0,0,0,0,0,0,0,2.875,-1.934,6.883,1.211,1.809,0.1836,0.01884,0.1698,0.02856,2.818,-1.028,7.0,0.6855,1.879,0.0,0.0
1738225748883611679,0,0,0,0,0,0,0,0,0,2.912,-1.876,6.9,1.152,1.855,0.1758,0.01816,0.1742,0.0283,2.88,-0.8384,7.0,0.5586,1.92,0.0,0.0
1738225748933607578,0,0,0,0,0,0,0,0,0,2.986,-1.745,6.906,1.082,1.906,0.1641,0.02054,0.1782,0.02818,2.88,-0.8384,7.0,0.5586,1.92,0.0,0.0
1738225748983585119,0,0,0,0,0,0,0,0,0,3.014,-1.695,6.91,1.055,1.934,0.1562,0.02211,0.1792,0.02773,2.93,-0.6445,7.0,0.4297,1.953,0.0,0.0
1738225749033555746,0,0,0,0,0,0,0,0,0,3.014,-1.695,6.91,1.055,1.934,0.1562,0.02211,0.1792,0.02773,2.93,-0.6445,7.0,0.4297,1.953,0.0,0.0
1738225749083600997,0,0,0,0,0,0,0,0,0,3.102,-1.5205,6.918,0.9844,1.965,0.1367,0.02167,0.1807,0.02672,2.967,-0.4478,7.0,0.2986,1.978,0.0,0.0
1738225749133608341,0,0,0,0,0,0,0,0,0,3.18,-1.348,6.934,0.828,2.094,0.1172,0.04092,0.1996,0.02766,2.967,-0.4478,7.0,0.2986,1.978,0.0,0.0
1738225749183608055,0,0,0,0,0,0,0,0,0,3.203,-1.29,6.938,0.797,2.117,0.1172,0.03873,0.2008,0.02759,2.99,-0.2493,7.0,0.1661,1.993,0.0,0.0
1738225749233595848,0,0,0,0,0,0,0,0,0,3.203,-1.29,6.938,0.797,2.117,0.1172,0.03873,0.2008,0.02759,2.99,-0.2493,7.0,0.1661,1.993,0.0,0.0
