time,x_sphinx,y_sphinx,z_sphinx,vx_sphinx,vy_sphinx,vz_sphinx,roll_sphinx,pitch_sphinx,yaw_sphinx,x_anafi,y_anafi,z_anafi,vx_anafi,vy_anafi,vz_anafi,roll_anafi,pitch_anafi,yaw_anafi,wp_x,wp_y,wp_z,wp_vx,wp_vy,wp_vz,wp_yaw
1738225578518621683,0,0,0,0,0,0,0,0,0,3.164,-0.377,7.01,0.0586,1.047,-0.03125,-0.06396,0.131,0.02861,3.0,-0.04956,7.0,0.01653,1.0,0.0,0.0
1738225578568626642,0,0,0,0,0,0,0,0,0,3.166,-0.307,7.01,0.03906,1.051,-0.03516,-0.05984,0.1365,0.02701,3.0,0.0,7.0,-0.0,1.0,0.0,0.0
1738225578618623256,0,0,0,0,0,0,0,0,0,3.168,-0.2769,7.01,0.03516,1.051,-0.03906,-0.0605,0.1376,0.02632,3.0,0.0,7.0,-0.0,1.0,0.0,0.0
1738225578668619871,0,0,0,0,0,0,0,0,0,3.17,-0.2112,7.016,0.01953,1.047,-0.04297,-0.06018,0.1377,0.02719,2.998,0.1,7.0,-0.03333,0.9995,0.0,0.0
1738225578718618631,0,0,0,0,0,0,0,0,0,3.17,-0.1418,7.016,0.003906,1.051,-0.0547,-0.05994,0.1364,0.0292,2.998,0.1,7.0,-0.03333,0.9995,0.0,0.0
1738225578768618583,0,0,0,0,0,0,0,0,0,3.17,-0.0963,7.02,0.0,1.051,-0.0586,-0.06116,0.136,0.02925,2.994,0.1998,7.0,-0.0666,0.9976,0.0,0.0
1738225578818605899,0,0,0,0,0,0,0,0,0,3.17,-0.0472,7.016,-0.007812,1.051,-0.0625,-0.06082,0.1376,0.02875,2.994,0.1998,7.0,-0.0666,0.9976,0.0,0.0
1738225578868608474,0,0,0,0,0,0,0,0,0,3.168,0.00907,7.02,-0.01172,1.051,-0.0664,-0.06076,0.1388,0.0292,2.984,0.2996,7.0,-0.09985,0.995,0.0,0.0
1738225578918609857,0,0,0,0,0,0,0,0,0,3.168,0.0483,7.02,-0.01953,1.051,-0.0664,-0.0611,0.1387,0.02954,2.984,0.2996,7.0,-0.09985,0.995,0.0,0.0
1738225578968630313,0,0,0,0,0,0,0,0,0,3.166,0.1098,7.02,-0.03516,1.043,-0.08594,-0.0653,0.1403,0.02847,2.973,0.399,7.0,-0.1329,0.991,0.0,0.0
1738225579018625974,0,0,0,0,0,0,0,0,0,3.164,0.1455,7.016,-0.04688,1.043,-0.09375,-0.068,0.142,0.02884,2.973,0.399,7.0,-0.1329,0.991,0.0,0.0
1738225579068624019,0,0,0,0,0,0,0,0,0,3.162,0.1833,7.02,-0.04688,1.031,-0.09375,-0.0683,0.1442,0.02875,2.959,0.4978,7.0,-0.1659,0.9863,0.0,0.0
1738225579118610858,0,0,0,0,0,0,0,0,0,3.162,0.1833,7.02,-0.04688,1.031,-0.09375,-0.0683,0.1442,0.02875,2.959,0.4978,7.0,-0.1659,0.9863,0.0,0.0
1738225579168618679,0,0,0,0,0,0,0,0,0,3.156,0.3074,7.016,-0.0547,1.031,-0.09766,-0.0672,0.1451,0.02904,2.94,0.596,7.0,-0.1986,0.98,0.0,0.0
1738225579218618869,0,0,0,0,0,0,0,0,0,3.152,0.357,7.008,-0.09375,1.031,-0.09766,-0.0661,0.1473,0.0283,2.94,0.596,7.0,-0.1986,0.98,0.0,0.0
1738225579268620491,0,0,0,0,0,0,0,0,0,3.15,0.3848,7.004,-0.09766,1.023,-0.08984,-0.068,0.1476,0.02902,2.918,0.694,7.0,-0.2312,0.973,0.0,0.0
1738225579318607807,0,0,0,0,0,0,0,0,0,3.15,0.3848,7.004,-0.09766,1.023,-0.08984,-0.068,0.1476,0.02902,2.918,0.694,7.0,-0.2312,0.973,0.0,0.0
1738225579368621587,0,0,0,0,0,0,0,0,0,3.135,0.526,7.0,-0.1328,1.02,-0.08203,-0.0673,0.1488,0.02965,2.895,0.7905,7.0,-0.2634,0.965,0.0,0.0
1738225579418612480,0,0,0,0,0,0,0,0,0,3.129,0.559,6.996,-0.1562,1.012,-0.0781,-0.0715,0.153,0.02809,2.895,0.7905,7.0,-0.2634,0.965,0.0,0.0
1738225579468621253,0,0,0,0,0,0,0,0,0,3.117,0.6206,6.992,-0.1836,1.004,-0.0664,-0.0718,0.1555,0.0297,2.865,0.8867,7.0,-0.2954,0.9556,0.0,0.0
1738225579518617153,0,0,0,0,0,0,0,0,0,3.111,0.65,6.992,-0.1992,0.9844,-0.05078,-0.0701,0.1564,0.03053,2.865,0.8867,7.0,-0.2954,0.9556,0.0,0.0
1738225579568624019,0,0,0,0,0,0,0,0,0,3.102,0.6987,6.992,-0.2109,0.9844,-0.04688,-0.06836,0.1571,0.03064,2.834,0.9814,7.0,-0.3271,0.945,0.0,0.0
1738225579618607044,0,0,0,0,0,0,0,0,0,3.102,0.6987,6.992,-0.2109,0.9844,-0.04688,-0.06836,0.1571,0.03064,2.834,0.9814,7.0,-0.3271,0.945,0.0,0.0
1738225579668621063,0,0,0,0,0,0,0,0,0,3.072,0.8237,6.996,-0.2617,0.9766,-0.03516,-0.0656,0.1573,0.02998,2.8,1.075,7.0,-0.3584,0.9336,0.0,0.0
1738225579718613386,0,0,0,0,0,0,0,0,0,3.066,0.8457,6.996,-0.2773,0.9766,-0.03516,-0.0644,0.1566,0.03047,2.8,1.075,7.0,-0.3584,0.9336,0.0,0.0
1738225579768622159,0,0,0,0,0,0,0,0,0,3.045,0.9155,6.996,-0.2969,0.9805,-0.03906,-0.06067,0.1559,0.02931,2.764,1.168,7.0,-0.3894,0.921,0.0,0.0
1738225579818619966,0,0,0,0,0,0,0,0,0,3.027,0.9707,6.996,-0.3398,0.9688,-0.04297,-0.05835,0.1569,0.02763,2.764,1.168,7.0,-0.3894,0.921,0.0,0.0
1738225579868620634,0,0,0,0,0,0,0,0,0,3.014,1.008,6.996,-0.3555,0.9727,-0.04297,-0.05823,0.1584,0.02724,2.723,1.26,7.0,-0.42,0.9077,0.0,0.0
1738225579918617963,0,0,0,0,0,0,0,0,0,2.99,1.069,6.996,-0.379,0.9766,-0.04688,-0.0575,0.1603,0.02834,2.723,1.26,7.0,-0.42,0.9077,0.0,0.0
1738225579968613386,0,0,0,0,0,0,0,0,0,2.99,1.069,6.996,-0.379,0.9766,-0.04688,-0.0575,0.1603,0.02834,2.68,1.35,7.0,-0.45,0.893,0.0,0.0
1738225580018599748,0,0,0,0,0,0,0,0,0,2.99,1.069,6.996,-0.379,0.9766,-0.04688,-0.0575,0.1603,0.02834,2.68,1.35,7.0,-0.45,0.893,0.0,0.0
1738225580068613052,0,0,0,0,0,0,0,0,0,2.932,1.212,6.996,-0.3945,0.9805,-0.04688,-0.05997,0.1602,0.02815,2.633,1.438,7.0,-0.4795,0.8774,0.0,0.0
1738225580118610143,0,0,0,0,0,0,0,0,0,2.914,1.254,6.996,-0.4414,0.9727,-0.04297,-0.0685,0.1606,0.02708,2.633,1.438,7.0,-0.4795,0.8774,0.0,0.0
1738225580168621778,0,0,0,0,0,0,0,0,0,2.887,1.31,7.0,-0.4922,0.9727,-0.0547,-0.0702,0.1659,0.028,2.584,1.525,7.0,-0.5083,0.8613,0.0,0.0
1738225580218633651,0,0,0,0,0,0,0,0,0,2.86,1.359,7.0,-0.5312,0.9766,-0.0625,-0.0755,0.1619,0.02647,2.584,1.525,7.0,-0.5083,0.8613,0.0,0.0
1738225580268618345,0,0,0,0,0,0,0,0,0,2.86,1.359,7.0,-0.5312,0.9766,-0.0625,-0.0755,0.1619,0.02647,2.531,1.61,7.0,-0.5366,0.8438,0.0,0.0
1738225580318594455,0,0,0,0,0,0,0,0,0,2.86,1.359,7.0,-0.5312,0.9766,-0.0625,-0.0755,0.1619,0.02647,2.531,1.61,7.0,-0.5366,0.8438,0.0,0.0
1738225580368612289,0,0,0,0,0,0,0,0,0,2.78,1.503,7.0,-0.543,0.9727,-0.0586,-0.07715,0.16,0.02605,2.477,1.694,7.0,-0.5645,0.825,0.0,0.0
1738225580418613672,0,0,0,0,0,0,0,0,0,2.754,1.543,6.996,-0.5938,0.9414,-0.0547,-0.0859,0.1494,0.02579,2.477,1.694,7.0,-0.5645,0.825,0.0,0.0
1738225580468622684,0,0,0,0,0,0,0,0,0,2.723,1.592,6.992,-0.6133,0.9297,-0.04688,-0.0905,0.1438,0.02692,2.418,1.775,7.0,-0.592,0.806,0.0,0.0
1738225580518617391,0,0,0,0,0,0,0,0,0,2.688,1.644,6.99,-0.617,0.9023,-0.03125,-0.0936,0.1372,0.02725,2.418,1.775,7.0,-0.592,0.806,0.0,0.0
1738225580568617820,0,0,0,0,0,0,0,0,0,2.688,1.644,6.99,-0.617,0.9023,-0.03125,-0.0936,0.1372,0.02725,2.357,1.855,7.0,-0.618,0.7856,0.0,0.0
1738225580618605852,0,0,0,0,0,0,0,0,0,2.688,1.644,6.99,-0.617,0.9023,-0.03125,-0.0936,0.1372,0.02725,2.357,1.855,7.0,-0.618,0.7856,0.0,0.0
1738225580668617725,0,0,0,0,0,0,0,0,0,2.688,1.644,6.99,-0.617,0.9023,-0.03125,-0.0936,0.1372,0.02725,2.295,1.933,7.0,-0.644,0.7646,0.0,0.0
1738225580718617916,0,0,0,0,0,0,0,0,0,2.56,1.824,6.992,-0.633,0.8477,-0.01563,-0.0898,0.1265,0.02774,2.295,1.933,7.0,-0.644,0.7646,0.0,0.0
1738225580768620967,0,0,0,0,0,0,0,0,0,2.531,1.861,6.996,-0.633,0.832,-0.03125,-0.0881,0.129,0.02713,2.229,2.008,7.0,-0.6694,0.743,0.0,0.0
1738225580818620443,0,0,0,0,0,0,0,0,0,2.5,1.902,6.996,-0.6445,0.8086,-0.03906,-0.08777,0.1339,0.02705,2.229,2.008,7.0,-0.6694,0.743,0.0,0.0
1738225580868627309,0,0,0,0,0,0,0,0,0,2.5,1.902,6.996,-0.6445,0.8086,-0.03906,-0.08777,0.1339,0.02705,2.16,2.082,7.0,-0.694,0.72,0.0,0.0
1738225580918602228,0,0,0,0,0,0,0,0,0,2.5,1.902,6.996,-0.6445,0.8086,-0.03906,-0.08777,0.1339,0.02705,2.16,2.082,7.0,-0.694,0.72,0.0,0.0
1738225580968612432,0,0,0,0,0,0,0,0,0,2.5,1.902,6.996,-0.6445,0.8086,-0.03906,-0.08777,0.1339,0.02705,2.09,2.152,7.0,-0.7173,0.697,0.0,0.0
1738225581018611669,0,0,0,0,0,0,0,0,0,2.377,2.053,6.996,-0.6484,0.793,-0.03906,-0.0882,0.1356,0.0283,2.09,2.152,7.0,-0.7173,0.697,0.0,0.0
1738225581068615436,0,0,0,0,0,0,0,0,0,2.357,2.078,6.992,-0.6523,0.754,-0.03906,-0.08655,0.138,0.02869,2.018,2.22,7.0,-0.74,0.6724,0.0,0.0
1738225581118613243,0,0,0,0,0,0,0,0,0,2.305,2.137,6.996,-0.6836,0.742,-0.03906,-0.07623,0.1556,0.02763,2.018,2.22,7.0,-0.74,0.6724,0.0,0.0
1738225581168614387,0,0,0,0,0,0,0,0,0,2.305,2.137,6.996,-0.6836,0.742,-0.03906,-0.07623,0.1556,0.02763,1.942,2.287,7.0,-0.762,0.6475,0.0,0.0
1738225581218606948,0,0,0,0,0,0,0,0,0,2.232,2.21,7.0,-0.715,0.7344,-0.03906,-0.0738,0.1584,0.0287,1.942,2.287,7.0,-0.762,0.6475,0.0,0.0
1738225581268610715,0,0,0,0,0,0,0,0,0,2.22,2.225,6.996,-0.7383,0.7266,-0.04688,-0.07367,0.1576,0.02924,1.865,2.35,7.0,-0.783,0.6216,0.0,0.0
1738225581318608999,0,0,0,0,0,0,0,0,0,2.164,2.277,6.996,-0.7617,0.711,-0.05078,-0.0814,0.1556,0.02846,1.865,2.35,7.0,-0.783,0.6216,0.0,0.0
1738225581368606090,0,0,0,0,0,0,0,0,0,2.152,2.29,6.992,-0.7734,0.707,-0.04688,-0.08325,0.1548,0.02858,1.785,2.41,7.0,-0.8037,0.595,0.0,0.0
1738225581418588399,0,0,0,0,0,0,0,0,0,2.152,2.29,6.992,-0.7734,0.707,-0.04688,-0.08325,0.1548,0.02858,1.785,2.41,7.0,-0.8037,0.595,0.0,0.0
1738225581468609571,0,0,0,0,0,0,0,0,0,2.043,2.385,6.984,-0.793,0.6836,-0.03516,-0.09015,0.151,0.02945,1.704,2.469,7.0,-0.8228,0.568,0.0,0.0
1738225581518619298,0,0,0,0,0,0,0,0,0,1.997,2.42,6.977,-0.832,0.6367,-0.007812,-0.08795,0.1504,0.02878,1.704,2.469,7.0,-0.8228,0.568,0.0,0.0
1738225581568608999,0,0,0,0,0,0,0,0,0,1.997,2.42,6.977,-0.832,0.6367,-0.007812,-0.08795,0.1504,0.02878,1.621,2.523,7.0,-0.8413,0.5405,0.0,0.0
1738225581618595600,0,0,0,0,0,0,0,0,0,1.997,2.42,6.977,-0.832,0.6367,-0.007812,-0.08795,0.1504,0.02878,1.621,2.523,7.0,-0.8413,0.5405,0.0,0.0
1738225581668610572,0,0,0,0,0,0,0,0,0,1.877,2.508,6.977,-0.8438,0.625,-0.0,-0.08435,0.1506,0.02942,1.536,2.576,7.0,-0.859,0.5117,0.0,0.0
1738225581718607187,0,0,0,0,0,0,0,0,0,1.827,2.543,6.97,-0.879,0.582,0.03125,-0.0736,0.1497,0.02951,1.536,2.576,7.0,-0.859,0.5117,0.0,0.0
1738225581768616676,0,0,0,0,0,0,0,0,0,1.782,2.572,6.973,-0.8906,0.574,0.03125,-0.07336,0.1506,0.02913,1.449,2.627,7.0,-0.8755,0.4832,0.0,0.0
1738225581818607568,0,0,0,0,0,0,0,0,0,1.752,2.59,6.973,-0.8984,0.574,0.02734,-0.0724,0.153,0.02864,1.449,2.627,7.0,-0.8755,0.4832,0.0,0.0
1738225581868605136,0,0,0,0,0,0,0,0,0,1.73,2.604,6.977,-0.8984,0.574,0.02734,-0.07153,0.1549,0.02826,1.36,2.674,7.0,-0.891,0.4536,0.0,0.0
1738225581918596982,0,0,0,0,0,0,0,0,0,1.73,2.604,6.977,-0.8984,0.574,0.02734,-0.07153,0.1549,0.02826,1.36,2.674,7.0,-0.891,0.4536,0.0,0.0
1738225581968589782,0,0,0,0,0,0,0,0,0,1.73,2.604,6.977,-0.8984,0.574,0.02734,-0.07153,0.1549,0.02826,1.2705,2.717,7.0,-0.906,0.4236,0.0,0.0
1738225582018588304,0,0,0,0,0,0,0,0,0,1.551,2.715,6.98,-0.9453,0.551,0.02344,-0.0774,0.1542,0.02895,1.2705,2.717,7.0,-0.906,0.4236,0.0,0.0
1738225582068591833,0,0,0,0,0,0,0,0,0,1.511,2.738,6.984,-0.9766,0.5273,0.02734,-0.0835,0.1488,0.0282,1.18,2.758,7.0,-0.9194,0.3933,0.0,0.0
1738225582118586778,0,0,0,0,0,0,0,0,0,1.482,2.752,6.984,-0.9805,0.5234,0.02734,-0.0852,0.1471,0.02864,1.18,2.758,7.0,-0.9194,0.3933,0.0,0.0
1738225582168612957,0,0,0,0,0,0,0,0,0,1.406,2.791,6.984,-0.996,0.5,0.007812,-0.09106,0.1461,0.02875,1.087,2.797,7.0,-0.932,0.3623,0.0,0.0
1738225582218593835,0,0,0,0,0,0,0,0,0,1.363,2.812,6.984,-1.0,0.4883,0.003906,-0.09485,0.1465,0.02943,1.087,2.797,7.0,-0.932,0.3623,0.0,0.0
1738225582268610239,0,0,0,0,0,0,0,0,0,1.314,2.834,6.97,-1.008,0.457,0.01172,-0.09985,0.143,0.02998,0.993,2.83,7.0,-0.9434,0.331,0.0,0.0
1738225582318671464,0,0,0,0,0,0,0,0,0,1.285,2.848,6.965,-1.012,0.4453,0.01953,-0.1042,0.1398,0.02995,0.993,2.83,7.0,-0.9434,0.331,0.0,0.0
1738225582368762969,0,0,0,0,0,0,0,0,0,1.218,2.875,6.965,-1.016,0.4219,0.03906,-0.10425,0.138,0.02956,0.8984,2.863,7.0,-0.954,0.2996,0.0,0.0
1738225582418678760,0,0,0,0,0,0,0,0,0,1.218,2.875,6.965,-1.016,0.4219,0.03906,-0.10425,0.138,0.02956,0.8984,2.863,7.0,-0.954,0.2996,0.0,0.0
1738225582468582630,0,0,0,0,0,0,0,0,0,1.12,2.916,6.97,-1.02,0.4102,0.04688,-0.1012,0.1359,0.02925,0.8027,2.89,7.0,-0.9634,0.2676,0.0,0.0
1738225582518566846,0,0,0,0,0,0,0,0,0,1.048,2.941,6.973,-1.023,0.3633,0.04297,-0.0936,0.1361,0.02754,0.8027,2.89,7.0,-0.9634,0.2676,0.0,0.0
1738225582568565130,0,0,0,0,0,0,0,0,0,1.011,2.955,6.973,-1.031,0.3516,0.04688,-0.09595,0.1355,0.02742,0.7056,2.916,7.0,-0.972,0.2352,0.0,0.0
1738225582618561267,0,0,0,0,0,0,0,0,0,0.976,2.965,6.973,-1.035,0.336,0.05078,-0.0971,0.1354,0.0271,0.7056,2.916,7.0,-0.972,0.2352,0.0,0.0
1738225582668746232,0,0,0,0,0,0,0,0,0,0.897,2.988,6.97,-1.051,0.289,0.0664,-0.09814,0.1328,0.02814,0.608,2.938,7.0,-0.979,0.2028,0.0,0.0
1738225582718563318,0,0,0,0,0,0,0,0,0,0.8677,2.996,6.973,-1.051,0.2773,0.0703,-0.0989,0.1304,0.02882,0.608,2.938,7.0,-0.979,0.2028,0.0,0.0
1738225582768575906,0,0,0,0,0,0,0,0,0,0.7935,3.014,6.973,-1.055,0.2617,0.0703,-0.09686,0.1246,0.02678,0.51,2.957,7.0,-0.9854,0.1699,0.0,0.0
1738225582818562984,0,0,0,0,0,0,0,0,0,0.7466,3.025,6.973,-1.055,0.254,0.0703,-0.09595,0.1235,0.02725,0.51,2.957,7.0,-0.9854,0.1699,0.0,0.0
1738225582868575334,0,0,0,0,0,0,0,0,0,0.7217,3.031,6.97,-1.043,0.2344,0.0742,-0.09644,0.1217,0.02779,0.4111,2.973,7.0,-0.9907,0.1371,0.0,0.0
1738225582918591022,0,0,0,0,0,0,0,0,0,0.7217,3.031,6.97,-1.043,0.2344,0.0742,-0.09644,0.1217,0.02779,0.4111,2.973,7.0,-0.9907,0.1371,0.0,0.0
1738225582968612909,0,0,0,0,0,0,0,0,0,0.5913,3.059,6.98,-1.039,0.2148,0.08203,-0.0915,0.11707,0.0277,0.3118,2.984,7.0,-0.9946,0.10394,0.0,0.0
1738225583018604278,0,0,0,0,0,0,0,0,0,0.552,3.066,6.984,-1.031,0.1992,0.0703,-0.08875,0.1162,0.02812,0.3118,2.984,7.0,-0.9946,0.10394,0.0,0.0
1738225583068608760,0,0,0,0,0,0,0,0,0,0.4812,3.08,6.996,-1.016,0.1875,0.0625,-0.09296,0.11127,0.0291,0.2122,2.992,7.0,-0.9976,0.07074,0.0,0.0
1738225583118608713,0,0,0,0,0,0,0,0,0,0.4578,3.084,7.004,-1.008,0.1797,0.0547,-0.0927,0.1104,0.02853,0.2122,2.992,7.0,-0.9976,0.07074,0.0,0.0
1738225583168612003,0,0,0,0,0,0,0,0,0,0.4219,3.09,7.008,-1.008,0.1719,0.04688,-0.09515,0.10986,0.0288,0.11237,2.998,7.0,-0.9995,0.03745,0.0,0.0
1738225583218597173,0,0,0,0,0,0,0,0,0,0.4219,3.09,7.008,-1.008,0.1719,0.04688,-0.09515,0.10986,0.0288,0.11237,2.998,7.0,-0.9995,0.03745,0.0,0.0
1738225583268612384,0,0,0,0,0,0,0,0,0,0.4219,3.09,7.008,-1.008,0.1719,0.04688,-0.09515,0.10986,0.0288,0.01239,3.0,7.0,-1.0,0.00413,0.0,0.0
1738225583318615913,0,0,0,0,0,0,0,0,0,0.2391,3.12,7.008,-0.9766,0.08984,-0.007812,-0.10394,0.10876,0.02922,0.01239,3.0,7.0,-1.0,0.00413,0.0,0.0
1738225583368615865,0,0,0,0,0,0,0,0,0,0.186,3.123,7.01,-0.9727,0.0664,-0.01172,-0.10126,0.1096,0.02774,-0.0876,2.998,7.0,-0.9995,-0.0292,0.0,0.0
1738225583418606281,0,0,0,0,0,0,0,0,0,0.1562,3.123,7.016,-0.965,0.05078,-0.01172,-0.1014,0.11084,0.02902,-0.0876,2.998,7.0,-0.9995,-0.0292,0.0,0.0
1738225583468601226,0,0,0,0,0,0,0,0,0,0.097,3.125,7.016,-0.961,0.02734,-0.02344,-0.10187,0.1152,0.02803,-0.1875,2.994,7.0,-0.998,-0.0625,0.0,0.0
1738225583518610715,0,0,0,0,0,0,0,0,0,0.0617,3.127,7.004,-0.9688,0.007812,-0.03125,-0.1057,0.11694,0.02748,-0.1875,2.994,7.0,-0.998,-0.0625,0.0,0.0
1738225583568616867,0,0,0,0,0,0,0,0,0,0.001809,3.127,6.996,-0.9688,0.0,-0.03516,-0.1074,0.1207,0.02657,-0.287,2.986,7.0,-0.9956,-0.0957,0.0,0.0
1738225583618597269,0,0,0,0,0,0,0,0,0,0.001809,3.127,6.996,-0.9688,0.0,-0.03516,-0.1074,0.1207,0.02657,-0.287,2.986,7.0,-0.9956,-0.0957,0.0,0.0
1738225583668615579,0,0,0,0,0,0,0,0,0,0.001809,3.127,6.996,-0.9688,0.0,-0.03516,-0.1074,0.1207,0.02657,-0.3865,2.975,7.0,-0.9917,-0.1288,0.0,0.0
1738225583718618869,0,0,0,0,0,0,0,0,0,-0.1576,3.123,6.56,-0.992,-0.04688,0.03125,-0.1032,0.1328,0.02585,-0.3865,2.975,7.0,-0.9917,-0.1288,0.0,0.0
1738225583768622875,0,0,0,0,0,0,0,0,0,-0.2007,3.121,6.562,-0.9883,-0.0625,0.03906,-0.09344,0.12445,0.02797,-0.4854,2.96,7.0,-0.987,-0.1619,0.0,0.0
1738225583818601131,0,0,0,0,0,0,0,0,0,-0.2598,3.117,6.56,-0.9883,-0.0781,0.02734,-0.08954,0.1287,0.0295,-0.4854,2.96,7.0,-0.987,-0.1619,0.0,0.0
1738225583868618726,0,0,0,0,0,0,0,0,0,-0.2598,3.117,6.56,-0.9883,-0.0781,0.02734,-0.08954,0.1287,0.0295,-0.584,2.943,7.0,-0.981,-0.1946,0.0,0.0
1738225583918616771,0,0,0,0,0,0,0,0,0,-0.2598,3.117,6.56,-0.9883,-0.0781,0.02734,-0.08954,0.1287,0.0295,-0.584,2.943,7.0,-0.981,-0.1946,0.0,0.0
1738225583968619823,0,0,0,0,0,0,0,0,0,-0.3723,3.107,6.562,-0.9883,-0.08203,0.03125,-0.09,0.13,0.02892,-0.6816,2.922,7.0,-0.9736,-0.2272,0.0,0.0
1738225584018609523,0,0,0,0,0,0,0,0,0,-0.4504,3.1,6.543,-0.9883,-0.10156,0.08203,-0.0833,0.127,0.03082,-0.6816,2.922,7.0,-0.9736,-0.2272,0.0,0.0
1738225584068597555,0,0,0,0,0,0,0,0,0,-0.4636,3.098,6.543,-0.9883,-0.1133,0.08984,-0.08575,0.1307,0.03014,-0.779,2.896,7.0,-0.966,-0.2595,0.0,0.0
1738225584118589162,0,0,0,0,0,0,0,0,0,-0.557,3.088,6.543,-1.0,-0.1289,0.1836,-0.0912,0.1401,0.02864,-0.779,2.896,7.0,-0.966,-0.2595,0.0,0.0
1738225584168581008,0,0,0,0,0,0,0,0,0,-0.596,3.082,6.56,-1.012,-0.1367,0.2461,-0.0926,0.1362,0.02663,-0.8745,2.87,7.0,-0.9565,-0.2915,0.0,0.0
1738225584218585252,0,0,0,0,0,0,0,0,0,-0.6367,3.076,6.562,-1.016,-0.1406,0.254,-0.0955,0.137,0.02591,-0.8745,2.87,7.0,-0.9565,-0.2915,0.0,0.0
1738225584268603324,0,0,0,0,0,0,0,0,0,-0.712,3.062,6.574,-1.02,-0.1836,0.2773,-0.1089,0.1439,0.02672,-0.9697,2.84,7.0,-0.9463,-0.3232,0.0,0.0
1738225584318591833,0,0,0,0,0,0,0,0,0,-0.7544,3.055,6.59,-1.039,-0.207,0.3398,-0.12195,0.1475,0.02568,-0.9697,2.84,7.0,-0.9463,-0.3232,0.0,0.0
1738225584368568658,0,0,0,0,0,0,0,0,0,-0.7544,3.055,6.59,-1.039,-0.207,0.3398,-0.12195,0.1475,0.02568,-1.063,2.805,7.0,-0.935,-0.3547,0.0,0.0
1738225584418570756,0,0,0,0,0,0,0,0,0,-0.85,3.035,6.6,-1.051,-0.2227,0.3906,-0.12305,0.1465,0.02554,-1.063,2.805,7.0,-0.935,-0.3547,0.0,0.0
1738225584468588829,0,0,0,0,0,0,0,0,0,-0.897,3.023,6.613,-1.055,-0.2344,0.3906,-0.12415,0.139,0.02666,-1.157,2.768,7.0,-0.923,-0.3855,0.0,0.0
1738225584518589019,0,0,0,0,0,0,0,0,0,-0.962,3.008,6.63,-1.039,-0.2578,0.3594,-0.135,0.1376,0.02773,-1.157,2.768,7.0,-0.923,-0.3855,0.0,0.0
1738225584568600416,0,0,0,0,0,0,0,0,0,-1.015,2.994,6.65,-1.035,-0.2852,0.3867,-0.1376,0.1348,0.0297,-1.248,2.729,7.0,-0.909,-0.4163,0.0,0.0
1738225584618593931,0,0,0,0,0,0,0,0,0,-1.047,2.984,6.66,-1.035,-0.293,0.4062,-0.1346,0.1304,0.0292,-1.248,2.729,7.0,-0.909,-0.4163,0.0,0.0
1738225584668607473,0,0,0,0,0,0,0,0,0,-1.099,2.969,6.664,-1.035,-0.3086,0.4102,-0.1342,0.1273,0.0287,-1.339,2.686,7.0,-0.895,-0.4463,0.0,0.0
1738225584718573808,0,0,0,0,0,0,0,0,0,-1.099,2.969,6.664,-1.035,-0.3086,0.4102,-0.1342,0.1273,0.0287,-1.339,2.686,7.0,-0.895,-0.4463,0.0,0.0
1738225584768623113,0,0,0,0,0,0,0,0,0,-1.221,2.93,6.72,-1.012,-0.3672,0.3828,-0.1462,0.1248,0.02985,-1.428,2.639,7.0,-0.8794,-0.4758,0.0,0.0
1738225584818594932,0,0,0,0,0,0,0,0,0,-1.252,2.918,6.73,-1.004,-0.379,0.371,-0.1522,0.1243,0.02977,-1.428,2.639,7.0,-0.8794,-0.4758,0.0,0.0
1738225584868619441,0,0,0,0,0,0,0,0,0,-1.28,2.906,6.74,-0.9844,-0.4102,0.3633,-0.155,0.1235,0.02979,-1.515,2.59,7.0,-0.8633,-0.505,0.0,0.0
1738225584918585062,0,0,0,0,0,0,0,0,0,-1.28,2.906,6.74,-0.9844,-0.4102,0.3633,-0.155,0.1235,0.02979,-1.515,2.59,7.0,-0.8633,-0.505,0.0,0.0
1738225584968623876,0,0,0,0,0,0,0,0,0,-1.28,2.906,6.74,-0.9844,-0.4102,0.3633,-0.155,0.1235,0.02979,-1.6,2.537,7.0,-0.8457,-0.533,0.0,0.0
1738225585018589973,0,0,0,0,0,0,0,0,0,-1.473,2.818,6.777,-0.953,-0.4883,0.3125,-0.1602,0.1187,0.02887,-1.6,2.537,7.0,-0.8457,-0.533,0.0,0.0
1738225585068607330,0,0,0,0,0,0,0,0,0,-1.493,2.807,6.79,-0.9375,-0.535,0.2969,-0.1608,0.12006,0.02946,-1.684,2.482,7.0,-0.8276,-0.561,0.0,0.0
1738225585118584156,0,0,0,0,0,0,0,0,0,-1.564,2.764,6.812,-0.922,-0.59,0.2773,-0.1561,0.1175,0.02809,-1.684,2.482,7.0,-0.8276,-0.561,0.0,0.0
1738225585168607234,0,0,0,0,0,0,0,0,0,-1.564,2.764,6.812,-0.922,-0.59,0.2773,-0.1561,0.1175,0.02809,-1.766,2.426,7.0,-0.8086,-0.5884,0.0,0.0
1738225585218579053,0,0,0,0,0,0,0,0,0,-1.644,2.709,6.832,-0.91,-0.625,0.2734,-0.154,0.1171,0.02885,-1.766,2.426,7.0,-0.8086,-0.5884,0.0,0.0
1738225585268616199,0,0,0,0,0,0,0,0,0,-1.698,2.668,6.848,-0.879,-0.668,0.2266,-0.1445,0.11774,0.028,-1.846,2.365,7.0,-0.7886,-0.615,0.0,0.0
1738225585318596363,0,0,0,0,0,0,0,0,0,-1.724,2.648,6.848,-0.875,-0.6797,0.2148,-0.1449,0.1209,0.0269,-1.846,2.365,7.0,-0.7886,-0.615,0.0,0.0
1738225585368606567,0,0,0,0,0,0,0,0,0,-1.747,2.63,6.855,-0.871,-0.6875,0.207,-0.1448,0.1232,0.02724,-1.923,2.303,7.0,-0.7676,-0.641,0.0,0.0
1738225585418597936,0,0,0,0,0,0,0,0,0,-1.827,2.564,6.863,-0.8633,-0.715,0.1953,-0.139,0.1197,0.02745,-1.923,2.303,7.0,-0.7676,-0.641,0.0,0.0
1738225585468585014,0,0,0,0,0,0,0,0,0,-1.87,2.527,6.875,-0.8477,-0.7305,0.1719,-0.1343,0.1149,0.0283,-1.999,2.236,7.0,-0.7456,-0.6665,0.0,0.0
1738225585518595933,0,0,0,0,0,0,0,0,0,-1.894,2.508,6.87,-0.836,-0.75,0.1602,-0.1302,0.1122,0.02943,-1.999,2.236,7.0,-0.7456,-0.6665,0.0,0.0
1738225585568624973,0,0,0,0,0,0,0,0,0,-1.928,2.477,6.88,-0.824,-0.75,0.1484,-0.1284,0.1096,0.02933,-2.072,2.17,7.0,-0.723,-0.691,0.0,0.0
1738225585618607759,0,0,0,0,0,0,0,0,0,-1.989,2.418,6.887,-0.8086,-0.7617,0.1367,-0.12134,0.10693,0.02803,-2.072,2.17,7.0,-0.723,-0.691,0.0,0.0
1738225585668612718,0,0,0,0,0,0,0,0,0,-2.031,2.377,6.895,-0.7812,-0.785,0.1289,-0.11743,0.1053,0.02797,-2.143,2.1,7.0,-0.6997,-0.7144,0.0,0.0
1738225585718593597,0,0,0,0,0,0,0,0,0,-2.059,2.35,6.895,-0.7773,-0.789,0.1289,-0.1177,0.10406,0.02852,-2.143,2.1,7.0,-0.6997,-0.7144,0.0,0.0
1738225585768608570,0,0,0,0,0,0,0,0,0,-2.08,2.328,6.895,-0.7656,-0.797,0.125,-0.11676,0.1028,0.02925,-2.213,2.027,7.0,-0.6753,-0.7373,0.0,0.0
1738225585818611145,0,0,0,0,0,0,0,0,0,-2.143,2.26,6.9,-0.746,-0.801,0.1133,-0.1186,0.103,0.02939,-2.213,2.027,7.0,-0.6753,-0.7373,0.0,0.0
1738225585868589162,0,0,0,0,0,0,0,0,0,-2.184,2.213,6.9,-0.7227,-0.8438,0.08594,-0.12177,0.10474,0.02766,-2.28,1.951,7.0,-0.6504,-0.7593,0.0,0.0
1738225585918601989,0,0,0,0,0,0,0,0,0,-2.207,2.188,6.902,-0.715,-0.8477,0.08203,-0.121,0.1061,0.02774,-2.28,1.951,7.0,-0.6504,-0.7593,0.0,0.0
1738225585968602180,0,0,0,0,0,0,0,0,0,-2.227,2.162,6.902,-0.707,-0.8594,0.08203,-0.1201,0.1063,0.02814,-2.342,1.875,7.0,-0.625,-0.781,0.0,0.0
1738225586018607378,0,0,0,0,0,0,0,0,0,-2.283,2.092,6.902,-0.6953,-0.867,0.0781,-0.11694,0.10345,0.02786,-2.342,1.875,7.0,-0.625,-0.781,0.0,0.0
1738225586068593263,0,0,0,0,0,0,0,0,0,-2.299,2.072,6.906,-0.676,-0.883,0.08203,-0.1148,0.10297,0.02652,-2.404,1.796,7.0,-0.5986,-0.8013,0.0,0.0
1738225586118589162,0,0,0,0,0,0,0,0,0,-2.348,2.006,6.902,-0.66,-0.8867,0.08984,-0.1063,0.10175,0.02776,-2.404,1.796,7.0,-0.5986,-0.8013,0.0,0.0
1738225586168601274,0,0,0,0,0,0,0,0,0,-2.363,1.984,6.902,-0.6523,-0.8867,0.09766,-0.10034,0.1012,0.02747,-2.463,1.714,7.0,-0.5713,-0.821,0.0,0.0
1738225586218592166,0,0,0,0,0,0,0,0,0,-2.416,1.913,6.902,-0.6445,-0.875,0.10156,-0.0972,0.1007,0.02863,-2.463,1.714,7.0,-0.5713,-0.821,0.0,0.0
1738225586268607378,0,0,0,0,0,0,0,0,0,-2.434,1.89,6.902,-0.625,-0.879,0.09766,-0.096,0.09985,0.02922,-2.518,1.631,7.0,-0.544,-0.8394,0.0,0.0
1738225586318590879,0,0,0,0,0,0,0,0,0,-2.477,1.828,6.902,-0.6094,-0.871,0.09766,-0.0987,0.09674,0.03021,-2.518,1.631,7.0,-0.544,-0.8394,0.0,0.0
1738225586368612766,0,0,0,0,0,0,0,0,0,-2.512,1.778,6.906,-0.5938,-0.8633,0.1094,-0.1002,0.09625,0.02907,-2.57,1.547,7.0,-0.5156,-0.857,0.0,0.0
1738225586418593168,0,0,0,0,0,0,0,0,0,-2.533,1.745,6.91,-0.582,-0.8633,0.1133,-0.10425,0.0963,0.02911,-2.57,1.547,7.0,-0.5156,-0.857,0.0,0.0
1738225586468625307,0,0,0,0,0,0,0,0,0,-2.547,1.725,6.91,-0.574,-0.8555,0.10156,-0.1061,0.09875,0.02914,-2.621,1.46,7.0,-0.4866,-0.8735,0.0,0.0
1738225586518589973,0,0,0,0,0,0,0,0,0,-2.59,1.658,6.92,-0.543,-0.883,0.09375,-0.11176,0.104,0.02711,-2.621,1.46,7.0,-0.4866,-0.8735,0.0,0.0
1738225586568610668,0,0,0,0,0,0,0,0,0,-2.621,1.606,6.926,-0.539,-0.871,0.09766,-0.1119,0.111,0.02477,-2.668,1.372,7.0,-0.4573,-0.889,0.0,0.0
1738225586618584871,0,0,0,0,0,0,0,0,0,-2.643,1.572,6.93,-0.535,-0.871,0.09766,-0.10754,0.1132,0.02377,-2.668,1.372,7.0,-0.4573,-0.889,0.0,0.0
1738225586668610572,0,0,0,0,0,0,0,0,0,-2.652,1.554,6.934,-0.5156,-0.8867,0.08984,-0.10516,0.1156,0.02379,-2.713,1.282,7.0,-0.4275,-0.9043,0.0,0.0
1738225586718583345,0,0,0,0,0,0,0,0,0,-2.697,1.48,6.938,-0.5195,-0.871,0.08984,-0.1077,0.11664,0.02579,-2.713,1.282,7.0,-0.4275,-0.9043,0.0,0.0
1738225586768615961,0,0,0,0,0,0,0,0,0,-2.727,1.43,6.94,-0.5195,-0.867,0.08203,-0.1144,0.11316,0.02573,-2.754,1.191,7.0,-0.397,-0.918,0.0,0.0
1738225586818589210,0,0,0,0,0,0,0,0,0,-2.75,1.39,6.945,-0.5117,-0.871,0.0742,-0.11536,0.11066,0.0263,-2.754,1.191,7.0,-0.397,-0.918,0.0,0.0
1738225586868615865,0,0,0,0,0,0,0,0,0,-2.76,1.373,6.95,-0.496,-0.883,0.0664,-0.11896,0.1074,0.0268,-2.791,1.099,7.0,-0.3662,-0.9307,0.0,0.0
1738225586918587446,0,0,0,0,0,0,0,0,0,-2.799,1.305,6.95,-0.4883,-0.879,0.0547,-0.1229,0.1031,0.02672,-2.791,1.099,7.0,-0.3662,-0.9307,0.0,0.0
1738225586968622446,0,0,0,0,0,0,0,0,0,-2.824,1.256,6.953,-0.4727,-0.8867,0.04297,-0.1244,0.09436,0.02779,-2.826,1.005,7.0,-0.335,-0.9424,0.0,0.0
1738225587018594980,0,0,0,0,0,0,0,0,0,-2.846,1.216,6.953,-0.461,-0.8984,0.03906,-0.12396,0.0922,0.02745,-2.826,1.005,7.0,-0.335,-0.9424,0.0,0.0
1738225587068623065,0,0,0,0,0,0,0,0,0,-2.871,1.164,6.953,-0.4492,-0.9023,0.03516,-0.12463,0.08997,0.0261,-2.86,0.91,7.0,-0.3035,-0.9526,0.0,0.0
1738225587118605136,0,0,0,0,0,0,0,0,0,-2.883,1.138,6.953,-0.4414,-0.9062,0.03516,-0.1271,0.08936,0.02505,-2.86,0.91,7.0,-0.3035,-0.9526,0.0,0.0
1738225587168590545,0,0,0,0,0,0,0,0,0,-2.883,1.138,6.953,-0.4414,-0.9062,0.03516,-0.1271,0.08936,0.02505,-2.887,0.8145,7.0,-0.2715,-0.9624,0.0,0.0
1738225587218578338,0,0,0,0,0,0,0,0,0,-2.93,1.038,6.953,-0.4297,-0.91,0.03125,-0.1266,0.08777,0.0253,-2.887,0.8145,7.0,-0.2715,-0.9624,0.0,0.0
1738225587268636703,0,0,0,0,0,0,0,0,0,-2.945,1.005,6.957,-0.4023,-0.926,0.03906,-0.1295,0.0838,0.0281,-2.912,0.718,7.0,-0.2393,-0.971,0.0,0.0
1738225587318593263,0,0,0,0,0,0,0,0,0,-2.97,0.9414,6.957,-0.375,-0.9336,0.03906,-0.1292,0.07764,0.02754,-2.912,0.718,7.0,-0.2393,-0.971,0.0,0.0
1738225587368592739,0,0,0,0,0,0,0,0,0,-2.992,0.8867,6.96,-0.3477,-0.9336,0.04297,-0.128,0.07935,0.02576,-2.936,0.62,7.0,-0.2068,-0.9785,0.0,0.0
1738225587418595552,0,0,0,0,0,0,0,0,0,-3.004,0.8516,6.96,-0.332,-0.9375,0.03906,-0.1287,0.081,0.02489,-2.936,0.62,7.0,-0.2068,-0.9785,0.0,0.0
1738225587468616247,0,0,0,0,0,0,0,0,0,-3.012,0.829,6.96,-0.3203,-0.9453,0.03906,-0.1289,0.0822,0.02432,-2.955,0.522,7.0,-0.1741,-0.985,0.0,0.0
1738225587518586874,0,0,0,0,0,0,0,0,0,-3.012,0.829,6.96,-0.3203,-0.9453,0.03906,-0.1289,0.0822,0.02432,-2.955,0.522,7.0,-0.1741,-0.985,0.0,0.0
1738225587568614721,0,0,0,0,0,0,0,0,0,-3.053,0.705,6.96,-0.3047,-0.949,0.03516,-0.1348,0.0857,0.0236,-2.97,0.4233,7.0,-0.1411,-0.99,0.0,0.0
1738225587618585348,0,0,0,0,0,0,0,0,0,-3.062,0.668,6.96,-0.2773,-0.965,0.03906,-0.1415,0.0898,0.02475,-2.97,0.4233,7.0,-0.1411,-0.99,0.0,0.0
1738225587668609380,0,0,0,0,0,0,0,0,0,-3.07,0.6387,6.96,-0.2617,-0.961,0.04297,-0.144,0.08997,0.02512,-2.982,0.3242,7.0,-0.10803,-0.994,0.0,0.0
1738225587718572616,0,0,0,0,0,0,0,0,0,-3.07,0.6387,6.96,-0.2617,-0.961,0.04297,-0.144,0.08997,0.02512,-2.982,0.3242,7.0,-0.10803,-0.994,0.0,0.0
1738225587768610239,0,0,0,0,0,0,0,0,0,-3.105,0.5054,6.957,-0.2344,-0.9727,0.03516,-0.1416,0.0878,0.02464,-2.992,0.2246,7.0,-0.0748,-0.997,0.0,0.0
1738225587818593978,0,0,0,0,0,0,0,0,0,-3.117,0.454,6.957,-0.2227,-0.9688,0.03906,-0.1396,0.08887,0.02637,-2.992,0.2246,7.0,-0.0748,-0.997,0.0,0.0
1738225587868611812,0,0,0,0,0,0,0,0,0,-3.117,0.454,6.957,-0.2227,-0.9688,0.03906,-0.1396,0.08887,0.02637,-2.998,0.12476,7.0,-0.0416,-0.999,0.0,0.0
1738225587918587446,0,0,0,0,0,0,0,0,0,-3.117,0.454,6.957,-0.2227,-0.9688,0.03906,-0.1396,0.08887,0.02637,-2.998,0.12476,7.0,-0.0416,-0.999,0.0,0.0
1738225587968626976,0,0,0,0,0,0,0,0,0,-3.145,0.3286,6.957,-0.1992,-0.9688,0.0742,-0.1349,0.0876,0.02678,-3.0,0.02478,7.0,-0.00826,-1.0,0.0,0.0
1738225588018594264,0,0,0,0,0,0,0,0,0,-3.154,0.281,6.96,-0.1719,-0.9766,0.0781,-0.1338,0.0778,0.02858,-3.0,0.02478,7.0,-0.00826,-1.0,0.0,0.0
1738225588068624973,0,0,0,0,0,0,0,0,0,-3.16,0.252,6.96,-0.1758,-0.9766,0.08594,-0.1322,0.0754,0.0293,-3.0,-0.0752,7.0,0.02507,-0.9995,0.0,0.0
1738225588118587732,0,0,0,0,0,0,0,0,0,-3.172,0.1765,6.965,-0.1523,-0.9883,0.08984,-0.14,0.07043,0.03192,-3.0,-0.0752,7.0,0.02507,-0.9995,0.0,0.0
1738225588168714523,0,0,0,0,0,0,0,0,0,-3.172,0.1765,6.965,-0.1523,-0.9883,0.08984,-0.14,0.07043,0.03192,-2.994,-0.1752,7.0,0.05838,-0.9985,0.0,0.0
1738225588218730926,0,0,0,0,0,0,0,0,0,-3.182,0.11383,6.965,-0.1406,-0.9883,0.09766,-0.1422,0.06915,0.03256,-2.994,-0.1752,7.0,0.05838,-0.9985,0.0,0.0
1738225588268624544,0,0,0,0,0,0,0,0,0,-3.191,0.01396,6.973,-0.08594,-1.035,0.09375,-0.1454,0.0635,0.03114,-2.988,-0.275,7.0,0.0916,-0.9956,0.0,0.0
1738225588318606615,0,0,0,0,0,0,0,0,0,-3.195,-0.02518,6.977,-0.0625,-1.043,0.0781,-0.1477,0.0661,0.02621,-2.988,-0.275,7.0,0.0916,-0.9956,0.0,0.0
1738225588368605375,0,0,0,0,0,0,0,0,0,-3.197,-0.08405,6.977,-0.05078,-1.035,0.0703,-0.1394,0.06726,0.02371,-2.977,-0.3743,7.0,0.12476,-0.992,0.0,0.0
1738225588418605089,0,0,0,0,0,0,0,0,0,-3.2,-0.11584,6.98,-0.04297,-1.023,0.0664,-0.1346,0.06714,0.02301,-2.977,-0.3743,7.0,0.12476,-0.992,0.0,0.0
1738225588468602657,0,0,0,0,0,0,0,0,0,-3.2,-0.11584,6.98,-0.04297,-1.023,0.0664,-0.1346,0.06714,0.02301,-2.963,-0.4731,7.0,0.1577,-0.9873,0.0,0.0
1738225588518600940,0,0,0,0,0,0,0,0,0,-3.201,-0.1995,6.98,-0.03125,-1.031,0.0703,-0.1298,0.0652,0.0244,-2.963,-0.4731,7.0,0.1577,-0.9873,0.0,0.0
1738225588568609237,0,0,0,0,0,0,0,0,0,-3.203,-0.2817,6.98,0.003906,-1.012,0.05078,-0.1293,0.05112,0.02594,-2.945,-0.572,7.0,0.1906,-0.9814,0.0,0.0
1738225588618609189,0,0,0,0,0,0,0,0,0,-3.201,-0.3308,6.977,0.05078,-1.012,0.03516,-0.139,0.03638,0.03027,-2.945,-0.572,7.0,0.1906,-0.9814,0.0,0.0
1738225588668612241,0,0,0,0,0,0,0,0,0,-3.195,-0.3938,6.977,0.10547,-0.9883,0.03906,-0.1377,0.03162,0.02719,-2.924,-0.6694,7.0,0.2231,-0.9746,0.0,0.0
1738225588718606710,0,0,0,0,0,0,0,0,0,-3.191,-0.4187,6.977,0.1211,-0.9883,0.04297,-0.1338,0.03357,0.02602,-2.924,-0.6694,7.0,0.2231,-0.9746,0.0,0.0
1738225588768589496,0,0,0,0,0,0,0,0,0,-3.184,-0.4758,6.977,0.1406,-0.9883,0.04688,-0.1338,0.03516,0.02591,-2.9,-0.7666,7.0,0.2556,-0.967,0.0,0.0
1738225588818588256,0,0,0,0,0,0,0,0,0,-3.184,-0.4758,6.977,0.1406,-0.9883,0.04688,-0.1338,0.03516,0.02591,-2.9,-0.7666,7.0,0.2556,-0.967,0.0,0.0
1738225588868612766,0,0,0,0,0,0,0,0,0,-3.166,-0.582,6.973,0.207,-0.9844,0.0547,-0.1359,0.03903,0.02708,-2.873,-0.863,7.0,0.2876,-0.9575,0.0,0.0
1738225588918617486,0,0,0,0,0,0,0,0,0,-3.15,-0.6416,6.97,0.2656,-0.9766,0.0547,-0.1422,0.04053,0.026,-2.873,-0.863,7.0,0.2876,-0.9575,0.0,0.0
1738225588968613624,0,0,0,0,0,0,0,0,0,-3.15,-0.6416,6.97,0.2656,-0.9766,0.0547,-0.1422,0.04053,0.026,-2.844,-0.958,7.0,0.3193,-0.9478,0.0,0.0
1738225589018601655,0,0,0,0,0,0,0,0,0,-3.15,-0.6416,6.97,0.2656,-0.9766,0.0547,-0.1422,0.04053,0.026,-2.844,-0.958,7.0,0.3193,-0.9478,0.0,0.0
1738225589068607091,0,0,0,0,0,0,0,0,0,-3.111,-0.7715,6.965,0.293,-0.9805,0.0625,-0.1451,0.0421,0.02547,-2.809,-1.053,7.0,0.3508,-0.9365,0.0,0.0
1738225589118601799,0,0,0,0,0,0,0,0,0,-3.094,-0.8203,6.97,0.3672,-0.9688,0.09766,-0.1448,0.04868,0.02487,-2.809,-1.053,7.0,0.3508,-0.9365,0.0,0.0
1738225589168602466,0,0,0,0,0,0,0,0,0,-3.086,-0.84,6.97,0.3828,-0.965,0.10156,-0.1426,0.05118,0.02414,-2.773,-1.1455,7.0,0.3818,-0.9243,0.0,0.0
1738225589218611478,0,0,0,0,0,0,0,0,0,-3.053,-0.9194,6.97,0.418,-0.9766,0.10547,-0.1401,0.05362,0.02623,-2.773,-1.1455,7.0,0.3818,-0.9243,0.0,0.0
1738225589268607378,0,0,0,0,0,0,0,0,0,-3.03,-0.974,6.973,0.4375,-0.9766,0.1133,-0.1353,0.0585,0.02542,-2.732,-1.237,7.0,0.4124,-0.911,0.0,0.0
1738225589318601846,0,0,0,0,0,0,0,0,0,-3.014,-1.005,6.973,0.4492,-0.9883,0.1133,-0.1348,0.06146,0.02585,-2.732,-1.237,7.0,0.4124,-0.911,0.0,0.0
1738225589368614673,0,0,0,0,0,0,0,0,0,-2.996,-1.045,6.977,0.4648,-0.9805,0.1289,-0.137,0.0637,0.02611,-2.69,-1.327,7.0,0.4426,-0.897,0.0,0.0
1738225589418606281,0,0,0,0,0,0,0,0,0,-2.96,-1.116,6.973,0.4727,-0.9727,0.1406,-0.1345,0.0657,0.02814,-2.69,-1.327,7.0,0.4426,-0.897,0.0,0.0
1738225589468603372,0,0,0,0,0,0,0,0,0,-2.94,-1.158,6.973,0.4922,-0.992,0.1445,-0.1323,0.06647,0.02791,-2.645,-1.416,7.0,0.4722,-0.8813,0.0,0.0
1738225589518587112,0,0,0,0,0,0,0,0,0,-2.91,-1.219,6.98,0.5117,-1.004,0.1406,-0.1443,0.0704,0.02687,-2.645,-1.416,7.0,0.4722,-0.8813,0.0,0.0
1738225589568600416,0,0,0,0,0,0,0,0,0,-2.879,-1.276,6.984,0.5234,-1.004,0.1562,-0.1462,0.07733,0.0279,-2.596,-1.504,7.0,0.5015,-0.865,0.0,0.0
1738225589618603944,0,0,0,0,0,0,0,0,0,-2.857,-1.317,6.984,0.5234,-1.016,0.1562,-0.1442,0.0784,0.02814,-2.596,-1.504,7.0,0.5015,-0.865,0.0,0.0
1738225589668600797,0,0,0,0,0,0,0,0,0,-2.844,-1.344,6.992,0.551,-1.02,0.1562,-0.1442,0.07874,0.02873,-2.545,-1.59,7.0,0.53,-0.848,0.0,0.0
1738225589718588829,0,0,0,0,0,0,0,0,0,-2.844,-1.344,6.992,0.551,-1.02,0.1562,-0.1442,0.07874,0.02873,-2.545,-1.59,7.0,0.53,-0.848,0.0,0.0
1738225589768587589,0,0,0,0,0,0,0,0,0,-2.78,-1.463,6.996,0.5547,-1.016,0.1523,-0.1383,0.07983,0.02852,-2.49,-1.674,7.0,0.5576,-0.83,0.0,0.0
1738225589818599700,0,0,0,0,0,0,0,0,0,-2.748,-1.52,6.996,0.547,-0.992,0.1094,-0.1224,0.09467,0.02737,-2.49,-1.674,7.0,0.5576,-0.83,0.0,0.0
1738225589868605613,0,0,0,0,0,0,0,0,0,-2.717,-1.578,7.008,0.5312,-0.9727,0.10156,-0.11993,0.0941,0.02667,-2.434,-1.756,7.0,0.585,-0.811,0.0,0.0
1738225589918602466,0,0,0,0,0,0,0,0,0,-2.705,-1.599,7.008,0.5312,-0.9727,0.09375,-0.11755,0.09314,0.02794,-2.434,-1.756,7.0,0.585,-0.811,0.0,0.0
1738225589968621969,0,0,0,0,0,0,0,0,0,-2.684,-1.637,7.008,0.535,-0.949,0.09375,-0.1139,0.0899,0.02817,-2.373,-1.836,7.0,0.612,-0.791,0.0,0.0
1738225590018602609,0,0,0,0,0,0,0,0,0,-2.684,-1.637,7.008,0.535,-0.949,0.09375,-0.1139,0.0899,0.02817,-2.373,-1.836,7.0,0.612,-0.791,0.0,0.0
1738225590068608045,0,0,0,0,0,0,0,0,0,-2.611,-1.763,7.01,0.535,-0.9336,0.09375,-0.10785,0.0842,0.02837,-2.31,-1.914,7.0,0.6377,-0.77,0.0,0.0
1738225590118610858,0,0,0,0,0,0,0,0,0,-2.582,-1.811,7.016,0.543,-0.9023,0.08203,-0.1009,0.0772,0.02742,-2.31,-1.914,7.0,0.6377,-0.77,0.0,0.0
1738225590168611288,0,0,0,0,0,0,0,0,0,-2.557,-1.851,7.016,0.5586,-0.8164,0.0781,-0.09344,0.071,0.02823,-2.246,-1.989,7.0,0.663,-0.7485,0.0,0.0
1738225590218609333,0,0,0,0,0,0,0,0,0,-2.535,-1.879,7.016,0.5625,-0.801,0.08203,-0.0886,0.07025,0.02672,-2.246,-1.989,7.0,0.663,-0.7485,0.0,0.0
1738225590268615961,0,0,0,0,0,0,0,0,0,-2.535,-1.879,7.016,0.5625,-0.801,0.08203,-0.0886,0.07025,0.02672,-2.178,-2.062,7.0,0.688,-0.726,0.0,0.0
1738225590318606615,0,0,0,0,0,0,0,0,0,-2.473,-1.964,7.02,0.578,-0.7734,0.0742,-0.09174,0.0677,0.026,-2.178,-2.062,7.0,0.688,-0.726,0.0,0.0
1738225590368636846,0,0,0,0,0,0,0,0,0,-2.436,-2.01,7.02,0.621,-0.7266,0.04297,-0.1193,0.05545,0.02924,-2.107,-2.135,7.0,0.7114,-0.7026,0.0,0.0
1738225590418625831,0,0,0,0,0,0,0,0,0,-2.422,-2.025,7.016,0.633,-0.715,0.04297,-0.12305,0.0546,0.02844,-2.107,-2.135,7.0,0.7114,-0.7026,0.0,0.0
1738225590468601703,0,0,0,0,0,0,0,0,0,-2.422,-2.025,7.016,0.633,-0.715,0.04297,-0.12305,0.0546,0.02844,-2.035,-2.203,7.0,0.7344,-0.6787,0.0,0.0
1738225590518585681,0,0,0,0,0,0,0,0,0,-2.422,-2.025,7.016,0.633,-0.715,0.04297,-0.12305,0.0546,0.02844,-2.035,-2.203,7.0,0.7344,-0.6787,0.0,0.0
1738225590568597793,0,0,0,0,0,0,0,0,0,-2.31,-2.145,7.02,0.6875,-0.6797,0.0547,-0.1202,0.05908,0.02654,-1.961,-2.27,7.0,0.757,-0.654,0.0,0.0
1738225590618597030,0,0,0,0,0,0,0,0,0,-2.28,-2.174,7.016,0.703,-0.676,0.04297,-0.1194,0.06586,0.02715,-1.961,-2.27,7.0,0.757,-0.654,0.0,0.0
1738225590668606281,0,0,0,0,0,0,0,0,0,-2.232,-2.215,7.023,0.7344,-0.6562,0.04297,-0.11945,0.0611,0.02754,-1.884,-2.334,7.0,0.7783,-0.628,0.0,0.0
1738225590718612432,0,0,0,0,0,0,0,0,0,-2.215,-2.23,7.02,0.746,-0.6562,0.03906,-0.12067,0.06036,0.02744,-1.884,-2.334,7.0,0.7783,-0.628,0.0,0.0
1738225590768617391,0,0,0,0,0,0,0,0,0,-2.215,-2.23,7.02,0.746,-0.6562,0.03906,-0.12067,0.06036,0.02744,-1.806,-2.396,7.0,0.799,-0.6016,0.0,0.0
1738225590818605422,0,0,0,0,0,0,0,0,0,-2.154,-2.281,7.016,0.754,-0.6406,0.04688,-0.11993,0.061,0.02606,-1.806,-2.396,7.0,0.799,-0.6016,0.0,0.0
1738225590868597984,0,0,0,0,0,0,0,0,0,-2.094,-2.334,7.016,0.7617,-0.6523,0.05078,-0.11664,0.06058,0.02594,-1.725,-2.455,7.0,0.8184,-0.5747,0.0,0.0
1738225590918595790,0,0,0,0,0,0,0,0,0,-2.055,-2.365,7.027,0.8086,-0.633,0.0586,-0.11456,0.0571,0.02719,-1.725,-2.455,7.0,0.8184,-0.5747,0.0,0.0
1738225590968595743,0,0,0,0,0,0,0,0,0,-1.999,-2.408,7.027,0.824,-0.6133,0.04688,-0.1202,0.0584,0.02731,-1.642,-2.512,7.0,0.837,-0.5474,0.0,0.0
1738225591018600940,0,0,0,0,0,0,0,0,0,-1.976,-2.424,7.03,0.828,-0.6016,0.04297,-0.1209,0.06015,0.02768,-1.642,-2.512,7.0,0.837,-0.5474,0.0,0.0
1738225591068607091,0,0,0,0,0,0,0,0,0,-1.922,-2.463,7.035,0.84,-0.586,0.03125,-0.12024,0.0651,0.0274,-1.557,-2.564,7.0,0.855,-0.519,0.0,0.0
1738225591118605136,0,0,0,0,0,0,0,0,0,-1.892,-2.482,7.035,0.8438,-0.578,0.02734,-0.12427,0.0658,0.02675,-1.557,-2.564,7.0,0.855,-0.519,0.0,0.0
1738225591168604135,0,0,0,0,0,0,0,0,0,-1.864,-2.502,7.035,0.84,-0.574,0.02734,-0.1216,0.06586,0.0267,-1.471,-2.615,7.0,0.8716,-0.4902,0.0,0.0
1738225591218591690,0,0,0,0,0,0,0,0,0,-1.805,-2.541,7.035,0.84,-0.5625,0.03125,-0.1143,0.065,0.0287,-1.471,-2.615,7.0,0.8716,-0.4902,0.0,0.0
1738225591268608093,0,0,0,0,0,0,0,0,0,-1.772,-2.564,7.043,0.8477,-0.5703,0.02344,-0.11053,0.06366,0.02963,-1.383,-2.662,7.0,0.887,-0.461,0.0,0.0
1738225591318606615,0,0,0,0,0,0,0,0,0,-1.723,-2.596,7.05,0.8516,-0.539,0.01563,-0.10895,0.06216,0.03,-1.383,-2.662,7.0,0.887,-0.461,0.0,0.0
1738225591368603944,0,0,0,0,0,0,0,0,0,-1.676,-2.623,7.055,0.8594,-0.5156,-0.02734,-0.10956,0.06198,0.02864,-1.293,-2.707,7.0,0.9023,-0.4312,0.0,0.0
1738225591418602705,0,0,0,0,0,0,0,0,0,-1.63,-2.65,7.055,0.8594,-0.508,-0.04688,-0.1192,0.0652,0.02597,-1.293,-2.707,7.0,0.9023,-0.4312,0.0,0.0
1738225591468604326,0,0,0,0,0,0,0,0,0,-1.581,-2.678,7.055,0.867,-0.4922,-0.05078,-0.1224,0.06506,0.02563,-1.202,-2.748,7.0,0.916,-0.401,0.0,0.0
1738225591518603086,0,0,0,0,0,0,0,0,0,-1.557,-2.693,7.066,0.8516,-0.508,-0.0586,-0.122,0.0657,0.0261,-1.202,-2.748,7.0,0.916,-0.401,0.0,0.0
1738225591568608045,0,0,0,0,0,0,0,0,0,-1.505,-2.723,7.062,0.8555,-0.504,-0.08594,-0.12494,0.0651,0.02591,-1.11,-2.787,7.0,0.929,-0.37,0.0,0.0
1738225591618594884,0,0,0,0,0,0,0,0,0,-1.505,-2.723,7.062,0.8555,-0.504,-0.08594,-0.12494,0.0651,0.02591,-1.11,-2.787,7.0,0.929,-0.37,0.0,0.0
1738225591668612957,0,0,0,0,0,0,0,0,0,-1.404,-2.781,7.06,0.8633,-0.4844,-0.1211,-0.126,0.06635,0.02592,-1.017,-2.822,7.0,0.941,-0.3389,0.0,0.0
1738225591718590021,0,0,0,0,0,0,0,0,0,-1.377,-2.797,7.062,0.871,-0.4844,-0.1367,-0.124,0.05923,0.02594,-1.017,-2.822,7.0,0.941,-0.3389,0.0,0.0
1738225591768611669,0,0,0,0,0,0,0,0,0,-1.343,-2.816,7.06,0.871,-0.4805,-0.1445,-0.1195,0.05402,0.02785,-0.922,-2.855,7.0,0.9517,-0.3074,0.0,0.0
1738225591818596363,0,0,0,0,0,0,0,0,0,-1.343,-2.816,7.06,0.871,-0.4805,-0.1445,-0.1195,0.05402,0.02785,-0.922,-2.855,7.0,0.9517,-0.3074,0.0,0.0
1738225591868592023,0,0,0,0,0,0,0,0,0,-1.242,-2.87,7.062,0.8945,-0.4531,-0.1562,-0.11505,0.04938,0.02713,-0.826,-2.885,7.0,0.9614,-0.2754,0.0,0.0
1738225591918603658,0,0,0,0,0,0,0,0,0,-1.205,-2.889,7.055,0.914,-0.4492,-0.168,-0.1128,0.04007,0.02954,-0.826,-2.885,7.0,0.9614,-0.2754,0.0,0.0
1738225591968603372,0,0,0,0,0,0,0,0,0,-1.154,-2.912,7.05,0.922,-0.4414,-0.168,-0.1134,0.0365,0.03094,-0.73,-2.91,7.0,0.9697,-0.2433,0.0,0.0
1738225592018587350,0,0,0,0,0,0,0,0,0,-1.154,-2.912,7.05,0.922,-0.4414,-0.168,-0.1134,0.0365,0.03094,-0.73,-2.91,7.0,0.9697,-0.2433,0.0,0.0
1738225592068621873,0,0,0,0,0,0,0,0,0,-1.069,-2.953,7.05,0.949,-0.4453,-0.1719,-0.1094,0.03262,0.02878,-0.6323,-2.932,7.0,0.9775,-0.2108,0.0,0.0
1738225592118597984,0,0,0,0,0,0,0,0,0,-0.991,-2.986,7.055,0.9844,-0.414,-0.1953,-0.09784,0.02399,0.02792,-0.6323,-2.932,7.0,0.9775,-0.2108,0.0,0.0
1738225592168618440,0,0,0,0,0,0,0,0,0,-0.9443,-3.006,7.055,0.996,-0.3945,-0.1992,-0.0952,0.02242,0.02925,-0.534,-2.951,7.0,0.984,-0.1781,0.0,0.0
1738225592218618392,0,0,0,0,0,0,0,0,0,-0.9106,-3.018,7.047,1.008,-0.3828,-0.207,-0.09265,0.0209,0.02922,-0.534,-2.951,7.0,0.984,-0.1781,0.0,0.0
1738225592268609046,0,0,0,0,0,0,0,0,0,-0.8857,-3.027,7.055,1.023,-0.375,-0.207,-0.08997,0.02065,0.02974,-0.4355,-2.969,7.0,0.9893,-0.1453,0.0,0.0
1738225592318620681,0,0,0,0,0,0,0,0,0,-0.813,-3.05,7.047,1.051,-0.3438,-0.2266,-0.08105,0.01865,0.02881,-0.4355,-2.969,7.0,0.9893,-0.1453,0.0,0.0
1738225592368609189,0,0,0,0,0,0,0,0,0,-0.7783,-3.062,7.05,1.0625,-0.336,-0.2344,-0.0797,0.01707,0.02986,-0.3364,-2.98,7.0,0.9937,-0.1122,0.0,0.0
1738225592418611288,0,0,0,0,0,0,0,0,0,-0.7783,-3.062,7.05,1.0625,-0.336,-0.2344,-0.0797,0.01707,0.02986,-0.3364,-2.98,7.0,0.9937,-0.1122,0.0,0.0
1738225592468625307,0,0,0,0,0,0,0,0,0,-0.641,-3.104,7.05,1.074,-0.3164,-0.25,-0.0808,0.0164,0.03085,-0.2369,-2.99,7.0,0.997,-0.079,0.0,0.0
1738225592518648862,0,0,0,0,0,0,0,0,0,-0.588,-3.117,7.05,1.141,-0.293,-0.289,-0.0869,0.01738,0.03442,-0.2369,-2.99,7.0,0.997,-0.079,0.0,0.0
1738225592568593263,0,0,0,0,0,0,0,0,0,-0.5674,-3.123,7.047,1.148,-0.2852,-0.2969,-0.087,0.02129,0.03415,-0.1371,-2.996,7.0,0.999,-0.04572,0.0,0.0
1738225592618599176,0,0,0,0,0,0,0,0,0,-0.4775,-3.145,7.04,1.176,-0.2695,-0.3047,-0.0789,0.02972,0.03183,-0.1371,-2.996,7.0,0.999,-0.04572,0.0,0.0
1738225592668619871,0,0,0,0,0,0,0,0,0,-0.3892,-3.162,7.035,1.211,-0.2383,-0.3125,-0.0685,0.03586,0.03004,-0.03717,-3.0,7.0,1.0,-0.01239,0.0,0.0
1738225592718594312,0,0,0,0,0,0,0,0,0,-0.3628,-3.166,7.03,1.219,-0.2227,-0.3164,-0.0631,0.03864,0.02835,-0.03717,-3.0,7.0,1.0,-0.01239,0.0,0.0
1738225592768607854,0,0,0,0,0,0,0,0,0,-0.3274,-3.172,7.023,1.227,-0.207,-0.3242,-0.06027,0.03992,0.02725,0.0628,-3.0,7.0,1.0,0.02095,0.0,0.0
1738225592818598747,0,0,0,0,0,0,0,0,0,-0.3274,-3.172,7.023,1.227,-0.207,-0.3242,-0.06027,0.03992,0.02725,0.0628,-3.0,7.0,1.0,0.02095,0.0,0.0
1738225592868605375,0,0,0,0,0,0,0,0,0,-0.3274,-3.172,7.023,1.227,-0.207,-0.3242,-0.06027,0.03992,0.02725,0.1627,-2.996,7.0,0.9985,0.05426,0.0,0.0
1738225592918610572,0,0,0,0,0,0,0,0,0,-0.09424,-3.207,7.01,1.246,-0.168,-0.3242,-0.05743,0.04413,0.02646,0.1627,-2.996,7.0,0.9985,0.05426,0.0,0.0
1738225592968612432,0,0,0,0,0,0,0,0,0,-0.05966,-3.21,7.01,1.273,-0.09375,-0.3125,-0.04547,0.05505,0.02574,0.2625,-2.988,7.0,0.996,0.0875,0.0,0.0
1738225593018610477,0,0,0,0,0,0,0,0,0,0.02267,-3.215,7.004,1.273,-0.0547,-0.3242,-0.04547,0.06854,0.02753,0.2625,-2.988,7.0,0.996,0.0875,0.0,0.0
1738225593068611145,0,0,0,0,0,0,0,0,0,0.1016,-3.215,6.996,1.27,-0.003906,-0.332,-0.04352,0.07684,0.0279,0.362,-2.979,7.0,0.9927,0.12067,0.0,0.0
1738225593118609189,0,0,0,0,0,0,0,0,0,0.1368,-3.215,6.99,1.266,0.007812,-0.3203,-0.04175,0.08026,0.02875,0.362,-2.979,7.0,0.9927,0.12067,0.0,0.0
1738225593168614387,0,0,0,0,0,0,0,0,0,0.1898,-3.213,6.98,1.262,0.03516,-0.3008,-0.03906,0.0822,0.0309,0.461,-2.965,7.0,0.9883,0.1537,0.0,0.0
1738225593218609094,0,0,0,0,0,0,0,0,0,0.2935,-3.209,6.973,1.254,0.0781,-0.2695,-0.03006,0.0792,0.03094,0.461,-2.965,7.0,0.9883,0.1537,0.0,0.0
1738225593268616914,0,0,0,0,0,0,0,0,0,0.3325,-3.205,6.973,1.25,0.1289,-0.2734,-0.02646,0.07745,0.02977,0.5596,-2.947,7.0,0.9824,0.1865,0.0,0.0
1738225593318612813,0,0,0,0,0,0,0,0,0,0.4148,-3.195,6.965,1.242,0.1562,-0.2695,-0.0355,0.08636,0.02731,0.5596,-2.947,7.0,0.9824,0.1865,0.0,0.0
1738225593368621349,0,0,0,0,0,0,0,0,0,0.4802,-3.186,6.96,1.223,0.1875,-0.2266,-0.03952,0.0966,0.03183,0.657,-2.928,7.0,0.9756,0.2191,0.0,0.0
1738225593418613910,0,0,0,0,0,0,0,0,0,0.513,-3.18,6.96,1.215,0.2031,-0.2188,-0.03976,0.10034,0.03357,0.657,-2.928,7.0,0.9756,0.2191,0.0,0.0
1738225593468623876,0,0,0,0,0,0,0,0,0,0.5635,-3.17,6.96,1.203,0.2188,-0.2188,-0.04236,0.10455,0.03397,0.755,-2.904,7.0,0.968,0.2515,0.0,0.0
1738225593518614768,0,0,0,0,0,0,0,0,0,0.647,-3.154,6.965,1.191,0.25,-0.2148,-0.04688,0.1058,0.03397,0.755,-2.904,7.0,0.968,0.2515,0.0,0.0
1738225593568614244,0,0,0,0,0,0,0,0,0,0.678,-3.146,6.965,1.184,0.2656,-0.2109,-0.04532,0.1033,0.0341,0.851,-2.877,7.0,0.959,0.2837,0.0,0.0
1738225593618605852,0,0,0,0,0,0,0,0,0,0.7383,-3.133,6.96,1.18,0.2773,-0.2109,-0.04715,0.10187,0.03427,0.851,-2.877,7.0,0.959,0.2837,0.0,0.0
1738225593668610334,0,0,0,0,0,0,0,0,0,0.7993,-3.117,7.176,1.145,0.293,-0.2031,-0.0554,0.10406,0.03296,0.9463,-2.848,7.0,0.9487,0.3154,0.0,0.0
1738225593718604564,0,0,0,0,0,0,0,0,0,0.884,-3.094,7.17,1.129,0.3125,-0.207,-0.0604,0.11145,0.03308,0.9463,-2.848,7.0,0.9487,0.3154,0.0,0.0
1738225593768612384,0,0,0,0,0,0,0,0,0,0.947,-3.076,7.164,1.113,0.3242,-0.1836,-0.06204,0.117,0.03296,1.041,-2.814,7.0,0.938,0.347,0.0,0.0
1738225593818604469,0,0,0,0,0,0,0,0,0,0.9946,-3.062,7.16,1.105,0.332,-0.1758,-0.05902,0.11865,0.03198,1.041,-2.814,7.0,0.938,0.347,0.0,0.0
1738225593868607521,0,0,0,0,0,0,0,0,0,1.03,-3.05,7.152,1.0625,0.3477,-0.1641,-0.05826,0.11896,0.03006,1.134,-2.777,7.0,0.926,0.378,0.0,0.0
1738225593918601274,0,0,0,0,0,0,0,0,0,1.093,-3.03,7.137,1.047,0.3555,-0.1328,-0.06445,0.1221,0.02629,1.134,-2.777,7.0,0.926,0.378,0.0,0.0
1738225593968611955,0,0,0,0,0,0,0,0,0,1.129,-3.018,7.13,1.039,0.3594,-0.1602,-0.0687,0.1235,0.0261,1.226,-2.738,7.0,0.9126,0.4087,0.0,0.0
1738225594018604755,0,0,0,0,0,0,0,0,0,1.209,-2.988,7.12,1.02,0.3555,-0.168,-0.0795,0.1339,0.02197,1.226,-2.738,7.0,0.9126,0.4087,0.0,0.0
1738225594068612337,0,0,0,0,0,0,0,0,0,1.2295,-2.982,7.113,1.004,0.3516,-0.1641,-0.08044,0.1372,0.02238,1.316,-2.695,7.0,0.8984,0.4387,0.0,0.0
1738225594118605852,0,0,0,0,0,0,0,0,0,1.303,-2.955,7.105,0.9727,0.3594,-0.1562,-0.07605,0.144,0.02525,1.316,-2.695,7.0,0.8984,0.4387,0.0,0.0
1738225594168610572,0,0,0,0,0,0,0,0,0,1.324,-2.947,7.094,0.953,0.3672,-0.1523,-0.07153,0.1462,0.02477,1.405,-2.65,7.0,0.8833,0.4685,0.0,0.0
1738225594218606948,0,0,0,0,0,0,0,0,0,1.389,-2.922,7.09,0.9375,0.371,-0.1484,-0.0664,0.1471,0.02425,1.405,-2.65,7.0,0.8833,0.4685,0.0,0.0
1738225594268608570,0,0,0,0,0,0,0,0,0,1.447,-2.895,7.074,0.883,0.4062,-0.10547,-0.05157,0.1421,0.02681,1.493,-2.602,7.0,0.867,0.4978,0.0,0.0
1738225594318598747,0,0,0,0,0,0,0,0,0,1.48,-2.879,7.07,0.867,0.4219,-0.08984,-0.04587,0.1393,0.02838,1.493,-2.602,7.0,0.867,0.4978,0.0,0.0
1738225594368614912,0,0,0,0,0,0,0,0,0,1.508,-2.865,7.066,0.8555,0.4336,-0.08594,-0.04126,0.1348,0.0288,1.579,-2.55,7.0,0.85,0.5264,0.0,0.0
1738225594418586015,0,0,0,0,0,0,0,0,0,1.508,-2.865,7.066,0.8555,0.4336,-0.08594,-0.04126,0.1348,0.0288,1.579,-2.55,7.0,0.85,0.5264,0.0,0.0
1738225594468625068,0,0,0,0,0,0,0,0,0,1.601,-2.816,7.066,0.8438,0.4492,-0.08203,-0.0444,0.1335,0.02934,1.663,-2.496,7.0,0.832,0.554,0.0,0.0
1738225594518604755,0,0,0,0,0,0,0,0,0,1.648,-2.787,7.062,0.789,0.508,-0.0547,-0.0571,0.1315,0.02501,1.663,-2.496,7.0,0.832,0.554,0.0,0.0
1738225594568616151,0,0,0,0,0,0,0,0,0,1.701,-2.752,7.06,0.7695,0.5312,-0.0547,-0.05984,0.1356,0.02322,1.745,-2.44,7.0,0.8135,0.582,0.0,0.0
1738225594618590831,0,0,0,0,0,0,0,0,0,1.718,-2.74,7.055,0.758,0.543,-0.0547,-0.0608,0.1382,0.02371,1.745,-2.44,7.0,0.8135,0.582,0.0,0.0
1738225594668609857,0,0,0,0,0,0,0,0,0,1.746,-2.717,7.055,0.746,0.582,-0.0547,-0.06256,0.1394,0.02403,1.826,-2.38,7.0,0.7935,0.6084,0.0,0.0
1738225594718604803,0,0,0,0,0,0,0,0,0,1.797,-2.676,7.05,0.7188,0.6055,-0.04688,-0.0636,0.1405,0.02368,1.826,-2.38,7.0,0.7935,0.6084,0.0,0.0
1738225594768609523,0,0,0,0,0,0,0,0,0,1.816,-2.66,7.047,0.711,0.617,-0.04688,-0.0638,0.1399,0.02406,1.904,-2.318,7.0,0.773,0.635,0.0,0.0
1738225594818602085,0,0,0,0,0,0,0,0,0,1.873,-2.607,7.043,0.6875,0.633,-0.04297,-0.05896,0.1418,0.02641,1.904,-2.318,7.0,0.773,0.635,0.0,0.0
1738225594868622064,0,0,0,0,0,0,0,0,0,1.907,-2.574,7.04,0.664,0.66,-0.03516,-0.0517,0.141,0.02892,1.98,-2.254,7.0,0.751,0.66,0.0,0.0
1738225594918604373,0,0,0,0,0,0,0,0,0,1.935,-2.547,7.04,0.6523,0.676,-0.02344,-0.04538,0.1395,0.03012,1.98,-2.254,7.0,0.751,0.66,0.0,0.0
1738225594968617439,0,0,0,0,0,0,0,0,0,1.935,-2.547,7.04,0.6523,0.676,-0.02344,-0.04538,0.1395,0.03012,2.055,-2.186,7.0,0.729,0.6846,0.0,0.0
1738225595018599510,0,0,0,0,0,0,0,0,0,1.999,-2.479,7.043,0.6445,0.6836,-0.01953,-0.04593,0.1334,0.03047,2.055,-2.186,7.0,0.729,0.6846,0.0,0.0
1738225595068618774,0,0,0,0,0,0,0,0,0,2.037,-2.436,7.043,0.633,0.711,-0.007812,-0.0619,0.1161,0.03568,2.127,-2.117,7.0,0.7056,0.7085,0.0,0.0
1738225595118595838,0,0,0,0,0,0,0,0,0,2.057,-2.414,7.043,0.633,0.7227,-0.003906,-0.06256,0.11194,0.03418,2.127,-2.117,7.0,0.7056,0.7085,0.0,0.0
1738225595168615818,0,0,0,0,0,0,0,0,0,2.057,-2.414,7.043,0.633,0.7227,-0.003906,-0.06256,0.11194,0.03418,2.195,-2.045,7.0,0.6816,0.732,0.0,0.0
1738225595218600273,0,0,0,0,0,0,0,0,0,2.133,-2.324,7.043,0.625,0.742,-0.003906,-0.0635,0.1056,0.03442,2.195,-2.045,7.0,0.6816,0.732,0.0,0.0
1738225595268616914,0,0,0,0,0,0,0,0,0,2.156,-2.297,7.047,0.629,0.746,-0.003906,-0.0651,0.104,0.0333,2.262,-1.971,7.0,0.6567,0.754,0.0,0.0
1738225595318600416,0,0,0,0,0,0,0,0,0,2.182,-2.266,7.055,0.625,0.746,-0.01563,-0.0687,0.1089,0.03174,2.262,-1.971,7.0,0.6567,0.754,0.0,0.0
1738225595368619203,0,0,0,0,0,0,0,0,0,2.203,-2.242,7.055,0.6484,0.7383,-0.01563,-0.076,0.1109,0.03053,2.326,-1.894,7.0,0.6313,0.7754,0.0,0.0
1738225595418590784,0,0,0,0,0,0,0,0,0,2.254,-2.186,7.05,0.6484,0.7383,-0.02344,-0.0781,0.11017,0.0291,2.326,-1.894,7.0,0.6313,0.7754,0.0,0.0
1738225595468591690,0,0,0,0,0,0,0,0,0,2.268,-2.17,7.047,0.6484,0.742,-0.02734,-0.07587,0.1084,0.02904,2.389,-1.815,7.0,0.605,0.7964,0.0,0.0
1738225595518612384,0,0,0,0,0,0,0,0,0,2.318,-2.111,7.047,0.6562,0.746,-0.03125,-0.0736,0.1042,0.02797,2.389,-1.815,7.0,0.605,0.7964,0.0,0.0
1738225595568614482,0,0,0,0,0,0,0,0,0,2.334,-2.094,7.047,0.66,0.746,-0.03516,-0.0741,0.1042,0.0277,2.447,-1.734,7.0,0.578,0.816,0.0,0.0
1738225595618603944,0,0,0,0,0,0,0,0,0,2.39,-2.03,7.043,0.66,0.7383,-0.04688,-0.07355,0.10657,0.02911,2.447,-1.734,7.0,0.578,0.816,0.0,0.0
1738225595668612957,0,0,0,0,0,0,0,0,0,2.4,-2.02,7.043,0.664,0.7344,-0.04688,-0.0746,0.109,0.02908,2.504,-1.652,7.0,0.551,0.8345,0.0,0.0
1738225595718597173,0,0,0,0,0,0,0,0,0,2.453,-1.961,7.04,0.6523,0.7383,-0.0547,-0.0695,0.1196,0.02618,2.504,-1.652,7.0,0.551,0.8345,0.0,0.0
1738225595768607854,0,0,0,0,0,0,0,0,0,2.465,-1.946,7.04,0.6484,0.75,-0.0586,-0.0693,0.123,0.02547,2.559,-1.567,7.0,0.5225,0.8525,0.0,0.0
1738225595818591117,0,0,0,0,0,0,0,0,0,2.52,-1.881,7.043,0.625,0.746,-0.0547,-0.06714,0.1279,0.02728,2.559,-1.567,7.0,0.5225,0.8525,0.0,0.0
1738225595868603229,0,0,0,0,0,0,0,0,0,2.533,-1.864,7.043,0.617,0.746,-0.0586,-0.0683,0.1265,0.02835,2.61,-1.481,7.0,0.494,0.8696,0.0,0.0
1738225595918591260,0,0,0,0,0,0,0,0,0,2.576,-1.811,7.04,0.5977,0.754,-0.0547,-0.0627,0.1305,0.02785,2.61,-1.481,7.0,0.494,0.8696,0.0,0.0
1738225595968613624,0,0,0,0,0,0,0,0,0,2.59,-1.795,7.04,0.586,0.7617,-0.0547,-0.06125,0.1335,0.02675,2.656,-1.394,7.0,0.4646,0.8857,0.0,0.0
1738225596018601894,0,0,0,0,0,0,0,0,0,2.637,-1.73,7.035,0.5547,0.7734,-0.0547,-0.0543,0.1383,0.02905,2.656,-1.394,7.0,0.4646,0.8857,0.0,0.0
1738225596068617582,0,0,0,0,0,0,0,0,0,2.646,-1.716,7.03,0.547,0.7695,-0.05078,-0.04953,0.1378,0.03085,2.701,-1.305,7.0,0.4348,0.9004,0.0,0.0
1738225596118606328,0,0,0,0,0,0,0,0,0,2.686,-1.658,7.027,0.5273,0.793,-0.03516,-0.04294,0.1285,0.03027,2.701,-1.305,7.0,0.4348,0.9004,0.0,0.0
1738225596168596982,0,0,0,0,0,0,0,0,0,2.686,-1.658,7.027,0.5273,0.793,-0.03516,-0.04294,0.1285,0.03027,2.744,-1.214,7.0,0.4045,0.9146,0.0,0.0
1738225596218599796,0,0,0,0,0,0,0,0,0,2.723,-1.604,7.03,0.5195,0.797,-0.03516,-0.04312,0.1251,0.02812,2.744,-1.214,7.0,0.4045,0.9146,0.0,0.0
1738225596268616199,0,0,0,0,0,0,0,0,0,2.768,-1.531,7.023,0.4805,0.8203,-0.02344,-0.04483,0.1251,0.02852,2.783,-1.122,7.0,0.3738,0.9272,0.0,0.0
1738225596318605661,0,0,0,0,0,0,0,0,0,2.785,-1.498,7.02,0.4648,0.836,-0.01172,-0.0385,0.1209,0.02849,2.783,-1.122,7.0,0.3738,0.9272,0.0,0.0
1738225596368610858,0,0,0,0,0,0,0,0,0,2.795,-1.48,7.02,0.461,0.8438,-0.007812,-0.03558,0.1218,0.02805,2.818,-1.028,7.0,0.3428,0.9395,0.0,0.0
1738225596418592453,0,0,0,0,0,0,0,0,0,2.83,-1.414,7.02,0.4453,0.8633,0.01172,-0.03078,0.1216,0.03104,2.818,-1.028,7.0,0.3428,0.9395,0.0,0.0
1738225596468594789,0,0,0,0,0,0,0,0,0,2.84,-1.392,7.02,0.4414,0.875,0.01563,-0.02927,0.11725,0.0307,2.852,-0.9336,7.0,0.3113,0.95,0.0,0.0
1738225596518582344,0,0,0,0,0,0,0,0,0,2.84,-1.392,7.02,0.4414,0.875,0.01563,-0.02927,0.11725,0.0307,2.852,-0.9336,7.0,0.3113,0.95,0.0,0.0
1738225596568603992,0,0,0,0,0,0,0,0,0,2.84,-1.392,7.02,0.4414,0.875,0.01563,-0.02927,0.11725,0.0307,2.88,-0.8384,7.0,0.2793,0.96,0.0,0.0
1738225596618596315,0,0,0,0,0,0,0,0,0,2.918,-1.236,7.023,0.4414,0.9023,0.01563,-0.0269,0.1139,0.02794,2.88,-0.8384,7.0,0.2793,0.96,0.0,0.0
1738225596668615102,0,0,0,0,0,0,0,0,0,2.936,-1.198,7.035,0.414,0.9688,0.01172,-0.01768,0.1222,0.02888,2.906,-0.7417,7.0,0.2473,0.9688,0.0,0.0
1738225596718595504,0,0,0,0,0,0,0,0,0,2.957,-1.1455,7.035,0.4062,0.992,0.01172,-0.02235,0.1184,0.02718,2.906,-0.7417,7.0,0.2473,0.9688,0.0,0.0
1738225596768589735,0,0,0,0,0,0,0,0,0,2.975,-1.1,7.035,0.4023,1.008,0.007812,-0.02428,0.1203,0.02545,2.93,-0.6445,7.0,0.2148,0.9766,0.0,0.0
1738225596818590879,0,0,0,0,0,0,0,0,0,3.0,-1.033,7.047,0.3828,1.027,0.007812,-0.02615,0.1278,0.02524,2.93,-0.6445,7.0,0.2148,0.9766,0.0,0.0
1738225596868615865,0,0,0,0,0,0,0,0,0,3.012,-1.0,7.047,0.3594,1.035,0.003906,-0.02438,0.13,0.0257,2.95,-0.5464,7.0,0.1821,0.9834,0.0,0.0
1738225596918598175,0,0,0,0,0,0,0,0,0,3.035,-0.932,7.047,0.3438,1.059,-0.0,-0.02158,0.131,0.0272,2.95,-0.5464,7.0,0.1821,0.9834,0.0,0.0
1738225596968606233,0,0,0,0,0,0,0,0,0,3.043,-0.9014,7.047,0.332,1.074,-0.0,-0.02092,0.133,0.0276,2.967,-0.4478,7.0,0.1493,0.989,0.0,0.0
1738225597018598079,0,0,0,0,0,0,0,0,0,3.068,-0.8174,7.047,0.2969,1.094,-0.007812,-0.0185,0.1453,0.02852,2.967,-0.4478,7.0,0.1493,0.989,0.0,0.0
1738225597068613529,0,0,0,0,0,0,0,0,0,3.078,-0.7803,7.043,0.2812,1.102,-0.003906,-0.01816,0.1473,0.02927,2.98,-0.3489,7.0,0.1163,0.993,0.0,0.0
1738225597118604183,0,0,0,0,0,0,0,0,0,3.092,-0.717,7.043,0.254,1.113,-0.0,-0.028,0.1486,0.0284,2.98,-0.3489,7.0,0.1163,0.993,0.0,0.0
1738225597168610572,0,0,0,0,0,0,0,0,0,3.11,-0.6367,7.043,0.2227,1.121,0.003906,-0.04532,0.1514,0.02902,2.99,-0.2493,7.0,0.08307,0.9966,0.0,0.0
1738225597218593120,0,0,0,0,0,0,0,0,0,3.117,-0.5913,7.04,0.1914,1.105,-0.0,-0.05093,0.1523,0.02917,2.99,-0.2493,7.0,0.08307,0.9966,0.0,0.0
1738225597268620967,0,0,0,0,0,0,0,0,0,3.121,-0.5605,7.04,0.1797,1.105,-0.007812,-0.05518,0.154,0.02943,2.996,-0.1495,7.0,0.04984,0.9985,0.0,0.0
1738225597318606376,0,0,0,0,0,0,0,0,0,3.13,-0.4983,7.04,0.1523,1.098,-0.007812,-0.05905,0.1576,0.02792,2.996,-0.1495,7.0,0.04984,0.9985,0.0,0.0
