time,x_sphinx,y_sphinx,z_sphinx,vx_sphinx,vy_sphinx,vz_sphinx,roll_sphinx,pitch_sphinx,yaw_sphinx,x_anafi,y_anafi,z_anafi,vx_anafi,vy_anafi,vz_anafi,roll_anafi,pitch_anafi,yaw_anafi,wp_x,wp_y,wp_z,wp_vx,wp_vy,wp_vz,wp_yaw
1738225663682247400,0,0,0,0,0,0,0,0,0,2.0,-2.852,7.117,1.48,1.176,-0.1484,0.04608,0.1726,0.01993,3.0,-0.04956,7.0,0.03305,2.0,0.0,0.0
1738225663732252836,0,0,0,0,0,0,0,0,0,2.059,-2.8,7.11,1.449,1.223,-0.1484,0.05334,0.1803,0.02052,3.0,0.0,7.0,-0.0,2.0,0.0,0.0
1738225663782260656,0,0,0,0,0,0,0,0,0,2.148,-2.72,7.1,1.395,1.301,-0.1484,0.056,0.1837,0.0222,3.0,0.0,7.0,-0.0,2.0,0.0,0.0
1738225663832257032,0,0,0,0,0,0,0,0,0,2.193,-2.676,7.105,1.375,1.336,-0.1445,0.05234,0.1803,0.02153,2.994,0.1998,7.0,-0.1332,1.995,0.0,0.0
1738225663882251739,0,0,0,0,0,0,0,0,0,2.25,-2.62,7.098,1.348,1.379,-0.1406,0.052,0.1783,0.0207,2.994,0.1998,7.0,-0.1332,1.995,0.0,0.0
1738225663932256698,0,0,0,0,0,0,0,0,0,2.324,-2.535,7.09,1.277,1.457,-0.1328,0.05316,0.1799,0.01976,2.973,0.399,7.0,-0.2659,1.982,0.0,0.0
1738225663982255220,0,0,0,0,0,0,0,0,0,2.371,-2.479,7.086,1.254,1.496,-0.1211,0.05295,0.1812,0.02002,2.973,0.399,7.0,-0.2659,1.982,0.0,0.0
1738225664032258033,0,0,0,0,0,0,0,0,0,2.447,-2.383,7.074,1.207,1.59,-0.1133,0.05014,0.1819,0.02162,2.94,0.596,7.0,-0.3972,1.96,0.0,0.0
1738225664082257986,0,0,0,0,0,0,0,0,0,2.494,-2.318,7.07,1.184,1.617,-0.1094,0.04834,0.1836,0.02174,2.94,0.596,7.0,-0.3972,1.96,0.0,0.0
1738225664132260799,0,0,0,0,0,0,0,0,0,2.566,-2.215,7.062,1.129,1.664,-0.09766,0.03345,0.1975,0.0205,2.895,0.7905,7.0,-0.527,1.93,0.0,0.0
1738225664182243108,0,0,0,0,0,0,0,0,0,2.566,-2.215,7.062,1.129,1.664,-0.09766,0.03345,0.1975,0.0205,2.895,0.7905,7.0,-0.527,1.93,0.0,0.0
1738225664232252359,0,0,0,0,0,0,0,0,0,2.566,-2.215,7.062,1.129,1.664,-0.09766,0.03345,0.1975,0.0205,2.834,0.9814,7.0,-0.6543,1.89,0.0,0.0
1738225664282260656,0,0,0,0,0,0,0,0,0,2.738,-1.946,7.055,1.02,1.734,-0.08203,0.02087,0.222,0.01978,2.834,0.9814,7.0,-0.6543,1.89,0.0,0.0
1738225664332258462,0,0,0,0,0,0,0,0,0,2.787,-1.85,7.047,0.9023,1.789,-0.0586,0.02438,0.241,0.01955,2.764,1.168,7.0,-0.779,1.842,0.0,0.0
1738225664382250547,0,0,0,0,0,0,0,0,0,2.814,-1.792,7.043,0.84,1.8125,-0.05078,0.02437,0.2454,0.02011,2.764,1.168,7.0,-0.779,1.842,0.0,0.0
1738225664432259321,0,0,0,0,0,0,0,0,0,2.857,-1.6875,7.04,0.746,1.855,-0.05078,0.02193,0.2563,0.02019,2.68,1.35,7.0,-0.9,1.786,0.0,0.0
1738225664482253313,0,0,0,0,0,0,0,0,0,2.885,-1.614,7.035,0.6914,1.871,-0.04688,0.01964,0.259,0.02028,2.68,1.35,7.0,-0.9,1.786,0.0,0.0
1738225664532257795,0,0,0,0,0,0,0,0,0,2.922,-1.505,7.035,0.6133,1.898,-0.03906,0.02199,0.2695,0.0222,2.584,1.525,7.0,-1.017,1.723,0.0,0.0
1738225664582255840,0,0,0,0,0,0,0,0,0,2.955,-1.383,7.03,0.508,1.941,-0.02344,0.02663,0.2727,0.02164,2.584,1.525,7.0,-1.017,1.723,0.0,0.0
1738225664632256746,0,0,0,0,0,0,0,0,0,2.97,-1.3125,7.03,0.4453,1.965,-0.01953,0.02817,0.2717,0.02122,2.477,1.694,7.0,-1.129,1.65,0.0,0.0
1738225664682245731,0,0,0,0,0,0,0,0,0,2.988,-1.215,7.03,0.375,1.992,-0.01953,0.02986,0.2715,0.02109,2.477,1.694,7.0,-1.129,1.65,0.0,0.0
1738225664732268095,0,0,0,0,0,0,0,0,0,3.008,-1.097,7.027,0.3047,2.02,-0.01563,0.02678,0.2715,0.02287,2.357,1.855,7.0,-1.236,1.571,0.0,0.0
1738225664782259225,0,0,0,0,0,0,0,0,0,3.018,-1.008,7.027,0.2422,2.043,-0.01172,0.02507,0.2715,0.02303,2.357,1.855,7.0,-1.236,1.571,0.0,0.0
1738225664832268953,0,0,0,0,0,0,0,0,0,3.03,-0.893,7.027,0.1641,2.066,-0.01172,0.0223,0.2754,0.02393,2.229,2.008,7.0,-1.339,1.486,0.0,0.0
1738225664882248640,0,0,0,0,0,0,0,0,0,3.033,-0.8203,7.023,0.1094,2.09,-0.01563,0.02138,0.277,0.0243,2.229,2.008,7.0,-1.339,1.486,0.0,0.0
1738225664932269811,0,0,0,0,0,0,0,0,0,3.035,-0.6807,7.023,0.03125,2.105,-0.007812,0.01614,0.2788,0.02458,2.09,2.152,7.0,-1.435,1.394,0.0,0.0
1738225664982257604,0,0,0,0,0,0,0,0,0,3.035,-0.598,7.023,-0.01953,2.121,-0.003906,0.01279,0.28,0.02425,2.09,2.152,7.0,-1.435,1.394,0.0,0.0
1738225665032268524,0,0,0,0,0,0,0,0,0,3.03,-0.4758,7.023,-0.10547,2.145,-0.0,0.005905,0.2805,0.02524,1.942,2.287,7.0,-1.524,1.295,0.0,0.0
1738225665082246541,0,0,0,0,0,0,0,0,0,3.023,-0.3962,7.023,-0.1562,2.16,-0.0,0.006847,0.2798,0.02501,1.942,2.287,7.0,-1.524,1.295,0.0,0.0
1738225665132257223,0,0,0,0,0,0,0,0,0,3.01,-0.2568,7.023,-0.2383,2.18,-0.0,0.003023,0.277,0.02434,1.785,2.41,7.0,-1.607,1.19,0.0,0.0
1738225665182258367,0,0,0,0,0,0,0,0,0,2.992,-0.1261,7.02,-0.3164,2.195,0.003906,-0.00925,0.28,0.02274,1.785,2.41,7.0,-1.607,1.19,0.0,0.0
1738225665232267856,0,0,0,0,0,0,0,0,0,2.979,-0.03928,7.02,-0.3555,2.195,0.007812,-0.015076,0.2815,0.02327,1.621,2.523,7.0,-1.683,1.081,0.0,0.0
1738225665282251596,0,0,0,0,0,0,0,0,0,2.963,0.04285,7.02,-0.4023,2.195,0.007812,-0.02126,0.2827,0.02399,1.621,2.523,7.0,-1.683,1.081,0.0,0.0
1738225665332255601,0,0,0,0,0,0,0,0,0,2.93,0.2059,7.016,-0.4727,2.184,0.01172,-0.03824,0.2827,0.0233,1.449,2.627,7.0,-1.751,0.9663,0.0,0.0
1738225665382251262,0,0,0,0,0,0,0,0,0,2.91,0.283,7.016,-0.5273,2.168,0.01563,-0.0452,0.2817,0.02307,1.449,2.627,7.0,-1.751,0.9663,0.0,0.0
1738225665432270050,0,0,0,0,0,0,0,0,0,2.879,0.4028,7.016,-0.586,2.145,0.02344,-0.05914,0.2817,0.0238,1.2705,2.717,7.0,-1.812,0.847,0.0,0.0
1738225665482252120,0,0,0,0,0,0,0,0,0,2.857,0.4766,7.016,-0.629,2.133,0.01953,-0.06152,0.282,0.02359,1.2705,2.717,7.0,-1.812,0.847,0.0,0.0
1738225665532275199,0,0,0,0,0,0,0,0,0,2.812,0.6206,7.016,-0.6914,2.121,0.01172,-0.06216,0.2842,0.02158,1.087,2.797,7.0,-1.864,0.7246,0.0,0.0
1738225665582253456,0,0,0,0,0,0,0,0,0,2.791,0.681,7.02,-0.7344,2.113,0.01172,-0.0643,0.2861,0.02159,1.087,2.797,7.0,-1.864,0.7246,0.0,0.0
1738225665632257461,0,0,0,0,0,0,0,0,0,2.734,0.83,7.023,-0.8086,2.078,0.007812,-0.0646,0.2883,0.02419,0.8984,2.863,7.0,-1.908,0.599,0.0,0.0
1738225665682288646,0,0,0,0,0,0,0,0,0,2.684,0.95,7.023,-0.879,2.062,0.003906,-0.07416,0.286,0.02414,0.8984,2.863,7.0,-1.908,0.599,0.0,0.0
1738225665732255697,0,0,0,0,0,0,0,0,0,2.648,1.031,7.02,-0.918,2.05,0.003906,-0.0787,0.2832,0.02432,0.7056,2.916,7.0,-1.944,0.4705,0.0,0.0
1738225665782257556,0,0,0,0,0,0,0,0,0,2.596,1.142,7.023,-0.9727,2.023,0.003906,-0.0912,0.2776,0.02501,0.7056,2.916,7.0,-1.944,0.4705,0.0,0.0
1738225665832267999,0,0,0,0,0,0,0,0,0,2.596,1.142,7.023,-0.9727,2.023,0.003906,-0.0912,0.2776,0.02501,0.51,2.957,7.0,-1.971,0.3398,0.0,0.0
1738225665882236957,0,0,0,0,0,0,0,0,0,2.596,1.142,7.023,-0.9727,2.023,0.003906,-0.0912,0.2776,0.02501,0.51,2.957,7.0,-1.971,0.3398,0.0,0.0
1738225665932253599,0,0,0,0,0,0,0,0,0,2.47,1.389,7.023,-1.016,1.992,-0.0,-0.09937,0.2751,0.02411,0.3118,2.984,7.0,-1.989,0.2079,0.0,0.0
1738225665982255935,0,0,0,0,0,0,0,0,0,2.39,1.53,7.02,-1.117,1.883,0.007812,-0.1349,0.2646,0.02313,0.3118,2.984,7.0,-1.989,0.2079,0.0,0.0
1738225666032277345,0,0,0,0,0,0,0,0,0,2.34,1.611,7.02,-1.168,1.805,0.01563,-0.1448,0.2612,0.02379,0.11237,2.998,7.0,-1.999,0.0749,0.0,0.0
1738225666082263231,0,0,0,0,0,0,0,0,0,2.29,1.687,7.02,-1.195,1.77,0.01953,-0.1499,0.2607,0.02452,0.11237,2.998,7.0,-1.999,0.0749,0.0,0.0
1738225666132258653,0,0,0,0,0,0,0,0,0,2.217,1.786,7.016,-1.242,1.695,0.03516,-0.1552,0.261,0.02382,-0.0876,2.998,7.0,-1.999,-0.0584,0.0,0.0
1738225666182260274,0,0,0,0,0,0,0,0,0,2.145,1.88,7.01,-1.297,1.625,0.05078,-0.1613,0.2651,0.02393,-0.0876,2.998,7.0,-1.999,-0.0584,0.0,0.0
1738225666232245206,0,0,0,0,0,0,0,0,0,2.09,1.945,7.01,-1.32,1.574,0.0547,-0.1658,0.2688,0.02376,-0.287,2.986,7.0,-1.991,-0.1914,0.0,0.0
1738225666282265663,0,0,0,0,0,0,0,0,0,2.014,2.031,7.01,-1.367,1.5,0.04688,-0.1792,0.2764,0.02278,-0.287,2.986,7.0,-1.991,-0.1914,0.0,0.0
1738225666332247257,0,0,0,0,0,0,0,0,0,1.946,2.1,7.01,-1.398,1.445,0.05078,-0.188,0.2778,0.02182,-0.4854,2.96,7.0,-1.974,-0.3237,0.0,0.0
1738225666382260560,0,0,0,0,0,0,0,0,0,1.874,2.17,7.01,-1.445,1.359,0.05078,-0.2043,0.2766,0.023,-0.4854,2.96,7.0,-1.974,-0.3237,0.0,0.0
1738225666432242155,0,0,0,0,0,0,0,0,0,1.874,2.17,7.01,-1.445,1.359,0.05078,-0.2043,0.2766,0.023,-0.6816,2.922,7.0,-1.947,-0.4543,0.0,0.0
1738225666482252120,0,0,0,0,0,0,0,0,0,1.728,2.297,7.01,-1.469,1.281,0.0625,-0.2092,0.2744,0.02393,-0.6816,2.922,7.0,-1.947,-0.4543,0.0,0.0
1738225666532262325,0,0,0,0,0,0,0,0,0,1.647,2.363,7.01,-1.508,1.191,0.0625,-0.2135,0.273,0.02338,-0.8745,2.87,7.0,-1.913,-0.583,0.0,0.0
1738225666582242965,0,0,0,0,0,0,0,0,0,1.57,2.416,7.01,-1.57,1.035,0.04297,-0.2336,0.277,0.02153,-0.8745,2.87,7.0,-1.913,-0.583,0.0,0.0
1738225666632259607,0,0,0,0,0,0,0,0,0,1.506,2.455,7.01,-1.598,0.9336,0.03906,-0.2356,0.2788,0.02216,-1.063,2.805,7.0,-1.87,-0.7095,0.0,0.0
1738225666682258605,0,0,0,0,0,0,0,0,0,1.408,2.506,7.008,-1.641,0.828,0.04688,-0.2379,0.279,0.02043,-1.063,2.805,7.0,-1.87,-0.7095,0.0,0.0
1738225666732226610,0,0,0,0,0,0,0,0,0,1.33,2.541,7.004,-1.668,0.758,0.05078,-0.24,0.2773,0.01987,-1.248,2.729,7.0,-1.818,-0.8325,0.0,0.0
1738225666782253742,0,0,0,0,0,0,0,0,0,1.259,2.57,7.004,-1.695,0.699,0.05078,-0.2422,0.2761,0.01984,-1.248,2.729,7.0,-1.818,-0.8325,0.0,0.0
1738225666832273244,0,0,0,0,0,0,0,0,0,1.163,2.604,7.004,-1.738,0.59,0.0586,-0.2426,0.275,0.0209,-1.428,2.639,7.0,-1.759,-0.9517,0.0,0.0
1738225666882254123,0,0,0,0,0,0,0,0,0,1.103,2.623,7.0,-1.758,0.539,0.0586,-0.242,0.2727,0.02213,-1.428,2.639,7.0,-1.759,-0.9517,0.0,0.0
1738225666932265758,0,0,0,0,0,0,0,0,0,0.986,2.652,7.0,-1.793,0.4258,0.0664,-0.2432,0.27,0.02068,-1.6,2.537,7.0,-1.691,-1.066,0.0,0.0
1738225666982265233,0,0,0,0,0,0,0,0,0,0.9204,2.666,7.0,-1.816,0.375,0.0742,-0.2394,0.2686,0.02136,-1.6,2.537,7.0,-1.691,-1.066,0.0,0.0
1738225667032271385,0,0,0,0,0,0,0,0,0,0.7974,2.686,7.004,-1.867,0.254,0.0703,-0.2246,0.2627,0.02238,-1.766,2.426,7.0,-1.617,-1.177,0.0,0.0
1738225667082267761,0,0,0,0,0,0,0,0,0,0.733,2.693,7.008,-1.879,0.2227,0.0664,-0.2228,0.2612,0.02179,-1.766,2.426,7.0,-1.617,-1.177,0.0,0.0
1738225667132249355,0,0,0,0,0,0,0,0,0,0.62,2.703,7.01,-1.914,0.1445,0.03516,-0.2205,0.2644,0.0195,-1.923,2.303,7.0,-1.535,-1.282,0.0,0.0
1738225667182254791,0,0,0,0,0,0,0,0,0,0.5435,2.707,7.01,-1.9375,0.10156,0.01953,-0.2235,0.2651,0.01865,-1.923,2.303,7.0,-1.535,-1.282,0.0,0.0
1738225667232265710,0,0,0,0,0,0,0,0,0,0.4211,2.707,7.008,-1.984,0.0,0.007812,-0.234,0.2568,0.01686,-2.072,2.17,7.0,-1.446,-1.382,0.0,0.0
1738225667282256364,0,0,0,0,0,0,0,0,0,0.3457,2.707,7.004,-2.004,-0.04688,0.01172,-0.2361,0.2507,0.01643,-2.072,2.17,7.0,-1.446,-1.382,0.0,0.0
1738225667332244873,0,0,0,0,0,0,0,0,0,0.2139,2.7,7.004,-2.031,-0.1406,0.02734,-0.2324,0.2336,0.019,-2.213,2.027,7.0,-1.351,-1.475,0.0,0.0
1738225667382241487,0,0,0,0,0,0,0,0,0,0.1504,2.693,7.008,-2.04,-0.1836,0.03125,-0.2289,0.2267,0.01997,-2.213,2.027,7.0,-1.351,-1.475,0.0,0.0
1738225667432242393,0,0,0,0,0,0,0,0,0,0.0164,2.678,6.996,-2.062,-0.2695,0.01953,-0.2192,0.2123,0.02174,-2.342,1.875,7.0,-1.25,-1.562,0.0,0.0
1738225667482256889,0,0,0,0,0,0,0,0,0,-0.0803,2.662,6.996,-2.066,-0.3086,0.02734,-0.2189,0.2076,0.02304,-2.342,1.875,7.0,-1.25,-1.562,0.0,0.0
1738225667532263517,0,0,0,0,0,0,0,0,0,-0.1876,2.643,7.0,-2.062,-0.379,0.03516,-0.2181,0.193,0.02284,-2.463,1.714,7.0,-1.143,-1.642,0.0,0.0
1738225667582265138,0,0,0,0,0,0,0,0,0,-0.3313,2.613,6.996,-2.059,-0.4453,0.03906,-0.2142,0.1833,0.02031,-2.463,1.714,7.0,-1.143,-1.642,0.0,0.0
1738225667632266759,0,0,0,0,0,0,0,0,0,-0.4016,2.598,6.984,-2.047,-0.4766,0.03516,-0.209,0.1765,0.021,-2.57,1.547,7.0,-1.031,-1.714,0.0,0.0
1738225667682268619,0,0,0,0,0,0,0,0,0,-0.4788,2.578,6.984,-2.04,-0.508,0.0586,-0.205,0.1698,0.02242,-2.57,1.547,7.0,-1.031,-1.714,0.0,0.0
1738225667732270956,0,0,0,0,0,0,0,0,0,-0.603,2.545,6.996,-2.016,-0.5703,0.08203,-0.1979,0.1515,0.02173,-2.668,1.372,7.0,-0.9146,-1.778,0.0,0.0
1738225667782256841,0,0,0,0,0,0,0,0,0,-0.7285,2.506,7.008,-1.977,-0.625,0.0625,-0.2028,0.1401,0.0219,-2.668,1.372,7.0,-0.9146,-1.778,0.0,0.0
1738225667832260370,0,0,0,0,0,0,0,0,0,-0.7935,2.484,7.01,-1.957,-0.6484,0.05078,-0.2062,0.1346,0.02283,-2.754,1.191,7.0,-0.794,-1.836,0.0,0.0
1738225667882244586,0,0,0,0,0,0,0,0,0,-0.7935,2.484,7.01,-1.957,-0.6484,0.05078,-0.2062,0.1346,0.02283,-2.754,1.191,7.0,-0.794,-1.836,0.0,0.0
1738225667932254552,0,0,0,0,0,0,0,0,0,-0.7935,2.484,7.01,-1.957,-0.6484,0.05078,-0.2062,0.1346,0.02283,-2.826,1.005,7.0,-0.67,-1.885,0.0,0.0
1738225667982259035,0,0,0,0,0,0,0,0,0,-1.091,2.38,7.008,-1.918,-0.6914,0.01172,-0.2086,0.1279,0.02213,-2.826,1.005,7.0,-0.67,-1.885,0.0,0.0
1738225668032261133,0,0,0,0,0,0,0,0,0,-1.183,2.342,7.04,-1.82,-0.8086,-0.003906,-0.2158,0.11096,0.02179,-2.887,0.8145,7.0,-0.543,-1.925,0.0,0.0
1738225668082257986,0,0,0,0,0,0,0,0,0,-1.261,2.307,7.04,-1.793,-0.8438,-0.0,-0.2179,0.1078,0.02165,-2.887,0.8145,7.0,-0.543,-1.925,0.0,0.0
1738225668132262229,0,0,0,0,0,0,0,0,0,-1.354,2.26,7.035,-1.742,-0.8984,0.003906,-0.219,0.1019,0.02199,-2.936,0.62,7.0,-0.4136,-1.957,0.0,0.0
1738225668182246446,0,0,0,0,0,0,0,0,0,-1.354,2.26,7.035,-1.742,-0.8984,0.003906,-0.219,0.1019,0.02199,-2.936,0.62,7.0,-0.4136,-1.957,0.0,0.0
1738225668232256650,0,0,0,0,0,0,0,0,0,-1.354,2.26,7.035,-1.742,-0.8984,0.003906,-0.219,0.1019,0.02199,-2.97,0.4233,7.0,-0.2822,-1.98,0.0,0.0
1738225668282253742,0,0,0,0,0,0,0,0,0,-1.633,2.104,7.04,-1.695,-0.9453,0.003906,-0.2198,0.0976,0.02243,-2.97,0.4233,7.0,-0.2822,-1.98,0.0,0.0
1738225668332253217,0,0,0,0,0,0,0,0,0,-1.698,2.064,7.035,-1.621,-1.004,-0.003906,-0.2284,0.0916,0.02368,-2.992,0.2246,7.0,-0.1497,-1.994,0.0,0.0
1738225668382275104,0,0,0,0,0,0,0,0,0,-1.788,1.996,7.02,-1.488,-1.148,0.003906,-0.2299,0.093,0.02296,-2.992,0.2246,7.0,-0.1497,-1.994,0.0,0.0
1738225668432700157,0,0,0,0,0,0,0,0,0,-1.846,1.95,7.02,-1.473,-1.176,0.01563,-0.2289,0.0938,0.02144,-3.0,0.02478,7.0,-0.01653,-2.0,0.0,0.0
1738225668482256174,0,0,0,0,0,0,0,0,0,-1.878,1.923,7.02,-1.422,-1.199,0.01953,-0.2258,0.09436,0.02115,-3.0,0.02478,7.0,-0.01653,-2.0,0.0,0.0
1738225668532262563,0,0,0,0,0,0,0,0,0,-1.987,1.825,7.016,-1.367,-1.254,0.01172,-0.2266,0.0926,0.01959,-2.994,-0.1752,7.0,0.11676,-1.997,0.0,0.0
1738225668582264423,0,0,0,0,0,0,0,0,0,-2.006,1.807,7.016,-1.34,-1.277,0.007812,-0.2289,0.0902,0.01915,-2.994,-0.1752,7.0,0.11676,-1.997,0.0,0.0
1738225668632277011,0,0,0,0,0,0,0,0,0,-2.133,1.677,7.008,-1.281,-1.34,0.003906,-0.2349,0.0833,0.01944,-2.977,-0.3743,7.0,0.2495,-1.984,0.0,0.0
1738225668682272195,0,0,0,0,0,0,0,0,0,-2.176,1.629,7.004,-1.207,-1.395,-0.0,-0.247,0.0824,0.01834,-2.977,-0.3743,7.0,0.2495,-1.984,0.0,0.0
1738225668732275247,0,0,0,0,0,0,0,0,0,-2.234,1.557,7.0,-1.164,-1.449,-0.003906,-0.2401,0.0808,0.01941,-2.945,-0.572,7.0,0.381,-1.963,0.0,0.0
1738225668782279968,0,0,0,0,0,0,0,0,0,-2.285,1.49,7.0,-1.129,-1.484,-0.0,-0.239,0.07837,0.0179,-2.945,-0.572,7.0,0.381,-1.963,0.0,0.0
1738225668832267045,0,0,0,0,0,0,0,0,0,-2.346,1.405,6.992,-1.086,-1.531,-0.0,-0.2363,0.0733,0.01775,-2.9,-0.7666,7.0,0.511,-1.934,0.0,0.0
1738225668882265806,0,0,0,0,0,0,0,0,0,-2.393,1.336,6.992,-1.047,-1.5625,-0.0,-0.2356,0.0707,0.01869,-2.9,-0.7666,7.0,0.511,-1.934,0.0,0.0
1738225668932279825,0,0,0,0,0,0,0,0,0,-2.447,1.252,6.992,-0.996,-1.594,0.003906,-0.2363,0.06116,0.01794,-2.844,-0.958,7.0,0.6387,-1.8955,0.0,0.0
1738225668982279539,0,0,0,0,0,0,0,0,0,-2.512,1.141,6.99,-0.9336,-1.645,0.003906,-0.2388,0.0584,0.01845,-2.844,-0.958,7.0,0.6387,-1.8955,0.0,0.0
1738225669032281875,0,0,0,0,0,0,0,0,0,-2.54,1.087,6.99,-0.8984,-1.668,0.003906,-0.241,0.05798,0.01869,-2.773,-1.1455,7.0,0.7637,-1.849,0.0,0.0
1738225669082272052,0,0,0,0,0,0,0,0,0,-2.576,1.014,6.98,-0.8555,-1.707,0.007812,-0.2435,0.05734,0.0193,-2.773,-1.1455,7.0,0.7637,-1.849,0.0,0.0
1738225669132267951,0,0,0,0,0,0,0,0,0,-2.627,0.9062,6.977,-0.801,-1.762,0.003906,-0.2466,0.052,0.01952,-2.69,-1.327,7.0,0.8853,-1.794,0.0,0.0
1738225669182267665,0,0,0,0,0,0,0,0,0,-2.656,0.838,6.973,-0.7695,-1.785,0.003906,-0.2448,0.05045,0.01901,-2.69,-1.327,7.0,0.8853,-1.794,0.0,0.0
1738225669232273578,0,0,0,0,0,0,0,0,0,-2.7,0.729,6.973,-0.703,-1.84,0.007812,-0.2357,0.04758,0.0187,-2.596,-1.504,7.0,1.003,-1.73,0.0,0.0
1738225669282266139,0,0,0,0,0,0,0,0,0,-2.73,0.644,6.973,-0.668,-1.863,0.01172,-0.2324,0.0431,0.01845,-2.596,-1.504,7.0,1.003,-1.73,0.0,0.0
1738225669332256555,0,0,0,0,0,0,0,0,0,-2.768,0.525,6.97,-0.59,-1.906,0.01172,-0.227,0.0325,0.01878,-2.49,-1.674,7.0,1.115,-1.66,0.0,0.0
1738225669382250785,0,0,0,0,0,0,0,0,0,-2.787,0.4624,6.97,-0.5586,-1.922,0.007812,-0.2241,0.02776,0.0196,-2.49,-1.674,7.0,1.115,-1.66,0.0,0.0
1738225669432253360,0,0,0,0,0,0,0,0,0,-2.818,0.338,6.973,-0.4766,-1.973,0.01172,-0.2211,0.02278,0.01933,-2.373,-1.836,7.0,1.224,-1.582,0.0,0.0
1738225669482244968,0,0,0,0,0,0,0,0,0,-2.834,0.2632,6.98,-0.4414,-1.984,0.01172,-0.2175,0.01915,0.01903,-2.373,-1.836,7.0,1.224,-1.582,0.0,0.0
1738225669532253503,0,0,0,0,0,0,0,0,0,-2.857,0.144,6.98,-0.3672,-2.016,0.007812,-0.2096,0.01628,0.0183,-2.246,-1.989,7.0,1.326,-1.497,0.0,0.0
1738225669582252502,0,0,0,0,0,0,0,0,0,-2.877,0.01897,6.98,-0.2969,-2.035,-0.0,-0.2045,0.01461,0.01924,-2.246,-1.989,7.0,1.326,-1.497,0.0,0.0
1738225669632250785,0,0,0,0,0,0,0,0,0,-2.887,-0.0658,6.98,-0.2344,-2.031,0.003906,-0.2008,0.01311,0.01929,-2.107,-2.135,7.0,1.423,-1.405,0.0,0.0
1738225669682253599,0,0,0,0,0,0,0,0,0,-2.893,-0.1357,6.98,-0.1914,-2.043,0.003906,-0.1946,0.01,0.01706,-2.107,-2.135,7.0,1.423,-1.405,0.0,0.0
1738225669732258319,0,0,0,0,0,0,0,0,0,-2.902,-0.2705,6.98,-0.1133,-2.047,0.003906,-0.1853,0.00681,0.01653,-1.961,-2.27,7.0,1.514,-1.308,0.0,0.0
1738225669782259225,0,0,0,0,0,0,0,0,0,-2.906,-0.3867,6.98,-0.03906,-2.047,0.007812,-0.1772,0.002264,0.0172,-1.961,-2.27,7.0,1.514,-1.308,0.0,0.0
1738225669832279443,0,0,0,0,0,0,0,0,0,-2.904,-0.4722,6.98,0.003906,-2.05,0.01172,-0.1748,0.0015135,0.01727,-1.806,-2.396,7.0,1.598,-1.203,0.0,0.0
1738225669882275819,0,0,0,0,0,0,0,0,0,-2.9,-0.5996,6.98,0.08594,-2.027,0.01172,-0.1693,-0.002579,0.01724,-1.806,-2.396,7.0,1.598,-1.203,0.0,0.0
1738225669932279348,0,0,0,0,0,0,0,0,0,-2.896,-0.6826,6.98,0.1328,-2.02,0.007812,-0.1676,-0.003456,0.0172,-1.642,-2.512,7.0,1.674,-1.095,0.0,0.0
1738225669982261180,0,0,0,0,0,0,0,0,0,-2.885,-0.7935,6.98,0.2031,-2.016,0.003906,-0.1581,-0.001536,0.01616,-1.642,-2.512,7.0,1.674,-1.095,0.0,0.0
1738225670032277584,0,0,0,0,0,0,0,0,0,-2.873,-0.886,6.98,0.2734,-1.984,0.007812,-0.1555,-0.0004613,0.01608,-1.471,-2.615,7.0,1.743,-0.9805,0.0,0.0
1738225670082268238,0,0,0,0,0,0,0,0,0,-2.855,-0.991,6.98,0.3281,-1.965,0.01172,-0.1378,5.114e-05,0.01492,-1.471,-2.615,7.0,1.743,-0.9805,0.0,0.0
1738225670132272720,0,0,0,0,0,0,0,0,0,-2.842,-1.066,6.98,0.3633,-1.945,0.01172,-0.1329,-0.001439,0.015144,-1.293,-2.707,7.0,1.805,-0.8623,0.0,0.0
1738225670182262420,0,0,0,0,0,0,0,0,0,-2.818,-1.179,6.984,0.4258,-1.918,0.003906,-0.1265,-0.006855,0.01536,-1.293,-2.707,7.0,1.805,-0.8623,0.0,0.0
1738225670232265472,0,0,0,0,0,0,0,0,0,-2.799,-1.255,6.98,0.4766,-1.883,-0.0,-0.12396,-0.008156,0.0164,-1.11,-2.787,7.0,1.858,-0.74,0.0,0.0
1738225670282265186,0,0,0,0,0,0,0,0,0,-2.777,-1.335,6.984,0.508,-1.855,-0.0,-0.1231,-0.00968,0.0176,-1.11,-2.787,7.0,1.858,-0.74,0.0,0.0
1738225670332266569,0,0,0,0,0,0,0,0,0,-2.742,-1.45,6.98,0.5703,-1.832,-0.01172,-0.12103,-0.01079,0.01778,-0.922,-2.855,7.0,1.903,-0.6147,0.0,0.0
1738225670382256984,0,0,0,0,0,0,0,0,0,-2.71,-1.545,6.98,0.633,-1.797,-0.01563,-0.1178,-0.01755,0.01962,-0.922,-2.855,7.0,1.903,-0.6147,0.0,0.0
1738225670432271003,0,0,0,0,0,0,0,0,0,-2.678,-1.627,6.98,0.6914,-1.75,-0.01172,-0.1148,-0.02156,0.02068,-0.73,-2.91,7.0,1.939,-0.4866,0.0,0.0
1738225670482247352,0,0,0,0,0,0,0,0,0,-2.654,-1.682,6.98,0.7188,-1.734,-0.01172,-0.11096,-0.02525,0.02072,-0.73,-2.91,7.0,1.939,-0.4866,0.0,0.0
1738225670532260894,0,0,0,0,0,0,0,0,0,-2.602,-1.8,6.98,0.797,-1.6875,-0.01563,-0.1094,-0.02968,0.02083,-0.534,-2.951,7.0,1.968,-0.3562,0.0,0.0
1738225670582255840,0,0,0,0,0,0,0,0,0,-2.572,-1.859,6.98,0.828,-1.668,-0.01563,-0.1081,-0.03114,0.021,-0.534,-2.951,7.0,1.968,-0.3562,0.0,0.0
1738225670632266521,0,0,0,0,0,0,0,0,0,-2.516,-1.958,6.977,0.914,-1.598,-0.01172,-0.10596,-0.03894,0.02199,-0.3364,-2.98,7.0,1.987,-0.2244,0.0,0.0
1738225670682270050,0,0,0,0,0,0,0,0,0,-2.482,-2.014,6.977,0.957,-1.582,-0.01172,-0.10516,-0.04245,0.02278,-0.3364,-2.98,7.0,1.987,-0.2244,0.0,0.0
1738225670732266426,0,0,0,0,0,0,0,0,0,-2.414,-2.12,6.977,1.043,-1.543,-0.01172,-0.10156,-0.05283,0.02383,-0.1371,-2.996,7.0,1.998,-0.09143,0.0,0.0
1738225670782261848,0,0,0,0,0,0,0,0,0,-2.38,-2.166,6.977,1.098,-1.52,-0.007812,-0.096,-0.05588,0.02505,-0.1371,-2.996,7.0,1.998,-0.09143,0.0,0.0
1738225670832256793,0,0,0,0,0,0,0,0,0,-2.295,-2.273,6.977,1.199,-1.473,-0.003906,-0.0871,-0.0634,0.0255,0.0628,-3.0,7.0,2.0,0.0419,0.0,0.0
1738225670882264614,0,0,0,0,0,0,0,0,0,-2.252,-2.322,6.977,1.254,-1.449,-0.003906,-0.0824,-0.06647,0.02402,0.0628,-3.0,7.0,2.0,0.0419,0.0,0.0
1738225670932256937,0,0,0,0,0,0,0,0,0,-2.174,-2.404,6.977,1.352,-1.371,-0.0,-0.0704,-0.0652,0.02258,0.2625,-2.988,7.0,1.992,0.175,0.0,0.0
1738225670982258319,0,0,0,0,0,0,0,0,0,-2.115,-2.46,6.977,1.414,-1.332,-0.003906,-0.0672,-0.0631,0.02266,0.2625,-2.988,7.0,1.992,0.175,0.0,0.0
1738225671032270669,0,0,0,0,0,0,0,0,0,-2.03,-2.533,6.973,1.512,-1.273,-0.007812,-0.06152,-0.05145,0.02272,0.461,-2.965,7.0,1.977,0.3074,0.0,0.0
1738225671082256793,0,0,0,0,0,0,0,0,0,-1.965,-2.586,6.973,1.551,-1.258,-0.007812,-0.05975,-0.04413,0.02295,0.461,-2.965,7.0,1.977,0.3074,0.0,0.0
1738225671132270097,0,0,0,0,0,0,0,0,0,-1.873,-2.654,6.977,1.621,-1.191,-0.0,-0.05142,-0.02348,0.02258,0.657,-2.928,7.0,1.951,0.4382,0.0,0.0
1738225671182265758,0,0,0,0,0,0,0,0,0,-1.8125,-2.697,6.973,1.648,-1.152,-0.0,-0.0501,-0.01642,0.02228,0.657,-2.928,7.0,1.951,0.4382,0.0,0.0
1738225671232269525,0,0,0,0,0,0,0,0,0,-1.697,-2.773,6.97,1.703,-1.078,0.003906,-0.0446,-0.00255,0.02252,0.851,-2.877,7.0,1.918,0.5674,0.0,0.0
1738225671282266616,0,0,0,0,0,0,0,0,0,-1.63,-2.812,6.97,1.723,-1.043,0.01172,-0.03918,0.0004473,0.02283,0.851,-2.877,7.0,1.918,0.5674,0.0,0.0
1738225671332275390,0,0,0,0,0,0,0,0,0,-1.528,-2.871,6.97,1.754,-0.9727,0.01953,-0.03143,0.006954,0.02284,1.041,-2.814,7.0,1.876,0.694,0.0,0.0
1738225671382252693,0,0,0,0,0,0,0,0,0,-1.465,-2.904,6.97,1.773,-0.9375,0.01953,-0.03091,0.00793,0.02307,1.041,-2.814,7.0,1.876,0.694,0.0,0.0
1738225671432264089,0,0,0,0,0,0,0,0,0,-1.354,-2.959,6.97,1.8125,-0.8477,0.01953,-0.02838,0.01548,0.02383,1.226,-2.738,7.0,1.825,0.8174,0.0,0.0
1738225671482270240,0,0,0,0,0,0,0,0,0,-1.274,-2.994,6.965,1.824,-0.8125,0.01953,-0.02824,0.01706,0.02357,1.226,-2.738,7.0,1.825,0.8174,0.0,0.0
1738225671532266139,0,0,0,0,0,0,0,0,0,-1.171,-3.037,6.965,1.848,-0.75,0.03125,-0.02477,0.02167,0.02391,1.405,-2.65,7.0,1.767,0.937,0.0,0.0
1738225671582255601,0,0,0,0,0,0,0,0,0,-1.086,-3.07,6.965,1.855,-0.7188,0.03906,-0.02072,0.02272,0.02492,1.405,-2.65,7.0,1.767,0.937,0.0,0.0
1738225671632271528,0,0,0,0,0,0,0,0,0,-0.9883,-3.104,6.965,1.891,-0.621,0.05078,-0.01328,0.02275,0.02365,1.579,-2.55,7.0,1.7,1.053,0.0,0.0
1738225671682270526,0,0,0,0,0,0,0,0,0,-0.9033,-3.129,6.773,1.898,-0.578,0.0586,-0.00997,0.02368,0.0238,1.579,-2.55,7.0,1.7,1.053,0.0,0.0
1738225671732271909,0,0,0,0,0,0,0,0,0,-0.7925,-3.16,6.77,1.914,-0.504,0.0625,-0.00457,0.02545,0.02472,1.745,-2.44,7.0,1.627,1.164,0.0,0.0
1738225671782246351,0,0,0,0,0,0,0,0,0,-0.7925,-3.16,6.77,1.914,-0.504,0.0625,-0.00457,0.02545,0.02472,1.745,-2.44,7.0,1.627,1.164,0.0,0.0
1738225671832267284,0,0,0,0,0,0,0,0,0,-0.7925,-3.16,6.77,1.914,-0.504,0.0625,-0.00457,0.02545,0.02472,1.904,-2.318,7.0,1.546,1.27,0.0,0.0
1738225671882262468,0,0,0,0,0,0,0,0,0,-0.507,-3.229,6.77,1.918,-0.461,0.0703,-0.002974,0.0269,0.02402,1.904,-2.318,7.0,1.546,1.27,0.0,0.0
1738225671932264566,0,0,0,0,0,0,0,0,0,-0.3882,-3.246,6.79,1.941,-0.2812,0.08203,0.010025,0.0327,0.02336,2.055,-2.186,7.0,1.458,1.369,0.0,0.0
1738225671982260704,0,0,0,0,0,0,0,0,0,-0.279,-3.26,6.8,1.9375,-0.1836,0.1133,0.02298,0.04172,0.02429,2.055,-2.186,7.0,1.458,1.369,0.0,0.0
1738225672032266855,0,0,0,0,0,0,0,0,0,-0.214,-3.264,6.805,1.93,-0.1484,0.1367,0.02664,0.04254,0.02426,2.195,-2.045,7.0,1.363,1.464,0.0,0.0
1738225672082259654,0,0,0,0,0,0,0,0,0,-0.1315,-3.268,6.81,1.93,-0.08203,0.1992,0.03058,0.04272,0.02495,2.195,-2.045,7.0,1.363,1.464,0.0,0.0
1738225672132264614,0,0,0,0,0,0,0,0,0,-0.02338,-3.27,6.812,1.93,0.0,0.2305,0.0458,0.04156,0.02452,2.326,-1.894,7.0,1.263,1.551,0.0,0.0
1738225672182263374,0,0,0,0,0,0,0,0,0,0.079,-3.266,6.81,1.93,0.0586,0.2305,0.04706,0.04413,0.024,2.326,-1.894,7.0,1.263,1.551,0.0,0.0
1738225672232265949,0,0,0,0,0,0,0,0,0,0.1772,-3.26,6.816,1.922,0.1562,0.2344,0.0405,0.0427,0.02577,2.447,-1.734,7.0,1.156,1.632,0.0,0.0
1738225672282260656,0,0,0,0,0,0,0,0,0,0.2632,-3.25,6.824,1.926,0.2031,0.2383,0.03665,0.04044,0.02565,2.447,-1.734,7.0,1.156,1.632,0.0,0.0
1738225672332267999,0,0,0,0,0,0,0,0,0,0.344,-3.24,6.83,1.93,0.2383,0.2383,0.03247,0.03845,0.02419,2.559,-1.567,7.0,1.045,1.705,0.0,0.0
1738225672382263660,0,0,0,0,0,0,0,0,0,0.4727,-3.22,6.84,1.9375,0.3203,0.2266,0.02716,0.0368,0.0226,2.559,-1.567,7.0,1.045,1.705,0.0,0.0
1738225672432266235,0,0,0,0,0,0,0,0,0,0.5625,-3.203,6.848,1.926,0.3984,0.2266,0.03183,0.05276,0.02148,2.656,-1.394,7.0,0.929,1.771,0.0,0.0
1738225672482262372,0,0,0,0,0,0,0,0,0,0.66,-3.18,6.855,1.918,0.4453,0.2305,0.03656,0.05896,0.02171,2.656,-1.394,7.0,0.929,1.771,0.0,0.0
1738225672532272338,0,0,0,0,0,0,0,0,0,0.771,-3.15,6.863,1.902,0.5195,0.2266,0.04224,0.0726,0.02243,2.744,-1.214,7.0,0.809,1.829,0.0,0.0
1738225672582230806,0,0,0,0,0,0,0,0,0,0.8438,-3.129,6.867,1.891,0.5664,0.2266,0.0413,0.0739,0.02327,2.744,-1.214,7.0,0.809,1.829,0.0,0.0
1738225672632265567,0,0,0,0,0,0,0,0,0,0.9473,-3.094,6.875,1.852,0.664,0.2188,0.04886,0.07385,0.02283,2.818,-1.028,7.0,0.6855,1.879,0.0,0.0
1738225672682262182,0,0,0,0,0,0,0,0,0,1.037,-3.059,6.883,1.84,0.707,0.2188,0.05023,0.0762,0.02257,2.818,-1.028,7.0,0.6855,1.879,0.0,0.0
1738225672732276916,0,0,0,0,0,0,0,0,0,1.139,-3.018,6.89,1.82,0.7773,0.207,0.0496,0.0831,0.02284,2.88,-0.8384,7.0,0.5586,1.92,0.0,0.0
1738225672782263755,0,0,0,0,0,0,0,0,0,1.209,-2.984,6.895,1.805,0.824,0.1914,0.05005,0.08606,0.02159,2.88,-0.8384,7.0,0.5586,1.92,0.0,0.0
1738225672832277297,0,0,0,0,0,0,0,0,0,1.31,-2.936,6.906,1.781,0.8867,0.1797,0.05374,0.0963,0.02191,2.93,-0.6445,7.0,0.4297,1.953,0.0,0.0
1738225672882257938,0,0,0,0,0,0,0,0,0,1.392,-2.893,6.914,1.762,0.9375,0.1758,0.05566,0.10016,0.0226,2.93,-0.6445,7.0,0.4297,1.953,0.0,0.0
1738225672932278871,0,0,0,0,0,0,0,0,0,1.488,-2.838,6.92,1.734,1.008,0.1602,0.05923,0.1114,0.0225,2.967,-0.4478,7.0,0.2986,1.978,0.0,0.0
1738225672982268095,0,0,0,0,0,0,0,0,0,1.554,-2.797,6.93,1.707,1.051,0.1445,0.05832,0.1141,0.02315,2.967,-0.4478,7.0,0.2986,1.978,0.0,0.0
1738225673032275676,0,0,0,0,0,0,0,0,0,1.666,-2.723,6.94,1.656,1.129,0.1328,0.05743,0.1181,0.02383,2.99,-0.2493,7.0,0.1661,1.993,0.0,0.0
1738225673082256078,0,0,0,0,0,0,0,0,0,1.722,-2.684,6.945,1.637,1.164,0.1289,0.05905,0.1186,0.02248,2.99,-0.2493,7.0,0.1661,1.993,0.0,0.0
