time,x_sphinx,y_sphinx,z_sphinx,vx_sphinx,vy_sphinx,vz_sphinx,roll_sphinx,pitch_sphinx,yaw_sphinx,x_anafi,y_anafi,z_anafi,vx_anafi,vy_anafi,vz_anafi,roll_anafi,pitch_anafi,yaw_anafi,wp_x,wp_y,wp_z,wp_vx,wp_vy,wp_vz,wp_yaw
1738224726136721134,0,0,0,0,0,0,0,0,0,2.043,-0.3643,6.953,0.3555,1.152,0.0625,-0.06204,0.168,0.0302,1.999,-0.06635,7.0,0.03317,0.9995,0.0,0.0
1738224726186716318,0,0,0,0,0,0,0,0,0,2.059,-0.3096,6.953,0.3438,1.152,0.0625,-0.0626,0.1702,0.03021,2.0,0.0,7.0,-0.0,1.0,0.0,0.0
1738224726236710548,0,0,0,0,0,0,0,0,0,2.074,-0.2482,6.957,0.3008,1.148,0.04688,-0.06213,0.1777,0.03052,2.0,0.0,7.0,-0.0,1.0,0.0,0.0
1738224726286712646,0,0,0,0,0,0,0,0,0,2.088,-0.1979,6.96,0.2852,1.152,0.04297,-0.06235,0.1813,0.0304,1.997,0.1,7.0,-0.05,0.9985,0.0,0.0
1738224726336717605,0,0,0,0,0,0,0,0,0,2.104,-0.1316,6.97,0.2578,1.152,0.05078,-0.06158,0.1873,0.03004,1.997,0.1,7.0,-0.05,0.9985,0.0,0.0
1738224726386713266,0,0,0,0,0,0,0,0,0,2.115,-0.0689,6.97,0.2344,1.152,0.0547,-0.06238,0.1892,0.03027,1.99,0.1997,7.0,-0.09985,0.995,0.0,0.0
1738224726436713218,0,0,0,0,0,0,0,0,0,2.125,-0.01866,6.965,0.1992,1.156,0.04297,-0.0689,0.1935,0.03099,1.99,0.1997,7.0,-0.09985,0.995,0.0,0.0
1738224726486729145,0,0,0,0,0,0,0,0,0,2.125,-0.01866,6.965,0.1992,1.156,0.04297,-0.0689,0.1935,0.03099,1.978,0.2988,7.0,-0.1494,0.989,0.0,0.0
1738224726536726474,0,0,0,0,0,0,0,0,0,2.145,0.1073,6.965,0.1797,1.152,0.03906,-0.07135,0.1959,0.03079,1.978,0.2988,7.0,-0.1494,0.989,0.0,0.0
1738224726586726427,0,0,0,0,0,0,0,0,0,2.15,0.1605,6.97,0.1445,1.152,0.05078,-0.0733,0.2019,0.031,1.96,0.3972,7.0,-0.1986,0.98,0.0,0.0
1738224726636712789,0,0,0,0,0,0,0,0,0,2.156,0.2191,6.98,0.09375,1.145,0.05078,-0.0837,0.2094,0.0299,1.96,0.3972,7.0,-0.1986,0.98,0.0,0.0
1738224726686712980,0,0,0,0,0,0,0,0,0,2.16,0.2566,6.98,0.08203,1.129,0.03906,-0.0862,0.2107,0.03046,1.9375,0.4949,7.0,-0.2474,0.9688,0.0,0.0
1738224726736708402,0,0,0,0,0,0,0,0,0,2.162,0.3223,6.98,0.04688,1.117,0.02734,-0.0917,0.2161,0.03134,1.9375,0.4949,7.0,-0.2474,0.9688,0.0,0.0
1738224726786707878,0,0,0,0,0,0,0,0,0,2.162,0.3223,6.98,0.04688,1.117,0.02734,-0.0917,0.2161,0.03134,1.911,0.591,7.0,-0.2954,0.9556,0.0,0.0
1738224726836704730,0,0,0,0,0,0,0,0,0,2.164,0.441,6.98,0.01953,1.109,0.02344,-0.093,0.2191,0.0313,1.911,0.591,7.0,-0.2954,0.9556,0.0,0.0
1738224726886713504,0,0,0,0,0,0,0,0,0,2.164,0.4927,6.98,-0.05078,1.074,0.04688,-0.09534,0.2291,0.0316,1.879,0.686,7.0,-0.343,0.9395,0.0,0.0
1738224726936705827,0,0,0,0,0,0,0,0,0,2.162,0.517,6.98,-0.0703,1.066,0.04688,-0.0997,0.2306,0.03041,1.879,0.686,7.0,-0.343,0.9395,0.0,0.0
1738224726986712217,0,0,0,0,0,0,0,0,0,2.154,0.5923,6.984,-0.09375,1.055,0.04688,-0.1031,0.2325,0.03004,1.842,0.779,7.0,-0.3894,0.921,0.0,0.0
1738224727036697864,0,0,0,0,0,0,0,0,0,2.154,0.5923,6.984,-0.09375,1.055,0.04688,-0.1031,0.2325,0.03004,1.842,0.779,7.0,-0.3894,0.921,0.0,0.0
1738224727086708068,0,0,0,0,0,0,0,0,0,2.139,0.709,6.98,-0.2227,0.996,0.03516,-0.1075,0.2444,0.0288,1.801,0.87,7.0,-0.435,0.9004,0.0,0.0
1738224727136717319,0,0,0,0,0,0,0,0,0,2.125,0.7573,6.98,-0.2773,0.9688,0.04297,-0.1059,0.2473,0.0286,1.801,0.87,7.0,-0.435,0.9004,0.0,0.0
1738224727186719417,0,0,0,0,0,0,0,0,0,2.115,0.7905,6.984,-0.3086,0.957,0.0547,-0.10535,0.2485,0.02872,1.755,0.959,7.0,-0.4795,0.8774,0.0,0.0
1738224727236719608,0,0,0,0,0,0,0,0,0,2.094,0.849,6.98,-0.3594,0.9453,0.04688,-0.1062,0.2461,0.02924,1.755,0.959,7.0,-0.4795,0.8774,0.0,0.0
1738224727286715984,0,0,0,0,0,0,0,0,0,2.08,0.883,6.98,-0.3828,0.9297,0.04688,-0.10767,0.2462,0.02916,1.705,1.045,7.0,-0.5225,0.8525,0.0,0.0
1738224727336714744,0,0,0,0,0,0,0,0,0,2.05,0.9453,6.984,-0.4453,0.8984,0.05078,-0.1065,0.2465,0.02942,1.705,1.045,7.0,-0.5225,0.8525,0.0,0.0
1738224727386711120,0,0,0,0,0,0,0,0,0,2.05,0.9453,6.984,-0.4453,0.8984,0.05078,-0.1065,0.2465,0.02942,1.65,1.129,7.0,-0.5645,0.825,0.0,0.0
1738224727436696529,0,0,0,0,0,0,0,0,0,2.05,0.9453,6.984,-0.4453,0.8984,0.05078,-0.1065,0.2465,0.02942,1.65,1.129,7.0,-0.5645,0.825,0.0,0.0
1738224727486710071,0,0,0,0,0,0,0,0,0,1.987,1.0625,6.984,-0.4688,0.883,0.05078,-0.10535,0.2463,0.02908,1.592,1.21,7.0,-0.605,0.796,0.0,0.0
1738224727536710262,0,0,0,0,0,0,0,0,0,1.946,1.121,6.98,-0.5938,0.793,0.0586,-0.1031,0.2312,0.02911,1.592,1.21,7.0,-0.605,0.796,0.0,0.0
1738224727586708784,0,0,0,0,0,0,0,0,0,1.926,1.147,6.98,-0.6094,0.785,0.0586,-0.10156,0.2258,0.03018,1.529,1.288,7.0,-0.644,0.7646,0.0,0.0
1738224727636707544,0,0,0,0,0,0,0,0,0,1.89,1.19,6.98,-0.6406,0.75,0.0586,-0.09845,0.2195,0.02972,1.529,1.288,7.0,-0.644,0.7646,0.0,0.0
1738224727686713457,0,0,0,0,0,0,0,0,0,1.868,1.216,6.98,-0.633,0.746,0.0625,-0.0957,0.2172,0.02951,1.463,1.363,7.0,-0.6816,0.7314,0.0,0.0
1738224727736708164,0,0,0,0,0,0,0,0,0,1.823,1.266,6.98,-0.66,0.7227,0.08594,-0.0876,0.2126,0.0307,1.463,1.363,7.0,-0.6816,0.7314,0.0,0.0
1738224727786711215,0,0,0,0,0,0,0,0,0,1.804,1.287,6.98,-0.668,0.715,0.09375,-0.08246,0.2097,0.0321,1.394,1.435,7.0,-0.7173,0.697,0.0,0.0
1738224727836707830,0,0,0,0,0,0,0,0,0,1.759,1.332,6.98,-0.6875,0.6797,0.09375,-0.07935,0.2083,0.03247,1.394,1.435,7.0,-0.7173,0.697,0.0,0.0
1738224727886712074,0,0,0,0,0,0,0,0,0,1.736,1.3545,6.98,-0.6914,0.672,0.08984,-0.0808,0.2083,0.03134,1.32,1.503,7.0,-0.7515,0.66,0.0,0.0
1738224727936707496,0,0,0,0,0,0,0,0,0,1.688,1.398,6.98,-0.707,0.6562,0.09375,-0.08374,0.2068,0.02951,1.32,1.503,7.0,-0.7515,0.66,0.0,0.0
1738224727986712694,0,0,0,0,0,0,0,0,0,1.664,1.421,6.98,-0.715,0.6523,0.08984,-0.08136,0.2089,0.02869,1.243,1.566,7.0,-0.783,0.6216,0.0,0.0
1738224728036708354,0,0,0,0,0,0,0,0,0,1.617,1.462,6.99,-0.7305,0.629,0.0781,-0.0734,0.2141,0.02786,1.243,1.566,7.0,-0.783,0.6216,0.0,0.0
1738224728086713075,0,0,0,0,0,0,0,0,0,1.592,1.483,6.99,-0.742,0.621,0.0703,-0.0724,0.2161,0.02655,1.163,1.627,7.0,-0.8135,0.5815,0.0,0.0
1738224728136708498,0,0,0,0,0,0,0,0,0,1.542,1.523,6.99,-0.7656,0.6094,0.0703,-0.07465,0.2174,0.02626,1.163,1.627,7.0,-0.8135,0.5815,0.0,0.0
1738224728186707258,0,0,0,0,0,0,0,0,0,1.516,1.544,6.99,-0.7734,0.6016,0.0742,-0.0781,0.2151,0.02621,1.081,1.683,7.0,-0.8413,0.5405,0.0,0.0
1738224728236710309,0,0,0,0,0,0,0,0,0,1.486,1.566,6.99,-0.7656,0.59,0.0742,-0.07904,0.2113,0.0259,1.081,1.683,7.0,-0.8413,0.5405,0.0,0.0
1738224728286707878,0,0,0,0,0,0,0,0,0,1.486,1.566,6.99,-0.7656,0.59,0.0742,-0.07904,0.2113,0.0259,0.995,1.734,7.0,-0.867,0.4976,0.0,0.0
1738224728336706399,0,0,0,0,0,0,0,0,0,1.414,1.621,6.99,-0.7734,0.586,0.0664,-0.0756,0.2097,0.0273,0.995,1.734,7.0,-0.867,0.4976,0.0,0.0
1738224728386710882,0,0,0,0,0,0,0,0,0,1.347,1.671,6.984,-0.793,0.5703,0.0625,-0.0758,0.2119,0.0288,0.907,1.782,7.0,-0.891,0.4536,0.0,0.0
1738224728436706542,0,0,0,0,0,0,0,0,0,1.299,1.704,6.99,-0.8086,0.551,0.08203,-0.07153,0.2067,0.02869,0.907,1.782,7.0,-0.891,0.4536,0.0,0.0
1738224728486724138,0,0,0,0,0,0,0,0,0,1.277,1.719,6.99,-0.8125,0.543,0.08203,-0.072,0.2059,0.02904,0.817,1.825,7.0,-0.9126,0.4084,0.0,0.0
1738224728536720752,0,0,0,0,0,0,0,0,0,1.225,1.753,6.984,-0.8203,0.5312,0.08594,-0.0723,0.2106,0.02896,0.817,1.825,7.0,-0.9126,0.4084,0.0,0.0
1738224728586720466,0,0,0,0,0,0,0,0,0,1.225,1.753,6.984,-0.8203,0.5312,0.08594,-0.0723,0.2106,0.02896,0.7246,1.864,7.0,-0.932,0.3623,0.0,0.0
1738224728636701345,0,0,0,0,0,0,0,0,0,1.225,1.753,6.984,-0.8203,0.5312,0.08594,-0.0723,0.2106,0.02896,0.7246,1.864,7.0,-0.932,0.3623,0.0,0.0
1738224728686731576,0,0,0,0,0,0,0,0,0,1.1045,1.829,6.98,-0.84,0.5156,0.10547,-0.0722,0.2195,0.02916,0.631,1.898,7.0,-0.949,0.3154,0.0,0.0
1738224728736714124,0,0,0,0,0,0,0,0,0,1.055,1.856,6.99,-0.8984,0.4883,0.1289,-0.06744,0.2277,0.02585,0.631,1.898,7.0,-0.949,0.3154,0.0,0.0
1738224728786717653,0,0,0,0,0,0,0,0,0,1.028,1.87,7.13,-0.9062,0.4805,0.1289,-0.067,0.2295,0.02621,0.535,1.927,7.0,-0.9634,0.2676,0.0,0.0
1738224728836714744,0,0,0,0,0,0,0,0,0,0.9653,1.903,7.133,-0.9297,0.4805,0.1211,-0.06744,0.233,0.02568,0.535,1.927,7.0,-0.9634,0.2676,0.0,0.0
1738224728886713266,0,0,0,0,0,0,0,0,0,0.9336,1.919,7.133,-0.9414,0.4727,0.1133,-0.06866,0.2351,0.02534,0.438,1.951,7.0,-0.9756,0.219,0.0,0.0
1738224728936713218,0,0,0,0,0,0,0,0,0,0.8945,1.938,7.133,-0.957,0.4648,0.1211,-0.07135,0.239,0.02551,0.438,1.951,7.0,-0.9756,0.219,0.0,0.0
1738224728986711263,0,0,0,0,0,0,0,0,0,0.8945,1.938,7.133,-0.957,0.4648,0.1211,-0.07135,0.239,0.02551,0.3398,1.971,7.0,-0.9854,0.1699,0.0,0.0
1738224729036707162,0,0,0,0,0,0,0,0,0,0.7705,1.997,7.137,-0.9805,0.4531,0.1367,-0.0737,0.2416,0.02673,0.3398,1.971,7.0,-0.9854,0.1699,0.0,0.0
1738224729086713790,0,0,0,0,0,0,0,0,0,0.725,2.018,7.14,-0.996,0.4453,0.1328,-0.07983,0.2379,0.02774,0.241,1.985,7.0,-0.9927,0.1205,0.0,0.0
1738224729136709451,0,0,0,0,0,0,0,0,0,0.6704,2.041,7.152,-1.027,0.414,0.1172,-0.08875,0.2384,0.02826,0.241,1.985,7.0,-0.9927,0.1205,0.0,0.0
1738224729186711311,0,0,0,0,0,0,0,0,0,0.6387,2.053,7.156,-1.031,0.4062,0.09375,-0.0889,0.2395,0.02757,0.1415,1.995,7.0,-0.9976,0.07074,0.0,0.0
1738224729236704826,0,0,0,0,0,0,0,0,0,0.6387,2.053,7.156,-1.031,0.4062,0.09375,-0.0889,0.2395,0.02757,0.1415,1.995,7.0,-0.9976,0.07074,0.0,0.0
1738224729286714792,0,0,0,0,0,0,0,0,0,0.6387,2.053,7.156,-1.031,0.4062,0.09375,-0.0889,0.2395,0.02757,0.0416,2.0,7.0,-1.0,0.0208,0.0,0.0
1738224729336703300,0,0,0,0,0,0,0,0,0,0.47,2.115,7.164,-1.055,0.3867,0.0742,-0.0914,0.2451,0.02641,0.0416,2.0,7.0,-1.0,0.0208,0.0,0.0
1738224729386715650,0,0,0,0,0,0,0,0,0,0.3975,2.14,7.18,-1.105,0.3477,0.01953,-0.10297,0.2437,0.02827,-0.0584,1.999,7.0,-0.9995,-0.0292,0.0,0.0
1738224729436713218,0,0,0,0,0,0,0,0,0,0.3496,2.154,7.184,-1.117,0.3281,-0.0,-0.10956,0.2347,0.02856,-0.0584,1.999,7.0,-0.9995,-0.0292,0.0,0.0
1738224729486721277,0,0,0,0,0,0,0,0,0,0.308,2.166,7.184,-1.125,0.3125,-0.01953,-0.11127,0.2319,0.029,-0.1582,1.994,7.0,-0.997,-0.0791,0.0,0.0
1738224729536724328,0,0,0,0,0,0,0,0,0,0.2401,2.184,7.184,-1.133,0.2852,-0.0547,-0.1193,0.2291,0.02861,-0.1582,1.994,7.0,-0.997,-0.0791,0.0,0.0
1738224729586713790,0,0,0,0,0,0,0,0,0,0.1909,2.195,7.188,-1.137,0.2695,-0.0664,-0.1251,0.2285,0.02834,-0.2576,1.983,7.0,-0.9917,-0.1288,0.0,0.0
1738224729636708498,0,0,0,0,0,0,0,0,0,0.1243,2.209,7.184,-1.145,0.2305,-0.09375,-0.1354,0.2263,0.02856,-0.2576,1.983,7.0,-0.9917,-0.1288,0.0,0.0
1738224729686715126,0,0,0,0,0,0,0,0,0,0.1243,2.209,7.184,-1.145,0.2305,-0.09375,-0.1354,0.2263,0.02856,-0.3564,1.968,7.0,-0.984,-0.1782,0.0,0.0
1738224729736709356,0,0,0,0,0,0,0,0,0,0.1243,2.209,7.184,-1.145,0.2305,-0.09375,-0.1354,0.2263,0.02856,-0.3564,1.968,7.0,-0.984,-0.1782,0.0,0.0
1738224729786712646,0,0,0,0,0,0,0,0,0,-0.014275,2.232,7.18,-1.148,0.1992,-0.10156,-0.1403,0.2225,0.02962,-0.4543,1.947,7.0,-0.9736,-0.2272,0.0,0.0
1738224729836710214,0,0,0,0,0,0,0,0,0,-0.1147,2.246,7.16,-1.145,0.0742,-0.1562,-0.1482,0.2042,0.03032,-0.4543,1.947,7.0,-0.9736,-0.2272,0.0,0.0
1738224729886713266,0,0,0,0,0,0,0,0,0,-0.1533,2.246,7.156,-1.145,0.05078,-0.1562,-0.1461,0.202,0.03044,-0.5513,1.923,7.0,-0.9614,-0.2756,0.0,0.0
1738224729936713218,0,0,0,0,0,0,0,0,0,-0.2177,2.248,7.15,-1.145,0.01563,-0.1523,-0.1436,0.197,0.02884,-0.5513,1.923,7.0,-0.9614,-0.2756,0.0,0.0
1738224729986710071,0,0,0,0,0,0,0,0,0,-0.2703,2.248,7.14,-1.141,-0.01172,-0.1367,-0.1444,0.1953,0.0285,-0.6465,1.893,7.0,-0.9463,-0.3232,0.0,0.0
1738224730036708831,0,0,0,0,0,0,0,0,0,-0.3054,2.246,7.137,-1.137,-0.03125,-0.1484,-0.1477,0.1919,0.02954,-0.6465,1.893,7.0,-0.9463,-0.3232,0.0,0.0
1738224730086714267,0,0,0,0,0,0,0,0,0,-0.3054,2.246,7.137,-1.137,-0.03125,-0.1484,-0.1477,0.1919,0.02954,-0.74,1.858,7.0,-0.929,-0.37,0.0,0.0
1738224730136718273,0,0,0,0,0,0,0,0,0,-0.398,2.242,7.133,-1.133,-0.04688,-0.1602,-0.1521,0.1915,0.02927,-0.74,1.858,7.0,-0.929,-0.37,0.0,0.0
1738224730186717748,0,0,0,0,0,0,0,0,0,-0.4949,2.236,7.12,-1.121,-0.1094,-0.1523,-0.1646,0.189,0.02916,-0.8325,1.818,7.0,-0.909,-0.4163,0.0,0.0
1738224730236705780,0,0,0,0,0,0,0,0,0,-0.5703,2.225,7.12,-1.102,-0.2227,-0.125,-0.1614,0.1733,0.02995,-0.8325,1.818,7.0,-0.909,-0.4163,0.0,0.0
1738224730286710739,0,0,0,0,0,0,0,0,0,-0.6016,2.217,7.117,-1.09,-0.25,-0.125,-0.1604,0.1741,0.02875,-0.9224,1.774,7.0,-0.887,-0.4612,0.0,0.0
1738224730336702346,0,0,0,0,0,0,0,0,0,-0.6016,2.217,7.117,-1.09,-0.25,-0.125,-0.1604,0.1741,0.02875,-0.9224,1.774,7.0,-0.887,-0.4612,0.0,0.0
1738224730386699676,0,0,0,0,0,0,0,0,0,-0.6963,2.193,7.113,-1.086,-0.2656,-0.1211,-0.1631,0.1747,0.02837,-1.01,1.727,7.0,-0.8633,-0.505,0.0,0.0
1738224730436709165,0,0,0,0,0,0,0,0,0,-0.7793,2.17,7.105,-1.074,-0.3438,-0.10547,-0.1753,0.1771,0.02832,-1.01,1.727,7.0,-0.8633,-0.505,0.0,0.0
1738224730486712217,0,0,0,0,0,0,0,0,0,-0.8223,2.154,7.1,-1.055,-0.418,-0.0742,-0.1813,0.1693,0.02824,-1.095,1.674,7.0,-0.837,-0.5474,0.0,0.0
1738224730536712884,0,0,0,0,0,0,0,0,0,-0.8745,2.13,7.105,-1.035,-0.4844,-0.0742,-0.1906,0.1655,0.02844,-1.095,1.674,7.0,-0.837,-0.5474,0.0,0.0
1738224730586712837,0,0,0,0,0,0,0,0,0,-0.9277,2.104,7.1,-1.027,-0.5234,-0.08594,-0.189,0.1672,0.02843,-1.177,1.617,7.0,-0.8086,-0.5884,0.0,0.0
1738224730636710405,0,0,0,0,0,0,0,0,0,-0.992,2.068,7.1,-1.016,-0.5703,-0.08594,-0.1777,0.1698,0.02716,-1.177,1.617,7.0,-0.8086,-0.5884,0.0,0.0
1738224730686710596,0,0,0,0,0,0,0,0,0,-1.028,2.047,7.098,-1.031,-0.5938,-0.09375,-0.1743,0.1681,0.02635,-1.256,1.556,7.0,-0.778,-0.628,0.0,0.0
1738224730736710548,0,0,0,0,0,0,0,0,0,-1.093,2.006,7.09,-1.012,-0.6484,-0.08594,-0.1749,0.163,0.027,-1.256,1.556,7.0,-0.778,-0.628,0.0,0.0
1738224730786711692,0,0,0,0,0,0,0,0,0,-1.132,1.98,7.086,-1.0,-0.672,-0.0781,-0.1766,0.1543,0.02835,-1.333,1.491,7.0,-0.7456,-0.6665,0.0,0.0
1738224730836713314,0,0,0,0,0,0,0,0,0,-1.192,1.936,7.082,-0.9766,-0.742,-0.0742,-0.1776,0.1447,0.02937,-1.333,1.491,7.0,-0.7456,-0.6665,0.0,0.0
1738224730886713027,0,0,0,0,0,0,0,0,0,-1.227,1.908,7.082,-0.965,-0.7695,-0.0625,-0.1731,0.142,0.0298,-1.405,1.423,7.0,-0.7114,-0.7026,0.0,0.0
1738224730936713695,0,0,0,0,0,0,0,0,0,-1.286,1.856,7.08,-0.926,-0.828,-0.05078,-0.1624,0.1417,0.02934,-1.405,1.423,7.0,-0.7114,-0.7026,0.0,0.0
1738224730986715555,0,0,0,0,0,0,0,0,0,-1.321,1.824,7.074,-0.914,-0.84,-0.05078,-0.1555,0.1448,0.02823,-1.475,1.351,7.0,-0.6753,-0.7373,0.0,0.0
1738224731036708831,0,0,0,0,0,0,0,0,0,-1.376,1.771,7.082,-0.8906,-0.879,-0.0547,-0.1456,0.1486,0.02719,-1.475,1.351,7.0,-0.6753,-0.7373,0.0,0.0
1738224731086708545,0,0,0,0,0,0,0,0,0,-1.405,1.741,7.082,-0.883,-0.8906,-0.0586,-0.1415,0.1489,0.02661,-1.54,1.275,7.0,-0.6377,-0.77,0.0,0.0
1738224731136713266,0,0,0,0,0,0,0,0,0,-1.432,1.714,7.082,-0.867,-0.9023,-0.04688,-0.1388,0.1476,0.0269,-1.54,1.275,7.0,-0.6377,-0.77,0.0,0.0
1738224731186710834,0,0,0,0,0,0,0,0,0,-1.485,1.656,7.082,-0.8516,-0.914,-0.04688,-0.1364,0.1449,0.02763,-1.603,1.197,7.0,-0.5986,-0.8013,0.0,0.0
1738224731236706495,0,0,0,0,0,0,0,0,0,-1.485,1.656,7.082,-0.8516,-0.914,-0.04688,-0.1364,0.1449,0.02763,-1.603,1.197,7.0,-0.5986,-0.8013,0.0,0.0
1738224731286715030,0,0,0,0,0,0,0,0,0,-1.578,1.552,7.08,-0.793,-0.9727,-0.03906,-0.1292,0.1364,0.02832,-1.66,1.115,7.0,-0.5576,-0.83,0.0,0.0
1738224731336716651,0,0,0,0,0,0,0,0,0,-1.623,1.493,7.082,-0.7617,-0.992,-0.03906,-0.1211,0.1367,0.02701,-1.66,1.115,7.0,-0.5576,-0.83,0.0,0.0
1738224731386711835,0,0,0,0,0,0,0,0,0,-1.653,1.453,7.09,-0.75,-0.996,-0.03906,-0.1184,0.1381,0.02625,-1.714,1.031,7.0,-0.5156,-0.857,0.0,0.0
1738224731436712265,0,0,0,0,0,0,0,0,0,-1.698,1.391,7.09,-0.7266,-1.012,-0.05078,-0.11505,0.1387,0.0251,-1.714,1.031,7.0,-0.5156,-0.857,0.0,0.0
1738224731486714601,0,0,0,0,0,0,0,0,0,-1.722,1.357,7.09,-0.715,-1.02,-0.0547,-0.1142,0.1371,0.0255,-1.763,0.944,7.0,-0.472,-0.8813,0.0,0.0
1738224731536701440,0,0,0,0,0,0,0,0,0,-1.722,1.357,7.09,-0.715,-1.02,-0.0547,-0.1142,0.1371,0.0255,-1.763,0.944,7.0,-0.472,-0.8813,0.0,0.0
1738224731586712837,0,0,0,0,0,0,0,0,0,-1.771,1.285,7.094,-0.699,-1.027,-0.0586,-0.113,0.1337,0.02602,-1.809,0.855,7.0,-0.4275,-0.9043,0.0,0.0
1738224731636715173,0,0,0,0,0,0,0,0,0,-1.837,1.185,7.09,-0.668,-1.039,-0.0625,-0.10956,0.1271,0.02621,-1.809,0.855,7.0,-0.4275,-0.9043,0.0,0.0
1738224731686715126,0,0,0,0,0,0,0,0,0,-1.861,1.144,7.086,-0.621,-1.039,-0.0781,-0.1036,0.12054,0.02496,-1.849,0.763,7.0,-0.3816,-0.9243,0.0,0.0
1738224731736712932,0,0,0,0,0,0,0,0,0,-1.876,1.118,7.082,-0.6133,-1.035,-0.0742,-0.0942,0.12213,0.02486,-1.849,0.763,7.0,-0.3816,-0.9243,0.0,0.0
1738224731786724805,0,0,0,0,0,0,0,0,0,-1.919,1.046,7.082,-0.6016,-1.02,-0.0781,-0.0836,0.1254,0.02425,-1.885,0.67,7.0,-0.335,-0.9424,0.0,0.0
1738224731836730003,0,0,0,0,0,0,0,0,0,-1.954,0.9873,7.08,-0.5938,-1.004,-0.08594,-0.07587,0.1289,0.02423,-1.885,0.67,7.0,-0.335,-0.9424,0.0,0.0
1738224731886730432,0,0,0,0,0,0,0,0,0,-1.985,0.9336,7.07,-0.574,-0.992,-0.09766,-0.0858,0.1232,0.02544,-1.916,0.575,7.0,-0.2876,-0.958,0.0,0.0
1738224731936700344,0,0,0,0,0,0,0,0,0,-2.014,0.885,7.066,-0.547,-0.9883,-0.09766,-0.0947,0.11414,0.02715,-1.916,0.575,7.0,-0.2876,-0.958,0.0,0.0
1738224731986710548,0,0,0,0,0,0,0,0,0,-2.033,0.8457,7.066,-0.539,-0.9844,-0.09766,-0.09424,0.1117,0.02704,-1.942,0.4785,7.0,-0.2393,-0.971,0.0,0.0
1738224732036699056,0,0,0,0,0,0,0,0,0,-2.066,0.7847,7.062,-0.5,-0.9805,-0.08594,-0.08624,0.10376,0.02806,-1.942,0.4785,7.0,-0.2393,-0.971,0.0,0.0
1738224732086713790,0,0,0,0,0,0,0,0,0,-2.08,0.756,7.062,-0.4844,-0.9805,-0.08203,-0.08606,0.0973,0.02835,-1.964,0.3809,7.0,-0.1904,-0.982,0.0,0.0
1738224732136704444,0,0,0,0,0,0,0,0,0,-2.08,0.756,7.062,-0.4844,-0.9805,-0.08203,-0.08606,0.0973,0.02835,-1.964,0.3809,7.0,-0.1904,-0.982,0.0,0.0
1738224732186715126,0,0,0,0,0,0,0,0,0,-2.08,0.756,7.062,-0.4844,-0.9805,-0.08203,-0.08606,0.0973,0.02835,-1.98,0.2822,7.0,-0.1411,-0.99,0.0,0.0
1738224732236716508,0,0,0,0,0,0,0,0,0,-2.15,0.6045,7.06,-0.457,-0.9727,-0.08594,-0.08887,0.0917,0.02748,-1.98,0.2822,7.0,-0.1411,-0.99,0.0,0.0
1738224732286724805,0,0,0,0,0,0,0,0,0,-2.174,0.5454,7.055,-0.336,-0.992,-0.0781,-0.0972,0.0811,0.02626,-1.991,0.183,7.0,-0.0915,-0.9956,0.0,0.0
1738224732336728811,0,0,0,0,0,0,0,0,0,-2.19,0.4937,7.062,-0.293,-0.992,-0.08203,-0.10626,0.0806,0.02592,-1.991,0.183,7.0,-0.0915,-0.9956,0.0,0.0
1738224732386717081,0,0,0,0,0,0,0,0,0,-2.201,0.457,7.062,-0.2734,-0.996,-0.08594,-0.1071,0.08124,0.02599,-1.998,0.0832,7.0,-0.0416,-0.999,0.0,0.0
1738224732436704397,0,0,0,0,0,0,0,0,0,-2.201,0.457,7.062,-0.2734,-0.996,-0.08594,-0.1071,0.08124,0.02599,-1.998,0.0832,7.0,-0.0416,-0.999,0.0,0.0
1738224732486719846,0,0,0,0,0,0,0,0,0,-2.23,0.3423,7.06,-0.254,-0.992,-0.08594,-0.108,0.0821,0.02591,-2.0,-0.01682,7.0,0.00841,-1.0,0.0,0.0
1738224732536717653,0,0,0,0,0,0,0,0,0,-2.24,0.294,7.055,-0.1953,-1.004,-0.0742,-0.11285,0.07855,0.02408,-2.0,-0.01682,7.0,0.00841,-1.0,0.0,0.0
1738224732586720466,0,0,0,0,0,0,0,0,0,-2.248,0.2498,7.05,-0.1562,-1.004,-0.0703,-0.1211,0.06915,0.02664,-1.997,-0.11676,7.0,0.05838,-0.9985,0.0,0.0
1738224732636715173,0,0,0,0,0,0,0,0,0,-2.254,0.1945,7.05,-0.10156,-1.012,-0.0742,-0.1229,0.0666,0.02686,-1.997,-0.11676,7.0,0.05838,-0.9985,0.0,0.0
1738224732686719417,0,0,0,0,0,0,0,0,0,-2.258,0.1617,7.05,-0.09766,-1.016,-0.08203,-0.12244,0.0662,0.02641,-1.988,-0.2164,7.0,0.1082,-0.994,0.0,0.0
1738224732736711978,0,0,0,0,0,0,0,0,0,-2.258,0.1617,7.05,-0.09766,-1.016,-0.08203,-0.12244,0.0662,0.02641,-1.988,-0.2164,7.0,0.1082,-0.994,0.0,0.0
1738224732786751747,0,0,0,0,0,0,0,0,0,-2.266,0.04633,7.047,-0.0703,-1.023,-0.0742,-0.1267,0.067,0.02611,-1.975,-0.3154,7.0,0.1577,-0.9873,0.0,0.0
1738224732836699962,0,0,0,0,0,0,0,0,0,-2.268,-0.011955,7.043,0.003906,-1.031,-0.0547,-0.1262,0.06793,0.02606,-1.975,-0.3154,7.0,0.1577,-0.9873,0.0,0.0
1738224732886711359,0,0,0,0,0,0,0,0,0,-2.266,-0.04996,7.043,0.04688,-1.039,-0.0586,-0.1364,0.06824,0.02803,-1.957,-0.4138,7.0,0.2069,-0.9785,0.0,0.0
1738224732936723470,0,0,0,0,0,0,0,0,0,-2.262,-0.1148,7.04,0.08984,-1.043,-0.0586,-0.1403,0.07513,0.02608,-1.957,-0.4138,7.0,0.2069,-0.9785,0.0,0.0
1738224732986718177,0,0,0,0,0,0,0,0,0,-2.258,-0.1536,7.04,0.10156,-1.055,-0.0586,-0.1351,0.07654,0.02617,-1.934,-0.511,7.0,0.2556,-0.967,0.0,0.0
1738224733036712646,0,0,0,0,0,0,0,0,0,-2.258,-0.1536,7.04,0.10156,-1.055,-0.0586,-0.1351,0.07654,0.02617,-1.934,-0.511,7.0,0.2556,-0.967,0.0,0.0
1738224733086718320,0,0,0,0,0,0,0,0,0,-2.258,-0.1536,7.04,0.10156,-1.055,-0.0586,-0.1351,0.07654,0.02617,-1.905,-0.607,7.0,0.3035,-0.9526,0.0,0.0
1738224733136709690,0,0,0,0,0,0,0,0,0,-2.232,-0.3262,7.04,0.1641,-1.055,-0.02734,-0.1241,0.07355,0.02591,-1.905,-0.607,7.0,0.3035,-0.9526,0.0,0.0
1738224733186726331,0,0,0,0,0,0,0,0,0,-2.219,-0.3855,7.03,0.2383,-1.051,-0.02734,-0.1241,0.0687,0.02878,-1.873,-0.7017,7.0,0.3508,-0.9365,0.0,0.0
1738224733236719608,0,0,0,0,0,0,0,0,0,-2.207,-0.4307,7.03,0.2773,-1.074,-0.03125,-0.1245,0.0674,0.0308,-1.873,-0.7017,7.0,0.3508,-0.9365,0.0,0.0
1738224733286724090,0,0,0,0,0,0,0,0,0,-2.197,-0.4724,7.03,0.2969,-1.07,-0.03906,-0.12256,0.0671,0.03015,-1.836,-0.7944,7.0,0.3972,-0.918,0.0,0.0
1738224733336716890,0,0,0,0,0,0,0,0,0,-2.197,-0.4724,7.03,0.2969,-1.07,-0.03906,-0.12256,0.0671,0.03015,-1.836,-0.7944,7.0,0.3972,-0.918,0.0,0.0
1738224733386712074,0,0,0,0,0,0,0,0,0,-2.197,-0.4724,7.03,0.2969,-1.07,-0.03906,-0.12256,0.0671,0.03015,-1.794,-0.8853,7.0,0.4426,-0.897,0.0,0.0
1738224733436713933,0,0,0,0,0,0,0,0,0,-2.145,-0.65,7.027,0.3281,-1.082,-0.02734,-0.1227,0.0644,0.03214,-1.794,-0.8853,7.0,0.4426,-0.897,0.0,0.0
1738224733486716747,0,0,0,0,0,0,0,0,0,-2.127,-0.696,7.023,0.418,-1.109,-0.04688,-0.12134,0.05627,0.03207,-1.747,-0.9736,7.0,0.4868,-0.8735,0.0,0.0
1738224733536712169,0,0,0,0,0,0,0,0,0,-2.127,-0.696,7.023,0.418,-1.109,-0.04688,-0.12134,0.05627,0.03207,-1.747,-0.9736,7.0,0.4868,-0.8735,0.0,0.0
1738224733586712598,0,0,0,0,0,0,0,0,0,-2.127,-0.696,7.023,0.418,-1.109,-0.04688,-0.12134,0.05627,0.03207,-1.696,-1.06,7.0,0.53,-0.848,0.0,0.0
1738224733636713743,0,0,0,0,0,0,0,0,0,-2.057,-0.875,7.02,0.4453,-1.102,-0.04297,-0.11475,0.0633,0.0305,-1.696,-1.06,7.0,0.53,-0.848,0.0,0.0
1738224733686714887,0,0,0,0,0,0,0,0,0,-2.037,-0.918,7.016,0.504,-1.098,-0.02344,-0.09906,0.0632,0.0316,-1.642,-1.144,7.0,0.572,-0.821,0.0,0.0
1738224733736720085,0,0,0,0,0,0,0,0,0,-2.02,-0.9546,7.02,0.543,-1.105,-0.01563,-0.1053,0.06027,0.02972,-1.642,-1.144,7.0,0.572,-0.821,0.0,0.0
1738224733786731004,0,0,0,0,0,0,0,0,0,-1.984,-1.024,7.02,0.5625,-1.105,-0.01953,-0.1043,0.061,0.03008,-1.582,-1.224,7.0,0.612,-0.791,0.0,0.0
1738224733836699724,0,0,0,0,0,0,0,0,0,-1.945,-1.095,7.02,0.625,-1.086,-0.02344,-0.1076,0.0684,0.03032,-1.582,-1.224,7.0,0.612,-0.791,0.0,0.0
1738224733886711359,0,0,0,0,0,0,0,0,0,-1.925,-1.129,7.016,0.6406,-1.07,-0.02734,-0.10333,0.068,0.03049,-1.519,-1.301,7.0,0.6504,-0.7593,0.0,0.0
1738224733936714649,0,0,0,0,0,0,0,0,0,-1.903,-1.165,7.016,0.6562,-1.07,-0.02734,-0.10016,0.0686,0.02946,-1.519,-1.301,7.0,0.6504,-0.7593,0.0,0.0
1738224733986707687,0,0,0,0,0,0,0,0,0,-1.903,-1.165,7.016,0.6562,-1.07,-0.02734,-0.10016,0.0686,0.02946,-1.452,-1.376,7.0,0.688,-0.726,0.0,0.0
1738224734036688089,0,0,0,0,0,0,0,0,0,-1.814,-1.304,7.016,0.6914,-1.051,-0.02344,-0.09894,0.0724,0.02943,-1.452,-1.376,7.0,0.688,-0.726,0.0,0.0
1738224734086707353,0,0,0,0,0,0,0,0,0,-1.774,-1.36,7.008,0.7305,-1.016,-0.01563,-0.08,0.08453,0.02707,-1.381,-1.446,7.0,0.723,-0.6904,0.0,0.0
1738224734136711597,0,0,0,0,0,0,0,0,0,-1.743,-1.403,7.004,0.742,-1.008,-0.007812,-0.0726,0.0912,0.03093,-1.381,-1.446,7.0,0.723,-0.6904,0.0,0.0
1738224734186715126,0,0,0,0,0,0,0,0,0,-1.709,-1.447,7.004,0.758,-0.9883,0.003906,-0.06934,0.0921,0.0314,-1.308,-1.514,7.0,0.757,-0.654,0.0,0.0
1738224734236706733,0,0,0,0,0,0,0,0,0,-1.683,-1.481,7.008,0.7695,-0.9883,0.007812,-0.0673,0.09406,0.0313,-1.308,-1.514,7.0,0.757,-0.654,0.0,0.0
1738224734286720991,0,0,0,0,0,0,0,0,0,-1.683,-1.481,7.008,0.7695,-0.9883,0.007812,-0.0673,0.09406,0.0313,-1.23,-1.577,7.0,0.7886,-0.615,0.0,0.0
1738224734336713790,0,0,0,0,0,0,0,0,0,-1.602,-1.585,7.008,0.7734,-0.9883,0.007812,-0.0664,0.0951,0.03084,-1.23,-1.577,7.0,0.7886,-0.615,0.0,0.0
1738224734386719226,0,0,0,0,0,0,0,0,0,-1.558,-1.639,7.008,0.797,-0.922,0.02344,-0.05905,0.0959,0.02762,-1.149,-1.637,7.0,0.8184,-0.5747,0.0,0.0
1738224734436711788,0,0,0,0,0,0,0,0,0,-1.522,-1.679,7.008,0.8047,-0.922,0.01953,-0.051,0.1007,0.02885,-1.149,-1.637,7.0,0.8184,-0.5747,0.0,0.0
1738224734486719369,0,0,0,0,0,0,0,0,0,-1.479,-1.727,7.008,0.801,-0.867,0.01953,-0.04553,0.10736,0.02641,-1.066,-1.692,7.0,0.846,-0.533,0.0,0.0
1738224734536714076,0,0,0,0,0,0,0,0,0,-1.454,-1.753,7.008,0.797,-0.8594,0.01563,-0.04312,0.1106,0.02513,-1.066,-1.692,7.0,0.846,-0.533,0.0,0.0
1738224734586710929,0,0,0,0,0,0,0,0,0,-1.454,-1.753,7.008,0.797,-0.8594,0.01563,-0.04312,0.1106,0.02513,-0.9805,-1.743,7.0,0.8716,-0.4902,0.0,0.0
1738224734636699676,0,0,0,0,0,0,0,0,0,-1.454,-1.753,7.008,0.797,-0.8594,0.01563,-0.04312,0.1106,0.02513,-0.9805,-1.743,7.0,0.8716,-0.4902,0.0,0.0
1738224734686714649,0,0,0,0,0,0,0,0,0,-1.32,-1.891,7.004,0.789,-0.7734,0.01563,-0.03995,0.10565,0.02393,-0.892,-1.79,7.0,0.895,-0.446,0.0,0.0
1738224734736723423,0,0,0,0,0,0,0,0,0,-1.267,-1.939,7.008,0.793,-0.672,0.007812,-0.02509,0.0845,0.0279,-0.892,-1.79,7.0,0.895,-0.446,0.0,0.0
1738224734786712646,0,0,0,0,0,0,0,0,0,-1.267,-1.939,7.008,0.793,-0.672,0.007812,-0.02509,0.0845,0.0279,-0.802,-1.832,7.0,0.916,-0.401,0.0,0.0
1738224734836713075,0,0,0,0,0,0,0,0,0,-1.202,-1.991,7.008,0.8047,-0.6523,0.007812,-0.02444,0.0802,0.02711,-0.802,-1.832,7.0,0.916,-0.401,0.0,0.0
1738224734886716127,0,0,0,0,0,0,0,0,0,-1.156,-2.025,7.008,0.824,-0.5664,-0.003906,-0.0363,0.0713,0.02412,-0.709,-1.87,7.0,0.935,-0.3545,0.0,0.0
1738224734936707019,0,0,0,0,0,0,0,0,0,-1.156,-2.025,7.008,0.824,-0.5664,-0.003906,-0.0363,0.0713,0.02412,-0.709,-1.87,7.0,0.935,-0.3545,0.0,0.0
1738224734986732006,0,0,0,0,0,0,0,0,0,-1.083,-2.072,7.008,0.84,-0.551,-0.007812,-0.0363,0.0697,0.02415,-0.6147,-1.903,7.0,0.9517,-0.3074,0.0,0.0
1738224735036725997,0,0,0,0,0,0,0,0,0,-1.016,-2.111,7.008,0.8633,-0.461,-0.0,-0.03278,0.067,0.02823,-0.6147,-1.903,7.0,0.9517,-0.3074,0.0,0.0
1738224735086703538,0,0,0,0,0,0,0,0,0,-0.989,-2.125,7.004,0.875,-0.4492,-0.0,-0.0312,0.0657,0.02805,-0.5186,-1.932,7.0,0.966,-0.2593,0.0,0.0
1738224735136710643,0,0,0,0,0,0,0,0,0,-0.9307,-2.152,7.008,0.8945,-0.4023,0.003906,-0.02951,0.066,0.02724,-0.5186,-1.932,7.0,0.966,-0.2593,0.0,0.0
1738224735186703205,0,0,0,0,0,0,0,0,0,-0.8945,-2.168,7.004,0.9062,-0.375,0.007812,-0.02701,0.0654,0.02586,-0.4216,-1.955,7.0,0.9775,-0.2108,0.0,0.0
1738224735236712455,0,0,0,0,0,0,0,0,0,-0.835,-2.19,7.016,0.922,-0.3125,0.003906,-0.01967,0.0687,0.02486,-0.4216,-1.955,7.0,0.9775,-0.2108,0.0,0.0
1738224735286719083,0,0,0,0,0,0,0,0,0,-0.803,-2.2,7.01,0.9297,-0.289,-0.0,-0.01854,0.0691,0.02574,-0.3232,-1.974,7.0,0.987,-0.1616,0.0,0.0
1738224735336700916,0,0,0,0,0,0,0,0,0,-0.742,-2.215,7.016,0.949,-0.2383,-0.01563,-0.02573,0.0657,0.02737,-0.3232,-1.974,7.0,0.987,-0.1616,0.0,0.0
1738224735386709213,0,0,0,0,0,0,0,0,0,-0.6953,-2.225,7.016,0.965,-0.2148,-0.02344,-0.03102,0.06247,0.02774,-0.2244,-1.987,7.0,0.9937,-0.1122,0.0,0.0
1738224735436712265,0,0,0,0,0,0,0,0,0,-0.6753,-2.229,7.02,0.9805,-0.2109,-0.02734,-0.03406,0.06094,0.02888,-0.2244,-1.987,7.0,0.9937,-0.1122,0.0,0.0
1738224735486710071,0,0,0,0,0,0,0,0,0,-0.644,-2.236,7.02,0.992,-0.1914,-0.03125,-0.0337,0.0602,0.02916,-0.1247,-1.996,7.0,0.998,-0.06235,0.0,0.0
1738224735536721229,0,0,0,0,0,0,0,0,0,-0.5625,-2.25,7.02,1.004,-0.168,-0.03125,-0.03235,0.05936,0.0297,-0.1247,-1.996,7.0,0.998,-0.06235,0.0,0.0
1738224735586718320,0,0,0,0,0,0,0,0,0,-0.508,-2.258,7.023,1.031,-0.1406,-0.02734,-0.02905,0.05856,0.02968,-0.02478,-2.0,7.0,1.0,-0.01239,0.0,0.0
1738224735636697292,0,0,0,0,0,0,0,0,0,-0.4417,-2.264,7.023,1.082,-0.10156,-0.04297,-0.04086,0.05743,0.0318,-0.02478,-2.0,7.0,1.0,-0.01239,0.0,0.0
1738224735686714410,0,0,0,0,0,0,0,0,0,-0.4045,-2.268,7.03,1.117,-0.1094,-0.04297,-0.04272,0.05493,0.0324,0.0752,-1.999,7.0,0.9995,0.0376,0.0,0.0
1738224735736718893,0,0,0,0,0,0,0,0,0,-0.3242,-2.275,7.035,1.164,-0.08984,-0.0625,-0.053,0.04822,0.03098,0.0752,-1.999,7.0,0.9995,0.0376,0.0,0.0
1738224735786712408,0,0,0,0,0,0,0,0,0,-0.2798,-2.277,7.03,1.1875,-0.08594,-0.0703,-0.05557,0.05017,0.02963,0.175,-1.992,7.0,0.996,0.0875,0.0,0.0
1738224735836714029,0,0,0,0,0,0,0,0,0,-0.2054,-2.281,7.035,1.227,-0.0664,-0.09766,-0.04517,0.0628,0.02852,0.175,-1.992,7.0,0.996,0.0875,0.0,0.0
1738224735886708736,0,0,0,0,0,0,0,0,0,-0.2054,-2.281,7.035,1.227,-0.0664,-0.09766,-0.04517,0.0628,0.02852,0.2744,-1.981,7.0,0.9907,0.1372,0.0,0.0
1738224735936701536,0,0,0,0,0,0,0,0,0,-0.2054,-2.281,7.035,1.227,-0.0664,-0.09766,-0.04517,0.0628,0.02852,0.2744,-1.981,7.0,0.9907,0.1372,0.0,0.0
1738224735986726045,0,0,0,0,0,0,0,0,0,-0.0365,-2.29,7.035,1.238,-0.04688,-0.10156,-0.0417,0.0663,0.02843,0.373,-1.965,7.0,0.9824,0.1865,0.0,0.0
1738224736036780357,0,0,0,0,0,0,0,0,0,0.03394,-2.291,7.035,1.273,-0.03125,-0.1172,-0.0351,0.0761,0.0281,0.373,-1.965,7.0,0.9824,0.1865,0.0,0.0
1738224736086853265,0,0,0,0,0,0,0,0,0,0.0854,-2.291,7.047,1.289,-0.003906,-0.1289,-0.01923,0.0922,0.02551,0.4707,-1.943,7.0,0.9717,0.2354,0.0,0.0
1738224736136720657,0,0,0,0,0,0,0,0,0,0.1316,-2.291,7.047,1.289,0.007812,-0.1523,-0.01675,0.0956,0.02548,0.4707,-1.943,7.0,0.9717,0.2354,0.0,0.0
1738224736186714649,0,0,0,0,0,0,0,0,0,0.1993,-2.29,7.047,1.289,0.02344,-0.1641,-0.01444,0.1007,0.02629,0.5674,-1.918,7.0,0.959,0.2837,0.0,0.0
1738224736236711502,0,0,0,0,0,0,0,0,0,0.293,-2.287,7.047,1.293,0.03906,-0.1602,-0.011185,0.10474,0.02692,0.5674,-1.918,7.0,0.959,0.2837,0.0,0.0
1738224736286712646,0,0,0,0,0,0,0,0,0,0.3538,-2.283,7.055,1.297,0.08594,-0.1953,0.00296,0.1093,0.0273,0.6626,-1.887,7.0,0.9434,0.3313,0.0,0.0
1738224736336710691,0,0,0,0,0,0,0,0,0,0.431,-2.275,7.062,1.297,0.1211,-0.2266,0.00714,0.11194,0.02705,0.6626,-1.887,7.0,0.9434,0.3313,0.0,0.0
1738224736386713266,0,0,0,0,0,0,0,0,0,0.4797,-2.27,7.06,1.297,0.1445,-0.2422,0.00815,0.113,0.02736,0.756,-1.852,7.0,0.926,0.378,0.0,0.0
1738224736436715126,0,0,0,0,0,0,0,0,0,0.559,-2.26,7.062,1.289,0.1836,-0.2656,0.01523,0.1239,0.02663,0.756,-1.852,7.0,0.926,0.378,0.0,0.0
1738224736486720561,0,0,0,0,0,0,0,0,0,0.6025,-2.252,7.05,1.281,0.1992,-0.2734,0.0171,0.1273,0.02641,0.8477,-1.812,7.0,0.906,0.4238,0.0,0.0
1738224736536716699,0,0,0,0,0,0,0,0,0,0.6543,-2.244,7.043,1.273,0.2188,-0.2969,0.01901,0.1307,0.02681,0.8477,-1.812,7.0,0.906,0.4238,0.0,0.0
1738224736586713075,0,0,0,0,0,0,0,0,0,0.6543,-2.244,7.043,1.273,0.2188,-0.2969,0.01901,0.1307,0.02681,0.937,-1.767,7.0,0.8833,0.4685,0.0,0.0
1738224736636704444,0,0,0,0,0,0,0,0,0,0.7505,-2.227,7.043,1.27,0.2422,-0.3047,0.02147,0.1356,0.02777,0.937,-1.767,7.0,0.8833,0.4685,0.0,0.0
1738224736686711549,0,0,0,0,0,0,0,0,0,0.865,-2.203,7.04,1.258,0.2578,-0.3086,0.02399,0.1403,0.02788,1.024,-1.718,7.0,0.859,0.512,0.0,0.0
1738224736736719846,0,0,0,0,0,0,0,0,0,0.9224,-2.186,7.016,1.199,0.375,-0.3203,0.03674,0.1512,0.02458,1.024,-1.718,7.0,0.859,0.512,0.0,0.0
1738224736786719322,0,0,0,0,0,0,0,0,0,0.983,-2.164,6.992,1.16,0.4258,-0.3008,0.0387,0.1636,0.02534,1.108,-1.664,7.0,0.832,0.554,0.0,0.0
1738224736836714982,0,0,0,0,0,0,0,0,0,1.048,-2.137,6.973,1.098,0.496,-0.2578,0.04642,0.1725,0.0251,1.108,-1.664,7.0,0.832,0.554,0.0,0.0
1738224736886699199,0,0,0,0,0,0,0,0,0,1.093,-2.115,6.965,1.066,0.535,-0.2305,0.05142,0.174,0.02458,1.19,-1.607,7.0,0.8037,0.595,0.0,0.0
1738224736936712265,0,0,0,0,0,0,0,0,0,1.093,-2.115,6.965,1.066,0.535,-0.2305,0.05142,0.174,0.02458,1.19,-1.607,7.0,0.8037,0.595,0.0,0.0
1738224736986729621,0,0,0,0,0,0,0,0,0,1.175,-2.07,6.957,1.047,0.5664,-0.2148,0.05402,0.1753,0.02338,1.27,-1.546,7.0,0.773,0.635,0.0,0.0
1738224737036705970,0,0,0,0,0,0,0,0,0,1.175,-2.07,6.957,1.047,0.5664,-0.2148,0.05402,0.1753,0.02338,1.27,-1.546,7.0,0.773,0.635,0.0,0.0
1738224737086734771,0,0,0,0,0,0,0,0,0,1.303,-1.988,6.92,0.8945,0.7227,-0.1133,0.0333,0.1846,0.0232,1.345,-1.48,7.0,0.74,0.6724,0.0,0.0
1738224737136729955,0,0,0,0,0,0,0,0,0,1.348,-1.949,6.914,0.8477,0.7656,-0.08594,0.02298,0.197,0.02399,1.345,-1.48,7.0,0.74,0.6724,0.0,0.0
1738224737186724185,0,0,0,0,0,0,0,0,0,1.38,-1.917,6.914,0.8086,0.789,-0.0664,0.02052,0.2014,0.02466,1.417,-1.411,7.0,0.7056,0.7085,0.0,0.0
1738224737236725091,0,0,0,0,0,0,0,0,0,1.38,-1.917,6.914,0.8086,0.789,-0.0664,0.02052,0.2014,0.02466,1.417,-1.411,7.0,0.7056,0.7085,0.0,0.0
1738224737286729097,0,0,0,0,0,0,0,0,0,1.428,-1.866,6.91,0.7656,0.8164,-0.0547,0.01245,0.2025,0.02347,1.486,-1.339,7.0,0.6694,0.743,0.0,0.0
1738224737336730718,0,0,0,0,0,0,0,0,0,1.5,-1.784,6.906,0.711,0.8438,-0.03125,0.00376,0.2018,0.02258,1.486,-1.339,7.0,0.6694,0.743,0.0,0.0
1738224737386722803,0,0,0,0,0,0,0,0,0,1.526,-1.745,6.91,0.6016,0.8984,0.0586,0.00963,0.2008,0.0249,1.551,-1.263,7.0,0.6313,0.7754,0.0,0.0
1738224737436716794,0,0,0,0,0,0,0,0,0,1.556,-1.697,6.918,0.5312,0.9414,0.0742,0.009834,0.203,0.02309,1.551,-1.263,7.0,0.6313,0.7754,0.0,0.0
1738224737486725091,0,0,0,0,0,0,0,0,0,1.575,-1.659,6.92,0.5,0.965,0.0586,0.01634,0.2057,0.0228,1.612,-1.184,7.0,0.592,0.806,0.0,0.0
1738224737536721467,0,0,0,0,0,0,0,0,0,1.59,-1.629,6.93,0.4688,0.9883,0.0742,0.015434,0.2064,0.02345,1.612,-1.184,7.0,0.592,0.806,0.0,0.0
1738224737586723089,0,0,0,0,0,0,0,0,0,1.623,-1.552,6.93,0.4375,1.008,0.08594,0.01357,0.2042,0.0247,1.669,-1.102,7.0,0.551,0.8345,0.0,0.0
1738224737636708259,0,0,0,0,0,0,0,0,0,1.623,-1.552,6.93,0.4375,1.008,0.08594,0.01357,0.2042,0.0247,1.669,-1.102,7.0,0.551,0.8345,0.0,0.0
1738224737686729192,0,0,0,0,0,0,0,0,0,1.656,-1.451,6.95,0.3555,1.066,0.0781,0.01222,0.198,0.0255,1.723,-1.017,7.0,0.5083,0.8613,0.0,0.0
1738224737736721992,0,0,0,0,0,0,0,0,0,1.676,-1.386,6.96,0.3164,1.098,0.0781,-0.02545,0.1577,0.02664,1.723,-1.017,7.0,0.5083,0.8613,0.0,0.0
1738224737786714315,0,0,0,0,0,0,0,0,0,1.688,-1.341,6.97,0.3086,1.105,0.0781,-0.02684,0.1493,0.02737,1.771,-0.929,7.0,0.4646,0.8857,0.0,0.0
1738224737836710214,0,0,0,0,0,0,0,0,0,1.706,-1.276,6.98,0.2969,1.117,0.0547,-0.0316,0.1364,0.02856,1.771,-0.929,7.0,0.4646,0.8857,0.0,0.0
1738224737886722326,0,0,0,0,0,0,0,0,0,1.718,-1.232,6.99,0.3008,1.125,0.03906,-0.0363,0.1322,0.02867,1.815,-0.8394,7.0,0.4197,0.9077,0.0,0.0
1738224737936709642,0,0,0,0,0,0,0,0,0,1.737,-1.157,6.996,0.3047,1.137,0.01172,-0.04187,0.1231,0.02739,1.815,-0.8394,7.0,0.4197,0.9077,0.0,0.0
1738224737986711025,0,0,0,0,0,0,0,0,0,1.75,-1.112,7.0,0.3047,1.145,0.003906,-0.0429,0.1182,0.02705,1.8545,-0.7476,7.0,0.3738,0.9272,0.0,0.0
1738224738036708593,0,0,0,0,0,0,0,0,0,1.761,-1.073,7.008,0.3242,1.148,-0.0,-0.0434,0.1137,0.02628,1.8545,-0.7476,7.0,0.3738,0.9272,0.0,0.0
1738224738086712837,0,0,0,0,0,0,0,0,0,1.782,-1.0,7.01,0.336,1.148,-0.01563,-0.0464,0.10565,0.02946,1.89,-0.6543,7.0,0.3271,0.945,0.0,0.0
1738224738136713743,0,0,0,0,0,0,0,0,0,1.797,-0.951,7.008,0.3438,1.148,-0.01953,-0.0456,0.1031,0.03102,1.89,-0.6543,7.0,0.3271,0.945,0.0,0.0
1738224738186714410,0,0,0,0,0,0,0,0,0,1.806,-0.92,7.008,0.3516,1.148,-0.01953,-0.0461,0.1003,0.03107,1.92,-0.5586,7.0,0.2793,0.96,0.0,0.0
1738224738236708879,0,0,0,0,0,0,0,0,0,1.833,-0.836,7.008,0.379,1.137,-0.01563,-0.0521,0.09766,0.02974,1.92,-0.5586,7.0,0.2793,0.96,0.0,0.0
1738224738286714553,0,0,0,0,0,0,0,0,0,1.846,-0.7993,7.01,0.3906,1.137,-0.01563,-0.05487,0.09735,0.03046,1.946,-0.4622,7.0,0.2311,0.973,0.0,0.0
1738224738336704969,0,0,0,0,0,0,0,0,0,1.875,-0.715,7.01,0.4023,1.129,-0.01563,-0.0622,0.0969,0.03122,1.946,-0.4622,7.0,0.2311,0.973,0.0,0.0
1738224738386715412,0,0,0,0,0,0,0,0,0,1.9,-0.6465,7.016,0.4219,1.117,-0.01563,-0.0667,0.1017,0.02975,1.967,-0.3643,7.0,0.1821,0.9834,0.0,0.0
1738224738436707496,0,0,0,0,0,0,0,0,0,1.911,-0.6206,7.016,0.4258,1.105,-0.01563,-0.0674,0.1058,0.03008,1.967,-0.3643,7.0,0.1821,0.9834,0.0,0.0
1738224738486720323,0,0,0,0,0,0,0,0,0,1.94,-0.5464,7.016,0.4336,1.098,-0.02344,-0.0688,0.1163,0.03026,1.982,-0.2656,7.0,0.1328,0.991,0.0,0.0
1738224738536711692,0,0,0,0,0,0,0,0,0,1.955,-0.5083,7.016,0.4375,1.094,-0.02344,-0.06903,0.12115,0.02934,1.982,-0.2656,7.0,0.1328,0.991,0.0,0.0
1738224738586714506,0,0,0,0,0,0,0,0,0,1.982,-0.4412,7.016,0.4336,1.086,-0.02344,-0.0727,0.1338,0.0277,1.993,-0.1661,7.0,0.08307,0.9966,0.0,0.0
1738224738636705875,0,0,0,0,0,0,0,0,0,1.997,-0.404,7.016,0.4297,1.082,-0.02344,-0.0755,0.1388,0.02696,1.993,-0.1661,7.0,0.08307,0.9966,0.0,0.0
