time,x_sphinx,y_sphinx,z_sphinx,vx_sphinx,vy_sphinx,vz_sphinx,roll_sphinx,pitch_sphinx,yaw_sphinx,x_anafi,y_anafi,z_anafi,vx_anafi,vy_anafi,vz_anafi,roll_anafi,pitch_anafi,yaw_anafi,wp_x,wp_y,wp_z,wp_vx,wp_vy,wp_vz,wp_yaw
1738225464769632101,0,0,0,0,0,0,0,0,0,2.654,-1.302,7.01,0.3047,0.828,0.02344,-0.05725,0.1165,0.02725,3.0,-0.04956,7.0,0.01653,1.0,0.0,0.0
1738225464819640398,0,0,0,0,0,0,0,0,0,2.672,-1.25,7.01,0.2852,0.8438,0.02344,-0.05524,0.1171,0.02771,3.0,0.0,7.0,-0.0,1.0,0.0,0.0
1738225464869628429,0,0,0,0,0,0,0,0,0,2.682,-1.218,7.01,0.2773,0.8516,0.02734,-0.04944,0.11847,0.02826,3.0,0.0,7.0,-0.0,1.0,0.0,0.0
1738225464919652938,0,0,0,0,0,0,0,0,0,2.688,-1.198,7.01,0.2695,0.8594,0.02734,-0.04578,0.1182,0.02849,2.998,0.1,7.0,-0.03333,0.9995,0.0,0.0
1738225464969633340,0,0,0,0,0,0,0,0,0,2.7,-1.158,7.016,0.2617,0.875,0.03125,-0.043,0.1168,0.02806,2.998,0.1,7.0,-0.03333,0.9995,0.0,0.0
1738225465019640922,0,0,0,0,0,0,0,0,0,2.7,-1.158,7.016,0.2617,0.875,0.03125,-0.043,0.1168,0.02806,2.998,0.1,7.0,-0.03333,0.9995,0.0,0.0
1738225465069643735,0,0,0,0,0,0,0,0,0,2.7,-1.158,7.016,0.2617,0.875,0.03125,-0.043,0.1168,0.02806,2.994,0.1998,7.0,-0.0666,0.9976,0.0,0.0
1738225465119651794,0,0,0,0,0,0,0,0,0,2.746,-0.9946,7.016,0.2383,0.9297,0.01563,-0.04492,0.10986,0.02823,2.984,0.2996,7.0,-0.09985,0.995,0.0,0.0
1738225465169634580,0,0,0,0,0,0,0,0,0,2.758,-0.9453,7.01,0.2305,0.949,0.01563,-0.04544,0.10913,0.0276,2.984,0.2996,7.0,-0.09985,0.995,0.0,0.0
1738225465219651699,0,0,0,0,0,0,0,0,0,2.764,-0.9263,7.01,0.2305,0.9688,0.01953,-0.0458,0.10754,0.02798,2.973,0.399,7.0,-0.1329,0.991,0.0,0.0
1738225465269635915,0,0,0,0,0,0,0,0,0,2.781,-0.8506,7.01,0.2227,0.9883,0.01953,-0.04977,0.107,0.02718,2.973,0.399,7.0,-0.1329,0.991,0.0,0.0
1738225465319648027,0,0,0,0,0,0,0,0,0,2.785,-0.8276,7.01,0.2188,0.992,0.02344,-0.0535,0.1047,0.0268,2.959,0.4978,7.0,-0.1659,0.9863,0.0,0.0
1738225465369628667,0,0,0,0,0,0,0,0,0,2.803,-0.7524,7.01,0.2227,1.0,0.02344,-0.05774,0.0989,0.02673,2.959,0.4978,7.0,-0.1659,0.9863,0.0,0.0
1738225465419646501,0,0,0,0,0,0,0,0,0,2.816,-0.6895,7.01,0.2227,1.0,0.01953,-0.05722,0.09863,0.02713,2.94,0.596,7.0,-0.1986,0.98,0.0,0.0
1738225465469617605,0,0,0,0,0,0,0,0,0,2.816,-0.6895,7.01,0.2227,1.0,0.01953,-0.05722,0.09863,0.02713,2.94,0.596,7.0,-0.1986,0.98,0.0,0.0
1738225465519652843,0,0,0,0,0,0,0,0,0,2.838,-0.5903,7.016,0.2266,1.008,0.01953,-0.05392,0.10065,0.02663,2.918,0.694,7.0,-0.2312,0.973,0.0,0.0
1738225465569613933,0,0,0,0,0,0,0,0,0,2.838,-0.5903,7.016,0.2266,1.008,0.01953,-0.05392,0.10065,0.02663,2.918,0.694,7.0,-0.2312,0.973,0.0,0.0
1738225465619641542,0,0,0,0,0,0,0,0,0,2.838,-0.5903,7.016,0.2266,1.008,0.01953,-0.05392,0.10065,0.02663,2.895,0.7905,7.0,-0.2634,0.965,0.0,0.0
1738225465669625997,0,0,0,0,0,0,0,0,0,2.87,-0.4507,7.016,0.2422,1.023,0.01563,-0.05432,0.10284,0.02545,2.895,0.7905,7.0,-0.2634,0.965,0.0,0.0
1738225465719649553,0,0,0,0,0,0,0,0,0,2.885,-0.385,7.01,0.2344,1.027,0.01563,-0.06125,0.10754,0.02509,2.865,0.8867,7.0,-0.2954,0.9556,0.0,0.0
1738225465769631147,0,0,0,0,0,0,0,0,0,2.893,-0.3486,7.016,0.2344,1.027,0.01953,-0.06323,0.1106,0.02611,2.865,0.8867,7.0,-0.2954,0.9556,0.0,0.0
1738225465819643020,0,0,0,0,0,0,0,0,0,2.908,-0.2795,7.016,0.2227,1.031,0.01953,-0.0612,0.1174,0.0265,2.834,0.9814,7.0,-0.3271,0.945,0.0,0.0
1738225465869627952,0,0,0,0,0,0,0,0,0,2.918,-0.2352,7.016,0.2227,1.035,0.01953,-0.05942,0.12274,0.02644,2.834,0.9814,7.0,-0.3271,0.945,0.0,0.0
1738225465919639110,0,0,0,0,0,0,0,0,0,2.922,-0.2161,7.016,0.2148,1.039,0.01563,-0.05765,0.1259,0.02672,2.8,1.075,7.0,-0.3584,0.9336,0.0,0.0
1738225465969615459,0,0,0,0,0,0,0,0,0,2.922,-0.2161,7.016,0.2148,1.039,0.01563,-0.05765,0.1259,0.02672,2.8,1.075,7.0,-0.3584,0.9336,0.0,0.0
1738225466019639730,0,0,0,0,0,0,0,0,0,2.922,-0.2161,7.016,0.2148,1.039,0.01563,-0.05765,0.1259,0.02672,2.764,1.168,7.0,-0.3894,0.921,0.0,0.0
1738225466069626569,0,0,0,0,0,0,0,0,0,2.955,-0.04364,7.023,0.1953,1.035,0.007812,-0.0576,0.1295,0.02882,2.764,1.168,7.0,-0.3894,0.921,0.0,0.0
1738225466119640588,0,0,0,0,0,0,0,0,0,2.967,0.02515,7.016,0.1719,1.02,-0.0,-0.07324,0.1307,0.0312,2.723,1.26,7.0,-0.42,0.9077,0.0,0.0
1738225466169625997,0,0,0,0,0,0,0,0,0,2.975,0.0644,7.02,0.1641,1.012,0.003906,-0.0756,0.1312,0.03152,2.723,1.26,7.0,-0.42,0.9077,0.0,0.0
1738225466219643354,0,0,0,0,0,0,0,0,0,2.984,0.1259,7.016,0.1602,1.0,0.007812,-0.07733,0.1382,0.03027,2.68,1.35,7.0,-0.45,0.893,0.0,0.0
1738225466269626379,0,0,0,0,0,0,0,0,0,2.99,0.1702,7.016,0.1523,0.992,0.007812,-0.0764,0.1428,0.03079,2.68,1.35,7.0,-0.45,0.893,0.0,0.0
1738225466319647550,0,0,0,0,0,0,0,0,0,2.998,0.2299,7.016,0.125,0.9805,0.01172,-0.07056,0.1527,0.03,2.633,1.438,7.0,-0.4795,0.8774,0.0,0.0
1738225466369642734,0,0,0,0,0,0,0,0,0,3.002,0.2651,7.016,0.1133,0.9766,0.01563,-0.0652,0.1576,0.02904,2.633,1.438,7.0,-0.4795,0.8774,0.0,0.0
1738225466419647216,0,0,0,0,0,0,0,0,0,3.006,0.294,7.02,0.08594,0.9766,0.01953,-0.06036,0.1614,0.02905,2.584,1.525,7.0,-0.5083,0.8613,0.0,0.0
1738225466469630241,0,0,0,0,0,0,0,0,0,3.01,0.3623,7.02,0.0547,0.9766,0.01563,-0.05466,0.1666,0.03061,2.584,1.525,7.0,-0.5083,0.8613,0.0,0.0
1738225466519655466,0,0,0,0,0,0,0,0,0,3.012,0.421,7.023,0.02734,0.9844,0.01563,-0.04883,0.1687,0.03116,2.531,1.61,7.0,-0.5366,0.8438,0.0,0.0
1738225466569651365,0,0,0,0,0,0,0,0,0,3.012,0.4656,7.023,0.01172,0.9883,0.01172,-0.0468,0.1707,0.03006,2.531,1.61,7.0,-0.5366,0.8438,0.0,0.0
1738225466619645833,0,0,0,0,0,0,0,0,0,3.01,0.523,7.027,-0.03906,0.9883,0.003906,-0.0441,0.177,0.02931,2.477,1.694,7.0,-0.5645,0.825,0.0,0.0
1738225466669627189,0,0,0,0,0,0,0,0,0,3.008,0.5547,7.027,-0.0547,0.996,-0.0,-0.0424,0.1797,0.02892,2.477,1.694,7.0,-0.5645,0.825,0.0,0.0
1738225466719647169,0,0,0,0,0,0,0,0,0,3.004,0.618,7.03,-0.09375,1.008,-0.007812,-0.04437,0.1831,0.02805,2.418,1.775,7.0,-0.592,0.806,0.0,0.0
1738225466769631385,0,0,0,0,0,0,0,0,0,2.998,0.661,7.03,-0.1133,1.008,-0.01172,-0.04724,0.1848,0.02861,2.418,1.775,7.0,-0.592,0.806,0.0,0.0
1738225466819644689,0,0,0,0,0,0,0,0,0,2.99,0.7227,7.03,-0.1484,1.008,-0.02344,-0.05548,0.1858,0.02979,2.357,1.855,7.0,-0.618,0.7856,0.0,0.0
1738225466869624853,0,0,0,0,0,0,0,0,0,2.984,0.7607,7.03,-0.1758,1.016,-0.02734,-0.06003,0.1857,0.02962,2.357,1.855,7.0,-0.618,0.7856,0.0,0.0
1738225466919646739,0,0,0,0,0,0,0,0,0,2.97,0.8247,7.03,-0.2188,1.008,-0.02344,-0.06494,0.1887,0.02919,2.295,1.933,7.0,-0.644,0.7646,0.0,0.0
1738225466969624042,0,0,0,0,0,0,0,0,0,2.96,0.8633,7.027,-0.2383,1.004,-0.02344,-0.06604,0.1882,0.02959,2.295,1.933,7.0,-0.644,0.7646,0.0,0.0
1738225467019644737,0,0,0,0,0,0,0,0,0,2.945,0.922,7.03,-0.2812,0.992,-0.03906,-0.07306,0.1842,0.0297,2.229,2.008,7.0,-0.6694,0.743,0.0,0.0
1738225467069615364,0,0,0,0,0,0,0,0,0,2.945,0.922,7.03,-0.2812,0.992,-0.03906,-0.07306,0.1842,0.0297,2.229,2.008,7.0,-0.6694,0.743,0.0,0.0
1738225467119650125,0,0,0,0,0,0,0,0,0,2.945,0.922,7.03,-0.2812,0.992,-0.03906,-0.07306,0.1842,0.0297,2.16,2.082,7.0,-0.694,0.72,0.0,0.0
1738225467169635534,0,0,0,0,0,0,0,0,0,2.904,1.057,7.027,-0.3125,0.9727,-0.04688,-0.07983,0.1771,0.0302,2.16,2.082,7.0,-0.694,0.72,0.0,0.0
1738225467219653606,0,0,0,0,0,0,0,0,0,2.883,1.115,7.023,-0.3633,0.9375,-0.03516,-0.0817,0.1702,0.02872,2.09,2.152,7.0,-0.7173,0.697,0.0,0.0
1738225467269619703,0,0,0,0,0,0,0,0,0,2.883,1.115,7.023,-0.3633,0.9375,-0.03516,-0.0817,0.1702,0.02872,2.09,2.152,7.0,-0.7173,0.697,0.0,0.0
1738225467319646358,0,0,0,0,0,0,0,0,0,2.842,1.21,7.027,-0.3984,0.918,-0.01953,-0.0745,0.1708,0.02881,2.018,2.22,7.0,-0.74,0.6724,0.0,0.0
1738225467369629144,0,0,0,0,0,0,0,0,0,2.842,1.21,7.027,-0.3984,0.918,-0.01953,-0.0745,0.1708,0.02881,2.018,2.22,7.0,-0.74,0.6724,0.0,0.0
1738225467419647216,0,0,0,0,0,0,0,0,0,2.8,1.301,7.03,-0.4375,0.8945,-0.01953,-0.0698,0.1731,0.02864,1.942,2.287,7.0,-0.762,0.6475,0.0,0.0
1738225467469615936,0,0,0,0,0,0,0,0,0,2.8,1.301,7.03,-0.4375,0.8945,-0.01953,-0.0698,0.1731,0.02864,1.942,2.287,7.0,-0.762,0.6475,0.0,0.0
1738225467519659996,0,0,0,0,0,0,0,0,0,2.756,1.387,7.035,-0.4727,0.8867,-0.02734,-0.06384,0.1711,0.02885,1.865,2.35,7.0,-0.783,0.6216,0.0,0.0
1738225467569616556,0,0,0,0,0,0,0,0,0,2.756,1.387,7.035,-0.4727,0.8867,-0.02734,-0.06384,0.1711,0.02885,1.865,2.35,7.0,-0.783,0.6216,0.0,0.0
1738225467619644880,0,0,0,0,0,0,0,0,0,2.705,1.476,7.035,-0.5156,0.879,-0.03906,-0.06616,0.1721,0.02727,1.785,2.41,7.0,-0.8037,0.595,0.0,0.0
1738225467669613838,0,0,0,0,0,0,0,0,0,2.705,1.476,7.035,-0.5156,0.879,-0.03906,-0.06616,0.1721,0.02727,1.785,2.41,7.0,-0.8037,0.595,0.0,0.0
1738225467719648838,0,0,0,0,0,0,0,0,0,2.666,1.539,7.035,-0.539,0.871,-0.04688,-0.0667,0.1703,0.0279,1.704,2.469,7.0,-0.8228,0.568,0.0,0.0
1738225467769616842,0,0,0,0,0,0,0,0,0,2.666,1.539,7.035,-0.539,0.871,-0.04688,-0.0667,0.1703,0.0279,1.704,2.469,7.0,-0.8228,0.568,0.0,0.0
1738225467819643735,0,0,0,0,0,0,0,0,0,2.666,1.539,7.035,-0.539,0.871,-0.04688,-0.0667,0.1703,0.0279,1.621,2.523,7.0,-0.8413,0.5405,0.0,0.0
1738225467869630813,0,0,0,0,0,0,0,0,0,2.578,1.679,7.03,-0.578,0.8516,-0.0703,-0.06604,0.1675,0.02766,1.621,2.523,7.0,-0.8413,0.5405,0.0,0.0
1738225467919651508,0,0,0,0,0,0,0,0,0,2.541,1.732,7.023,-0.59,0.84,-0.0625,-0.07104,0.1631,0.02888,1.536,2.576,7.0,-0.859,0.5117,0.0,0.0
1738225467969634532,0,0,0,0,0,0,0,0,0,2.516,1.767,7.02,-0.5977,0.832,-0.0547,-0.0714,0.162,0.02864,1.536,2.576,7.0,-0.859,0.5117,0.0,0.0
1738225468019651412,0,0,0,0,0,0,0,0,0,2.479,1.818,7.008,-0.617,0.824,-0.04297,-0.0724,0.1575,0.02995,1.449,2.627,7.0,-0.8755,0.4832,0.0,0.0
1738225468069625854,0,0,0,0,0,0,0,0,0,2.479,1.818,7.008,-0.617,0.824,-0.04297,-0.0724,0.1575,0.02995,1.449,2.627,7.0,-0.8755,0.4832,0.0,0.0
1738225468119649171,0,0,0,0,0,0,0,0,0,2.416,1.899,7.008,-0.629,0.801,-0.02344,-0.0662,0.1545,0.02905,1.36,2.674,7.0,-0.891,0.4536,0.0,0.0
1738225468169624328,0,0,0,0,0,0,0,0,0,2.416,1.899,7.008,-0.629,0.801,-0.02344,-0.0662,0.1545,0.02905,1.36,2.674,7.0,-0.891,0.4536,0.0,0.0
1738225468219651937,0,0,0,0,0,0,0,0,0,2.416,1.899,7.008,-0.629,0.801,-0.02344,-0.0662,0.1545,0.02905,1.2705,2.717,7.0,-0.906,0.4236,0.0,0.0
1738225468269638538,0,0,0,0,0,0,0,0,0,2.326,2.01,7.01,-0.6523,0.7812,-0.01953,-0.06085,0.1547,0.02873,1.2705,2.717,7.0,-0.906,0.4236,0.0,0.0
1738225468319659233,0,0,0,0,0,0,0,0,0,2.299,2.041,7.01,-0.668,0.7734,-0.01953,-0.061,0.1575,0.0279,1.18,2.758,7.0,-0.9194,0.3933,0.0,0.0
1738225468369645595,0,0,0,0,0,0,0,0,0,2.28,2.062,7.008,-0.676,0.7656,-0.01953,-0.0629,0.1584,0.02783,1.18,2.758,7.0,-0.9194,0.3933,0.0,0.0
1738225468419643402,0,0,0,0,0,0,0,0,0,2.28,2.062,7.008,-0.676,0.7656,-0.01953,-0.0629,0.1584,0.02783,1.087,2.797,7.0,-0.932,0.3623,0.0,0.0
1738225468469665288,0,0,0,0,0,0,0,0,0,2.184,2.17,7.008,-0.6953,0.754,-0.01953,-0.0728,0.1605,0.02698,1.087,2.797,7.0,-0.932,0.3623,0.0,0.0
1738225468519649505,0,0,0,0,0,0,0,0,0,2.145,2.21,7.008,-0.7188,0.7266,-0.01953,-0.0771,0.1613,0.02686,0.993,2.83,7.0,-0.9434,0.331,0.0,0.0
1738225468569640636,0,0,0,0,0,0,0,0,0,2.115,2.24,7.008,-0.7227,0.7188,-0.01953,-0.07715,0.1614,0.02637,0.993,2.83,7.0,-0.9434,0.331,0.0,0.0
1738225468619636535,0,0,0,0,0,0,0,0,0,2.1,2.254,7.008,-0.746,0.707,-0.01953,-0.0775,0.161,0.02647,0.993,2.83,7.0,-0.9434,0.331,0.0,0.0
1738225468669729709,0,0,0,0,0,0,0,0,0,2.1,2.254,7.008,-0.746,0.707,-0.01953,-0.0775,0.161,0.02647,0.8984,2.863,7.0,-0.954,0.2996,0.0,0.0
1738225468719664573,0,0,0,0,0,0,0,0,0,2.004,2.344,7.008,-0.754,0.699,-0.01953,-0.0784,0.1603,0.02692,0.8027,2.89,7.0,-0.9634,0.2676,0.0,0.0
1738225468769651412,0,0,0,0,0,0,0,0,0,1.96,2.38,7.004,-0.7812,0.664,-0.007812,-0.07794,0.1606,0.02681,0.8027,2.89,7.0,-0.9634,0.2676,0.0,0.0
1738225468819648265,0,0,0,0,0,0,0,0,0,1.918,2.416,7.004,-0.789,0.6445,-0.007812,-0.07684,0.161,0.02664,0.7056,2.916,7.0,-0.972,0.2352,0.0,0.0
1738225468869639873,0,0,0,0,0,0,0,0,0,1.89,2.438,7.004,-0.797,0.6406,-0.007812,-0.07605,0.1611,0.0261,0.7056,2.916,7.0,-0.972,0.2352,0.0,0.0
1738225468919655323,0,0,0,0,0,0,0,0,0,1.872,2.453,7.008,-0.8047,0.6367,-0.007812,-0.07513,0.1616,0.0254,0.608,2.938,7.0,-0.979,0.2028,0.0,0.0
1738225468969612121,0,0,0,0,0,0,0,0,0,1.828,2.486,7.008,-0.8164,0.629,-0.007812,-0.07263,0.1606,0.02614,0.608,2.938,7.0,-0.979,0.2028,0.0,0.0
1738225469019635438,0,0,0,0,0,0,0,0,0,1.783,2.52,7.008,-0.836,0.6133,-0.01172,-0.0693,0.1559,0.02914,0.51,2.957,7.0,-0.9854,0.1699,0.0,0.0
1738225469069626808,0,0,0,0,0,0,0,0,0,1.72,2.564,7.008,-0.8477,0.6094,-0.01172,-0.0703,0.1528,0.02892,0.51,2.957,7.0,-0.9854,0.1699,0.0,0.0
1738225469119640827,0,0,0,0,0,0,0,0,0,1.667,2.602,7.008,-0.8594,0.5938,-0.01953,-0.0724,0.1531,0.0285,0.4111,2.973,7.0,-0.9907,0.1371,0.0,0.0
1738225469169619083,0,0,0,0,0,0,0,0,0,1.642,2.62,7.01,-0.8633,0.59,-0.02344,-0.075,0.1525,0.02846,0.4111,2.973,7.0,-0.9907,0.1371,0.0,0.0
1738225469219642162,0,0,0,0,0,0,0,0,0,1.579,2.66,7.004,-0.879,0.578,-0.01953,-0.08,0.1521,0.0271,0.3118,2.984,7.0,-0.9946,0.10394,0.0,0.0
1738225469269608974,0,0,0,0,0,0,0,0,0,1.579,2.66,7.004,-0.879,0.578,-0.01953,-0.08,0.1521,0.0271,0.3118,2.984,7.0,-0.9946,0.10394,0.0,0.0
1738225469319651842,0,0,0,0,0,0,0,0,0,1.491,2.717,7.004,-0.8906,0.551,-0.007812,-0.08405,0.1481,0.02745,0.2122,2.992,7.0,-0.9976,0.07074,0.0,0.0
1738225469369616985,0,0,0,0,0,0,0,0,0,1.462,2.734,7.004,-0.8945,0.539,-0.007812,-0.0847,0.148,0.02718,0.2122,2.992,7.0,-0.9976,0.07074,0.0,0.0
1738225469419656038,0,0,0,0,0,0,0,0,0,1.44,2.746,7.0,-0.8945,0.5312,-0.01172,-0.0849,0.1477,0.02728,0.11237,2.998,7.0,-0.9995,0.03745,0.0,0.0
1738225469469770193,0,0,0,0,0,0,0,0,0,1.358,2.795,7.0,-0.9062,0.5195,-0.0,-0.08234,0.145,0.02783,0.11237,2.998,7.0,-0.9995,0.03745,0.0,0.0
1738225469519648313,0,0,0,0,0,0,0,0,0,1.347,2.8,7.0,-0.91,0.508,-0.0,-0.0816,0.1448,0.02763,0.01239,3.0,7.0,-1.0,0.00413,0.0,0.0
1738225469569671392,0,0,0,0,0,0,0,0,0,1.279,2.838,7.0,-0.918,0.4922,-0.0,-0.08466,0.1434,0.02797,0.01239,3.0,7.0,-1.0,0.00413,0.0,0.0
1738225469619666099,0,0,0,0,0,0,0,0,0,1.249,2.854,6.996,-0.926,0.4805,-0.0,-0.0862,0.1423,0.02803,-0.0876,2.998,7.0,-0.9995,-0.0292,0.0,0.0
1738225469669636011,0,0,0,0,0,0,0,0,0,1.215,2.871,6.996,-0.926,0.4727,0.007812,-0.0885,0.1414,0.02766,-0.0876,2.998,7.0,-0.9995,-0.0292,0.0,0.0
1738225469719648361,0,0,0,0,0,0,0,0,0,1.129,2.912,6.996,-0.9297,0.4336,0.01172,-0.0974,0.14,0.0282,-0.1875,2.994,7.0,-0.998,-0.0625,0.0,0.0
1738225469769637823,0,0,0,0,0,0,0,0,0,1.099,2.926,6.996,-0.9297,0.4219,0.007812,-0.10126,0.1382,0.02791,-0.1875,2.994,7.0,-0.998,-0.0625,0.0,0.0
1738225469819642066,0,0,0,0,0,0,0,0,0,1.0625,2.941,6.996,-0.9297,0.4062,0.007812,-0.10455,0.137,0.02701,-0.287,2.986,7.0,-0.9956,-0.0957,0.0,0.0
1738225469869619607,0,0,0,0,0,0,0,0,0,1.0625,2.941,6.996,-0.9297,0.4062,0.007812,-0.10455,0.137,0.02701,-0.287,2.986,7.0,-0.9956,-0.0957,0.0,0.0
1738225469919628381,0,0,0,0,0,0,0,0,0,1.0625,2.941,6.996,-0.9297,0.4062,0.007812,-0.10455,0.137,0.02701,-0.3865,2.975,7.0,-0.9917,-0.1288,0.0,0.0
1738225469969637155,0,0,0,0,0,0,0,0,0,0.9062,3.004,6.996,-0.9336,0.3438,0.01172,-0.10693,0.135,0.02794,-0.3865,2.975,7.0,-0.9917,-0.1288,0.0,0.0
1738225470019644021,0,0,0,0,0,0,0,0,0,0.846,3.023,6.996,-0.9297,0.2969,0.01172,-0.1113,0.1354,0.0281,-0.4854,2.96,7.0,-0.987,-0.1619,0.0,0.0
1738225470069643974,0,0,0,0,0,0,0,0,0,0.814,3.033,7.0,-0.9297,0.2812,0.01172,-0.1123,0.1357,0.02876,-0.4854,2.96,7.0,-0.987,-0.1619,0.0,0.0
1738225470119645833,0,0,0,0,0,0,0,0,0,0.7803,3.043,7.004,-0.926,0.2617,0.003906,-0.11285,0.1364,0.02881,-0.584,2.943,7.0,-0.981,-0.1946,0.0,0.0
1738225470169644832,0,0,0,0,0,0,0,0,0,0.745,3.053,7.004,-0.922,0.2461,-0.0,-0.1128,0.1377,0.02824,-0.584,2.943,7.0,-0.981,-0.1946,0.0,0.0
1738225470219651937,0,0,0,0,0,0,0,0,0,0.66,3.072,6.996,-0.914,0.2031,-0.0,-0.1125,0.1395,0.02878,-0.6816,2.922,7.0,-0.9736,-0.2272,0.0,0.0
1738225470269641160,0,0,0,0,0,0,0,0,0,0.6255,3.08,6.996,-0.914,0.1914,0.003906,-0.1109,0.1401,0.02873,-0.6816,2.922,7.0,-0.9736,-0.2272,0.0,0.0
1738225470319643735,0,0,0,0,0,0,0,0,0,0.571,3.09,6.996,-0.91,0.1602,0.01172,-0.1065,0.1394,0.02797,-0.779,2.896,7.0,-0.966,-0.2595,0.0,0.0
1738225470369637966,0,0,0,0,0,0,0,0,0,0.533,3.096,6.996,-0.91,0.1484,0.01172,-0.1043,0.1418,0.02776,-0.779,2.896,7.0,-0.966,-0.2595,0.0,0.0
1738225470419661521,0,0,0,0,0,0,0,0,0,0.4822,3.104,6.996,-0.9062,0.1211,0.01953,-0.09863,0.1489,0.02757,-0.8745,2.87,7.0,-0.9565,-0.2915,0.0,0.0
1738225470469637393,0,0,0,0,0,0,0,0,0,0.4458,3.107,7.0,-0.91,0.1133,0.01953,-0.0979,0.1504,0.02731,-0.8745,2.87,7.0,-0.9565,-0.2915,0.0,0.0
1738225470519642591,0,0,0,0,0,0,0,0,0,0.3867,3.113,7.008,-0.926,0.09375,0.007812,-0.09827,0.1536,0.0254,-0.9697,2.84,7.0,-0.9463,-0.3232,0.0,0.0
1738225470569629430,0,0,0,0,0,0,0,0,0,0.3496,3.117,7.008,-0.9336,0.08203,-0.0,-0.09985,0.1544,0.0255,-0.9697,2.84,7.0,-0.9463,-0.3232,0.0,0.0
1738225470619639635,0,0,0,0,0,0,0,0,0,0.2925,3.121,7.008,-0.9414,0.0547,-0.007812,-0.1051,0.1532,0.02565,-1.063,2.805,7.0,-0.935,-0.3547,0.0,0.0
1738225470669624090,0,0,0,0,0,0,0,0,0,0.2598,3.121,7.008,-0.9453,0.04688,-0.01172,-0.1055,0.1525,0.0265,-1.063,2.805,7.0,-0.935,-0.3547,0.0,0.0
1738225470719643592,0,0,0,0,0,0,0,0,0,0.1992,3.123,7.008,-0.953,0.02344,-0.01172,-0.1051,0.1512,0.02722,-1.157,2.768,7.0,-0.923,-0.3855,0.0,0.0
1738225470769621133,0,0,0,0,0,0,0,0,0,0.1624,3.125,7.01,-0.957,0.01172,-0.01563,-0.10516,0.1501,0.0269,-1.157,2.768,7.0,-0.923,-0.3855,0.0,0.0
1738225470819641590,0,0,0,0,0,0,0,0,0,0.1053,3.123,7.004,-0.961,-0.01172,-0.01953,-0.1058,0.1455,0.02771,-1.248,2.729,7.0,-0.909,-0.4163,0.0,0.0
1738225470869614362,0,0,0,0,0,0,0,0,0,0.1053,3.123,7.004,-0.961,-0.01172,-0.01953,-0.1058,0.1455,0.02771,-1.248,2.729,7.0,-0.909,-0.4163,0.0,0.0
1738225470919649600,0,0,0,0,0,0,0,0,0,0.01323,3.121,7.004,-0.965,-0.03516,-0.007812,-0.1027,0.1432,0.02914,-1.339,2.686,7.0,-0.895,-0.4463,0.0,0.0
1738225470969707727,0,0,0,0,0,0,0,0,0,-0.0391,3.12,6.996,-0.965,-0.04688,-0.01172,-0.1,0.1422,0.02853,-1.339,2.686,7.0,-0.895,-0.4463,0.0,0.0
1738225471019638299,0,0,0,0,0,0,0,0,0,-0.09094,3.115,7.004,-0.965,-0.0586,-0.0,-0.0971,0.1396,0.02812,-1.428,2.639,7.0,-0.8794,-0.4758,0.0,0.0
1738225471069611787,0,0,0,0,0,0,0,0,0,-0.09094,3.115,7.004,-0.965,-0.0586,-0.0,-0.0971,0.1396,0.02812,-1.428,2.639,7.0,-0.8794,-0.4758,0.0,0.0
1738225471119640111,0,0,0,0,0,0,0,0,0,-0.1837,3.11,7.004,-0.957,-0.0781,-0.0,-0.09985,0.138,0.02887,-1.515,2.59,7.0,-0.8633,-0.505,0.0,0.0
1738225471169621706,0,0,0,0,0,0,0,0,0,-0.2207,3.105,7.008,-0.957,-0.08594,-0.0,-0.1032,0.1378,0.02827,-1.515,2.59,7.0,-0.8633,-0.505,0.0,0.0
1738225471219645023,0,0,0,0,0,0,0,0,0,-0.2786,3.1,7.004,-0.9414,-0.09766,-0.003906,-0.1111,0.1405,0.0276,-1.6,2.537,7.0,-0.8457,-0.533,0.0,0.0
1738225471269633531,0,0,0,0,0,0,0,0,0,-0.2786,3.1,7.004,-0.9414,-0.09766,-0.003906,-0.1111,0.1405,0.0276,-1.6,2.537,7.0,-0.8457,-0.533,0.0,0.0
1738225471319646358,0,0,0,0,0,0,0,0,0,-0.3542,3.09,7.008,-0.9375,-0.125,-0.007812,-0.1155,0.144,0.02881,-1.684,2.482,7.0,-0.8276,-0.561,0.0,0.0
1738225471369634389,0,0,0,0,0,0,0,0,0,-0.3542,3.09,7.008,-0.9375,-0.125,-0.007812,-0.1155,0.144,0.02881,-1.684,2.482,7.0,-0.8276,-0.561,0.0,0.0
1738225471419646024,0,0,0,0,0,0,0,0,0,-0.4517,3.076,7.01,-0.9375,-0.1367,-0.01172,-0.1172,0.1445,0.0289,-1.766,2.426,7.0,-0.8086,-0.5884,0.0,0.0
1738225471469623804,0,0,0,0,0,0,0,0,0,-0.48,3.072,7.008,-0.9297,-0.1641,-0.02344,-0.1208,0.1471,0.02615,-1.766,2.426,7.0,-0.8086,-0.5884,0.0,0.0
1738225471519644021,0,0,0,0,0,0,0,0,0,-0.557,3.057,7.01,-0.9297,-0.1992,-0.02344,-0.1223,0.1488,0.02693,-1.846,2.365,7.0,-0.7886,-0.615,0.0,0.0
1738225471569610834,0,0,0,0,0,0,0,0,0,-0.557,3.057,7.01,-0.9297,-0.1992,-0.02344,-0.1223,0.1488,0.02693,-1.846,2.365,7.0,-0.7886,-0.615,0.0,0.0
1738225471619637727,0,0,0,0,0,0,0,0,0,-0.6523,3.033,7.004,-0.9375,-0.2422,-0.02734,-0.1261,0.1458,0.02647,-1.923,2.303,7.0,-0.7676,-0.641,0.0,0.0
1738225471669610500,0,0,0,0,0,0,0,0,0,-0.6523,3.033,7.004,-0.9375,-0.2422,-0.02734,-0.1261,0.1458,0.02647,-1.923,2.303,7.0,-0.7676,-0.641,0.0,0.0
1738225471719648361,0,0,0,0,0,0,0,0,0,-0.7485,3.006,7.004,-0.9375,-0.2812,-0.01953,-0.1252,0.1451,0.02644,-1.999,2.236,7.0,-0.7456,-0.6665,0.0,0.0
1738225471769606828,0,0,0,0,0,0,0,0,0,-0.7485,3.006,7.004,-0.9375,-0.2812,-0.01953,-0.1252,0.1451,0.02644,-1.999,2.236,7.0,-0.7456,-0.6665,0.0,0.0
1738225471819645404,0,0,0,0,0,0,0,0,0,-0.84,2.977,6.992,-0.961,-0.3086,-0.0,-0.11926,0.1517,0.02539,-2.072,2.17,7.0,-0.723,-0.691,0.0,0.0
1738225471869604587,0,0,0,0,0,0,0,0,0,-0.84,2.977,6.992,-0.961,-0.3086,-0.0,-0.11926,0.1517,0.02539,-2.072,2.17,7.0,-0.723,-0.691,0.0,0.0
1738225471919644117,0,0,0,0,0,0,0,0,0,-0.9365,2.943,6.984,-0.965,-0.336,0.03125,-0.11884,0.1422,0.02904,-2.143,2.1,7.0,-0.6997,-0.7144,0.0,0.0
1738225471969608545,0,0,0,0,0,0,0,0,0,-0.9365,2.943,6.984,-0.965,-0.336,0.03125,-0.11884,0.1422,0.02904,-2.143,2.1,7.0,-0.6997,-0.7144,0.0,0.0
1738225472019645214,0,0,0,0,0,0,0,0,0,-1.001,2.92,6.977,-0.953,-0.3555,0.04688,-0.1261,0.1373,0.02724,-2.213,2.027,7.0,-0.6753,-0.7373,0.0,0.0
1738225472069616556,0,0,0,0,0,0,0,0,0,-1.069,2.895,6.977,-0.949,-0.371,0.0664,-0.1288,0.1382,0.02701,-2.213,2.027,7.0,-0.6753,-0.7373,0.0,0.0
1738225472119643688,0,0,0,0,0,0,0,0,0,-1.102,2.88,6.977,-0.9453,-0.3828,0.0703,-0.1298,0.1381,0.02756,-2.28,1.951,7.0,-0.6504,-0.7593,0.0,0.0
1738225472169644117,0,0,0,0,0,0,0,0,0,-1.138,2.865,6.977,-0.9453,-0.3945,0.0742,-0.1318,0.138,0.02829,-2.28,1.951,7.0,-0.6504,-0.7593,0.0,0.0
1738225472219629049,0,0,0,0,0,0,0,0,0,-1.196,2.84,6.98,-0.9336,-0.418,0.0703,-0.1381,0.1362,0.02809,-2.342,1.875,7.0,-0.625,-0.781,0.0,0.0
1738225472269614934,0,0,0,0,0,0,0,0,0,-1.23,2.824,6.984,-0.9297,-0.4375,0.0625,-0.1416,0.1359,0.02763,-2.342,1.875,7.0,-0.625,-0.781,0.0,0.0
1738225472319665670,0,0,0,0,0,0,0,0,0,-1.285,2.797,6.992,-0.918,-0.4688,0.04688,-0.149,0.1368,0.0288,-2.404,1.796,7.0,-0.5986,-0.8013,0.0,0.0
1738225472369667530,0,0,0,0,0,0,0,0,0,-1.318,2.78,6.996,-0.91,-0.4844,0.03516,-0.1523,0.1367,0.02821,-2.404,1.796,7.0,-0.5986,-0.8013,0.0,0.0
1738225472419712066,0,0,0,0,0,0,0,0,0,-1.374,2.748,6.61,-0.8906,-0.508,0.01953,-0.1531,0.1375,0.0265,-2.463,1.714,7.0,-0.5713,-0.821,0.0,0.0
1738225472469693899,0,0,0,0,0,0,0,0,0,-1.411,2.727,6.61,-0.8867,-0.5234,0.01953,-0.1509,0.1376,0.02713,-2.463,1.714,7.0,-0.5713,-0.821,0.0,0.0
1738225472519657611,0,0,0,0,0,0,0,0,0,-1.47,2.69,6.605,-0.875,-0.547,0.01953,-0.1409,0.1361,0.02608,-2.518,1.631,7.0,-0.544,-0.8394,0.0,0.0
1738225472569622755,0,0,0,0,0,0,0,0,0,-1.497,2.672,6.598,-0.871,-0.5547,0.02344,-0.1385,0.136,0.02502,-2.518,1.631,7.0,-0.544,-0.8394,0.0,0.0
1738225472619639158,0,0,0,0,0,0,0,0,0,-1.58,2.62,6.586,-0.8516,-0.5664,0.04297,-0.1315,0.1333,0.02654,-2.57,1.547,7.0,-0.5156,-0.857,0.0,0.0
1738225472669628858,0,0,0,0,0,0,0,0,0,-1.58,2.62,6.586,-0.8516,-0.5664,0.04297,-0.1315,0.1333,0.02654,-2.57,1.547,7.0,-0.5156,-0.857,0.0,0.0
1738225472719664096,0,0,0,0,0,0,0,0,0,-1.58,2.62,6.586,-0.8516,-0.5664,0.04297,-0.1315,0.1333,0.02654,-2.57,1.547,7.0,-0.5156,-0.857,0.0,0.0
1738225472769647836,0,0,0,0,0,0,0,0,0,-1.687,2.547,6.582,-0.8477,-0.574,0.0547,-0.1287,0.1326,0.02626,-2.621,1.46,7.0,-0.4866,-0.8735,0.0,0.0
1738225472819657564,0,0,0,0,0,0,0,0,0,-1.728,2.518,6.586,-0.84,-0.5938,0.2383,-0.12006,0.1265,0.02768,-2.668,1.372,7.0,-0.4573,-0.889,0.0,0.0
1738225472869632244,0,0,0,0,0,0,0,0,0,-1.783,2.479,6.594,-0.84,-0.6094,0.3438,-0.1313,0.1267,0.0277,-2.668,1.372,7.0,-0.4573,-0.889,0.0,0.0
1738225472919639348,0,0,0,0,0,0,0,0,0,-1.783,2.479,6.594,-0.84,-0.6094,0.3438,-0.1313,0.1267,0.0277,-2.713,1.282,7.0,-0.4275,-0.9043,0.0,0.0
1738225472969623804,0,0,0,0,0,0,0,0,0,-1.783,2.479,6.594,-0.84,-0.6094,0.3438,-0.1313,0.1267,0.0277,-2.713,1.282,7.0,-0.4275,-0.9043,0.0,0.0
1738225473019653320,0,0,0,0,0,0,0,0,0,-1.903,2.39,6.61,-0.828,-0.617,0.4102,-0.1304,0.1266,0.02629,-2.754,1.191,7.0,-0.397,-0.918,0.0,0.0
1738225473069644212,0,0,0,0,0,0,0,0,0,-1.928,2.371,6.63,-0.828,-0.633,0.4648,-0.151,0.134,0.02396,-2.754,1.191,7.0,-0.397,-0.918,0.0,0.0
1738225473119652748,0,0,0,0,0,0,0,0,0,-1.975,2.334,6.645,-0.824,-0.6562,0.4883,-0.1564,0.1368,0.02303,-2.791,1.099,7.0,-0.3662,-0.9307,0.0,0.0
1738225473169642210,0,0,0,0,0,0,0,0,0,-2.031,2.29,6.66,-0.824,-0.672,0.4883,-0.1686,0.1372,0.02351,-2.791,1.099,7.0,-0.3662,-0.9307,0.0,0.0
1738225473219644784,0,0,0,0,0,0,0,0,0,-2.08,2.248,6.68,-0.8164,-0.6914,0.4805,-0.178,0.1368,0.02548,-2.826,1.005,7.0,-0.335,-0.9424,0.0,0.0
1738225473269610404,0,0,0,0,0,0,0,0,0,-2.08,2.248,6.68,-0.8164,-0.6914,0.4805,-0.178,0.1368,0.02548,-2.826,1.005,7.0,-0.335,-0.9424,0.0,0.0
1738225473319642066,0,0,0,0,0,0,0,0,0,-2.162,2.176,6.715,-0.8125,-0.746,0.504,-0.1779,0.1301,0.02731,-2.86,0.91,7.0,-0.3035,-0.9526,0.0,0.0
1738225473369642496,0,0,0,0,0,0,0,0,0,-2.191,2.146,6.72,-0.8086,-0.7617,0.504,-0.179,0.1267,0.02744,-2.86,0.91,7.0,-0.3035,-0.9526,0.0,0.0
1738225473419651031,0,0,0,0,0,0,0,0,0,-2.191,2.146,6.72,-0.8086,-0.7617,0.504,-0.179,0.1267,0.02744,-2.887,0.8145,7.0,-0.2715,-0.9624,0.0,0.0
1738225473469609260,0,0,0,0,0,0,0,0,0,-2.191,2.146,6.72,-0.8086,-0.7617,0.504,-0.179,0.1267,0.02744,-2.887,0.8145,7.0,-0.2715,-0.9624,0.0,0.0
1738225473519649505,0,0,0,0,0,0,0,0,0,-2.303,2.04,6.742,-0.801,-0.7812,0.4844,-0.1827,0.1236,0.02759,-2.912,0.718,7.0,-0.2393,-0.971,0.0,0.0
1738225473569636344,0,0,0,0,0,0,0,0,0,-2.348,1.993,6.79,-0.785,-0.836,0.418,-0.1903,0.11707,0.0269,-2.912,0.718,7.0,-0.2393,-0.971,0.0,0.0
1738225473619651079,0,0,0,0,0,0,0,0,0,-2.379,1.958,6.81,-0.7656,-0.8633,0.3945,-0.185,0.1093,0.02669,-2.936,0.62,7.0,-0.2068,-0.9785,0.0,0.0
1738225473669638872,0,0,0,0,0,0,0,0,0,-2.428,1.901,6.82,-0.746,-0.8867,0.3828,-0.1779,0.0979,0.02686,-2.936,0.62,7.0,-0.2068,-0.9785,0.0,0.0
1738225473719632863,0,0,0,0,0,0,0,0,0,-2.428,1.901,6.82,-0.746,-0.8867,0.3828,-0.1779,0.0979,0.02686,-2.955,0.522,7.0,-0.1741,-0.985,0.0,0.0
1738225473769609212,0,0,0,0,0,0,0,0,0,-2.512,1.8,6.836,-0.7344,-0.8945,0.375,-0.1747,0.0921,0.02725,-2.955,0.522,7.0,-0.1741,-0.985,0.0,0.0
1738225473819638967,0,0,0,0,0,0,0,0,0,-2.531,1.774,6.85,-0.6875,-0.926,0.3438,-0.174,0.08386,0.02666,-2.97,0.4233,7.0,-0.1411,-0.99,0.0,0.0
1738225473869642019,0,0,0,0,0,0,0,0,0,-2.574,1.713,6.863,-0.6523,-0.9375,0.3281,-0.1693,0.08167,0.02777,-2.97,0.4233,7.0,-0.1411,-0.99,0.0,0.0
1738225473919651746,0,0,0,0,0,0,0,0,0,-2.592,1.686,6.867,-0.633,-0.957,0.3008,-0.1682,0.081,0.02774,-2.982,0.3242,7.0,-0.10803,-0.994,0.0,0.0
1738225473969641208,0,0,0,0,0,0,0,0,0,-2.613,1.653,6.875,-0.617,-0.965,0.2969,-0.1675,0.0779,0.02852,-2.982,0.3242,7.0,-0.10803,-0.994,0.0,0.0
1738225474019641637,0,0,0,0,0,0,0,0,0,-2.613,1.653,6.875,-0.617,-0.965,0.2969,-0.1675,0.0779,0.02852,-2.992,0.2246,7.0,-0.0748,-0.997,0.0,0.0
1738225474069636821,0,0,0,0,0,0,0,0,0,-2.69,1.527,6.875,-0.5977,-0.9727,0.289,-0.1674,0.0748,0.0289,-2.992,0.2246,7.0,-0.0748,-0.997,0.0,0.0
1738225474119639158,0,0,0,0,0,0,0,0,0,-2.719,1.473,6.895,-0.496,-1.016,0.25,-0.1613,0.06064,0.0288,-2.998,0.12476,7.0,-0.0416,-0.999,0.0,0.0
1738225474169641017,0,0,0,0,0,0,0,0,0,-2.742,1.421,6.906,-0.461,-1.031,0.2422,-0.1588,0.0622,0.02727,-2.998,0.12476,7.0,-0.0416,-0.999,0.0,0.0
1738225474219642400,0,0,0,0,0,0,0,0,0,-2.756,1.391,6.918,-0.4375,-1.043,0.2227,-0.1581,0.0647,0.02673,-3.0,0.02478,7.0,-0.00826,-1.0,0.0,0.0
1738225474269710302,0,0,0,0,0,0,0,0,0,-2.787,1.31,6.93,-0.4062,-1.059,0.2031,-0.1508,0.07117,0.02745,-3.0,0.02478,7.0,-0.00826,-1.0,0.0,0.0
1738225474319642066,0,0,0,0,0,0,0,0,0,-2.799,1.28,6.934,-0.379,-1.07,0.1992,-0.1439,0.0728,0.02708,-3.0,-0.0752,7.0,0.02507,-0.9995,0.0,0.0
1738225474369608402,0,0,0,0,0,0,0,0,0,-2.799,1.28,6.934,-0.379,-1.07,0.1992,-0.1439,0.0728,0.02708,-3.0,-0.0752,7.0,0.02507,-0.9995,0.0,0.0
1738225474419645547,0,0,0,0,0,0,0,0,0,-2.84,1.156,6.94,-0.3672,-1.074,0.1992,-0.1407,0.07184,0.02554,-2.994,-0.1752,7.0,0.05838,-0.9985,0.0,0.0
1738225474469642400,0,0,0,0,0,0,0,0,0,-2.85,1.121,6.953,-0.2969,-1.086,0.168,-0.1421,0.06726,0.02693,-2.994,-0.1752,7.0,0.05838,-0.9985,0.0,0.0
1738225474519640207,0,0,0,0,0,0,0,0,0,-2.865,1.065,6.957,-0.2617,-1.094,0.1562,-0.1399,0.07056,0.02837,-2.988,-0.275,7.0,0.0916,-0.9956,0.0,0.0
1738225474569619894,0,0,0,0,0,0,0,0,0,-2.871,1.031,6.957,-0.2461,-1.105,0.1406,-0.1377,0.0724,0.02869,-2.988,-0.275,7.0,0.0916,-0.9956,0.0,0.0
1738225474619645118,0,0,0,0,0,0,0,0,0,-2.887,0.9536,6.96,-0.1992,-1.098,0.1133,-0.1329,0.0753,0.02829,-2.977,-0.3743,7.0,0.12476,-0.992,0.0,0.0
1738225474669641733,0,0,0,0,0,0,0,0,0,-2.893,0.919,6.96,-0.1875,-1.102,0.1133,-0.1287,0.07587,0.02853,-2.977,-0.3743,7.0,0.12476,-0.992,0.0,0.0
1738225474719650506,0,0,0,0,0,0,0,0,0,-2.902,0.853,6.96,-0.1602,-1.102,0.10156,-0.1175,0.07764,0.02823,-2.963,-0.4731,7.0,0.1577,-0.9873,0.0,0.0
1738225474769640684,0,0,0,0,0,0,0,0,0,-2.908,0.809,6.957,-0.1523,-1.098,0.09375,-0.11426,0.0794,0.02837,-2.963,-0.4731,7.0,0.1577,-0.9873,0.0,0.0
1738225474819642782,0,0,0,0,0,0,0,0,0,-2.918,0.733,6.957,-0.1367,-1.086,0.08594,-0.11017,0.08905,0.02727,-2.945,-0.572,7.0,0.1906,-0.9814,0.0,0.0
1738225474869609832,0,0,0,0,0,0,0,0,0,-2.918,0.733,6.957,-0.1367,-1.086,0.08594,-0.11017,0.08905,0.02727,-2.945,-0.572,7.0,0.1906,-0.9814,0.0,0.0
1738225474919638633,0,0,0,0,0,0,0,0,0,-2.918,0.733,6.957,-0.1367,-1.086,0.08594,-0.11017,0.08905,0.02727,-2.924,-0.6694,7.0,0.2231,-0.9746,0.0,0.0
1738225474969640970,0,0,0,0,0,0,0,0,0,-2.936,0.5776,6.957,-0.1172,-1.082,0.08203,-0.10724,0.0929,0.02658,-2.924,-0.6694,7.0,0.2231,-0.9746,0.0,0.0
1738225475019652128,0,0,0,0,0,0,0,0,0,-2.941,0.514,6.957,-0.1211,-1.035,0.08203,-0.0974,0.10004,0.02547,-2.9,-0.7666,7.0,0.2556,-0.967,0.0,0.0
1738225475069634914,0,0,0,0,0,0,0,0,0,-2.945,0.49,6.953,-0.1211,-1.023,0.08203,-0.096,0.10187,0.0257,-2.9,-0.7666,7.0,0.2556,-0.967,0.0,0.0
1738225475119641304,0,0,0,0,0,0,0,0,0,-2.957,0.398,6.96,-0.1211,-0.9844,0.09766,-0.095,0.101,0.02554,-2.873,-0.863,7.0,0.2876,-0.9575,0.0,0.0
1738225475169622898,0,0,0,0,0,0,0,0,0,-2.957,0.398,6.96,-0.1211,-0.9844,0.09766,-0.095,0.101,0.02554,-2.873,-0.863,7.0,0.2876,-0.9575,0.0,0.0
1738225475219647407,0,0,0,0,0,0,0,0,0,-2.969,0.3008,6.97,-0.1289,-0.9336,0.08594,-0.1002,0.0962,0.02846,-2.844,-0.958,7.0,0.3193,-0.9478,0.0,0.0
1738225475269626140,0,0,0,0,0,0,0,0,0,-2.969,0.3008,6.97,-0.1289,-0.9336,0.08594,-0.1002,0.0962,0.02846,-2.844,-0.958,7.0,0.3193,-0.9478,0.0,0.0
1738225475319649934,0,0,0,0,0,0,0,0,0,-2.982,0.2083,6.973,-0.1289,-0.9062,0.0703,-0.10986,0.09406,0.02713,-2.809,-1.053,7.0,0.3508,-0.9365,0.0,0.0
1738225475369632482,0,0,0,0,0,0,0,0,0,-2.982,0.2083,6.973,-0.1289,-0.9062,0.0703,-0.10986,0.09406,0.02713,-2.809,-1.053,7.0,0.3508,-0.9365,0.0,0.0
1738225475419646024,0,0,0,0,0,0,0,0,0,-2.996,0.1213,6.97,-0.1289,-0.871,0.0625,-0.1173,0.0869,0.02757,-2.773,-1.1455,7.0,0.3818,-0.9243,0.0,0.0
1738225475469631433,0,0,0,0,0,0,0,0,0,-2.996,0.1213,6.97,-0.1289,-0.871,0.0625,-0.1173,0.0869,0.02757,-2.773,-1.1455,7.0,0.3818,-0.9243,0.0,0.0
1738225475519636631,0,0,0,0,0,0,0,0,0,-3.008,0.03387,6.97,-0.1133,-0.8633,0.05078,-0.1257,0.07996,0.0279,-2.732,-1.237,7.0,0.4124,-0.911,0.0,0.0
1738225475569630384,0,0,0,0,0,0,0,0,0,-3.008,0.03387,6.97,-0.1133,-0.8633,0.05078,-0.1257,0.07996,0.0279,-2.732,-1.237,7.0,0.4124,-0.911,0.0,0.0
1738225475619647502,0,0,0,0,0,0,0,0,0,-3.018,-0.04727,6.97,-0.10547,-0.8555,0.03125,-0.1366,0.07184,0.02887,-2.69,-1.327,7.0,0.4426,-0.897,0.0,0.0
1738225475669636011,0,0,0,0,0,0,0,0,0,-3.023,-0.08673,6.97,-0.09766,-0.8594,0.02344,-0.1418,0.0689,0.02878,-2.69,-1.327,7.0,0.4426,-0.897,0.0,0.0
1738225475719640254,0,0,0,0,0,0,0,0,0,-3.025,-0.11487,6.97,-0.08594,-0.871,0.01953,-0.1467,0.064,0.02983,-2.645,-1.416,7.0,0.4722,-0.8813,0.0,0.0
1738225475769632816,0,0,0,0,0,0,0,0,0,-3.03,-0.1505,6.97,-0.0703,-0.883,0.01563,-0.1471,0.06183,0.02986,-2.645,-1.416,7.0,0.4722,-0.8813,0.0,0.0
1738225475819646835,0,0,0,0,0,0,0,0,0,-3.031,-0.2031,6.97,-0.04688,-0.9023,0.02344,-0.1476,0.05725,0.02933,-2.596,-1.504,7.0,0.5015,-0.865,0.0,0.0
1738225475869632720,0,0,0,0,0,0,0,0,0,-3.031,-0.2031,6.97,-0.04688,-0.9023,0.02344,-0.1476,0.05725,0.02933,-2.596,-1.504,7.0,0.5015,-0.865,0.0,0.0
1738225475919641256,0,0,0,0,0,0,0,0,0,-3.035,-0.3174,6.97,-0.03125,-0.9062,0.03125,-0.1486,0.05466,0.02875,-2.545,-1.59,7.0,0.53,-0.848,0.0,0.0
1738225475969639778,0,0,0,0,0,0,0,0,0,-3.035,-0.3542,6.97,0.01953,-0.9336,0.04688,-0.1453,0.0426,0.02715,-2.545,-1.59,7.0,0.53,-0.848,0.0,0.0
1738225476019647836,0,0,0,0,0,0,0,0,0,-3.035,-0.3884,6.973,0.04688,-0.953,0.04297,-0.146,0.03918,0.0286,-2.49,-1.674,7.0,0.5576,-0.83,0.0,0.0
1738225476069633245,0,0,0,0,0,0,0,0,0,-3.03,-0.4548,6.97,0.08203,-0.965,0.04688,-0.1473,0.04138,0.02805,-2.49,-1.674,7.0,0.5576,-0.83,0.0,0.0
1738225476119651317,0,0,0,0,0,0,0,0,0,-3.027,-0.478,6.97,0.09766,-0.9727,0.04688,-0.1466,0.04184,0.02791,-2.434,-1.756,7.0,0.585,-0.811,0.0,0.0
1738225476169641017,0,0,0,0,0,0,0,0,0,-3.021,-0.5166,6.97,0.1211,-0.9766,0.0547,-0.1437,0.04132,0.02812,-2.434,-1.756,7.0,0.585,-0.811,0.0,0.0
1738225476219646453,0,0,0,0,0,0,0,0,0,-3.014,-0.5757,6.973,0.1641,-0.9883,0.0625,-0.1361,0.03735,0.02756,-2.373,-1.836,7.0,0.612,-0.791,0.0,0.0
1738225476269641876,0,0,0,0,0,0,0,0,0,-3.006,-0.617,6.973,0.1836,-0.9805,0.0625,-0.1302,0.0357,0.02765,-2.373,-1.836,7.0,0.612,-0.791,0.0,0.0
1738225476319645404,0,0,0,0,0,0,0,0,0,-2.994,-0.6743,6.977,0.2188,-0.9688,0.05078,-0.126,0.034,0.03076,-2.31,-1.914,7.0,0.6377,-0.77,0.0,0.0
1738225476369636535,0,0,0,0,0,0,0,0,0,-2.994,-0.6743,6.977,0.2188,-0.9688,0.05078,-0.126,0.034,0.03076,-2.31,-1.914,7.0,0.6377,-0.77,0.0,0.0
1738225476419652462,0,0,0,0,0,0,0,0,0,-2.994,-0.6743,6.977,0.2188,-0.9688,0.05078,-0.126,0.034,0.03076,-2.246,-1.989,7.0,0.663,-0.7485,0.0,0.0
1738225476469723701,0,0,0,0,0,0,0,0,0,-2.951,-0.839,6.98,0.2734,-0.957,0.04297,-0.1367,0.04156,0.02788,-2.246,-1.989,7.0,0.663,-0.7485,0.0,0.0
1738225476519719123,0,0,0,0,0,0,0,0,0,-2.936,-0.889,6.977,0.3281,-0.957,0.03125,-0.1364,0.046,0.02647,-2.178,-2.062,7.0,0.688,-0.726,0.0,0.0
1738225476569757223,0,0,0,0,0,0,0,0,0,-2.918,-0.936,6.977,0.3672,-0.9336,0.03125,-0.1377,0.0456,0.02586,-2.178,-2.062,7.0,0.688,-0.726,0.0,0.0
1738225476619633436,0,0,0,0,0,0,0,0,0,-2.906,-0.9624,6.977,0.3828,-0.9375,0.02734,-0.1368,0.04672,0.02617,-2.107,-2.135,7.0,0.7114,-0.7026,0.0,0.0
1738225476669630527,0,0,0,0,0,0,0,0,0,-2.906,-0.9624,6.977,0.3828,-0.9375,0.02734,-0.1368,0.04672,0.02617,-2.107,-2.135,7.0,0.7114,-0.7026,0.0,0.0
1738225476719710111,0,0,0,0,0,0,0,0,0,-2.906,-0.9624,6.977,0.3828,-0.9375,0.02734,-0.1368,0.04672,0.02617,-2.035,-2.203,7.0,0.7344,-0.6787,0.0,0.0
1738225476769782066,0,0,0,0,0,0,0,0,0,-2.84,-1.113,6.977,0.418,-0.926,0.03125,-0.132,0.04614,0.02608,-2.035,-2.203,7.0,0.7344,-0.6787,0.0,0.0
1738225476819711923,0,0,0,0,0,0,0,0,0,-2.82,-1.151,6.973,0.4922,-0.914,0.03516,-0.1323,0.04416,0.02742,-1.961,-2.27,7.0,0.757,-0.654,0.0,0.0
1738225476869674444,0,0,0,0,0,0,0,0,0,-2.82,-1.151,6.973,0.4922,-0.914,0.03516,-0.1323,0.04416,0.02742,-1.961,-2.27,7.0,0.757,-0.654,0.0,0.0
1738225476919668674,0,0,0,0,0,0,0,0,0,-2.762,-1.255,6.973,0.5117,-0.8945,0.03516,-0.1315,0.04684,0.02763,-1.884,-2.334,7.0,0.7783,-0.628,0.0,0.0
1738225476969668149,0,0,0,0,0,0,0,0,0,-2.732,-1.304,6.97,0.543,-0.879,0.03906,-0.1359,0.0685,0.0246,-1.884,-2.334,7.0,0.7783,-0.628,0.0,0.0
1738225477019638299,0,0,0,0,0,0,0,0,0,-2.715,-1.33,6.97,0.547,-0.883,0.03906,-0.1353,0.075,0.02368,-1.884,-2.334,7.0,0.7783,-0.628,0.0,0.0
1738225477069646835,0,0,0,0,0,0,0,0,0,-2.715,-1.33,6.97,0.547,-0.883,0.03906,-0.1353,0.075,0.02368,-1.806,-2.396,7.0,0.799,-0.6016,0.0,0.0
1738225477119633913,0,0,0,0,0,0,0,0,0,-2.656,-1.425,6.97,0.547,-0.8906,0.03906,-0.136,0.08026,0.02293,-1.725,-2.455,7.0,0.8184,-0.5747,0.0,0.0
1738225477169645786,0,0,0,0,0,0,0,0,0,-2.629,-1.471,6.965,0.5547,-0.8984,0.04688,-0.1345,0.08154,0.02414,-1.725,-2.455,7.0,0.8184,-0.5747,0.0,0.0
1738225477219637393,0,0,0,0,0,0,0,0,0,-2.604,-1.511,6.965,0.5586,-0.8906,0.0547,-0.1288,0.0799,0.02618,-1.642,-2.512,7.0,0.837,-0.5474,0.0,0.0
1738225477269646883,0,0,0,0,0,0,0,0,0,-2.562,-1.573,6.965,0.5664,-0.875,0.0625,-0.1221,0.0793,0.026,-1.642,-2.512,7.0,0.837,-0.5474,0.0,0.0
1738225477319640874,0,0,0,0,0,0,0,0,0,-2.547,-1.598,6.965,0.574,-0.875,0.0742,-0.12134,0.0782,0.02621,-1.557,-2.564,7.0,0.855,-0.519,0.0,0.0
1738225477369659423,0,0,0,0,0,0,0,0,0,-2.53,-1.625,6.965,0.578,-0.867,0.08203,-0.119,0.07733,0.02696,-1.557,-2.564,7.0,0.855,-0.519,0.0,0.0
1738225477419644117,0,0,0,0,0,0,0,0,0,-2.53,-1.625,6.965,0.578,-0.867,0.08203,-0.119,0.07733,0.02696,-1.557,-2.564,7.0,0.855,-0.519,0.0,0.0
1738225477469658613,0,0,0,0,0,0,0,0,0,-2.467,-1.718,6.965,0.5664,-0.8594,0.08594,-0.11914,0.0771,0.02673,-1.471,-2.615,7.0,0.8716,-0.4902,0.0,0.0
1738225477519641876,0,0,0,0,0,0,0,0,0,-2.432,-1.771,6.965,0.574,-0.84,0.09375,-0.11707,0.08167,0.02594,-1.383,-2.662,7.0,0.887,-0.461,0.0,0.0
1738225477569643497,0,0,0,0,0,0,0,0,0,-2.414,-1.795,6.965,0.578,-0.84,0.09375,-0.1172,0.0807,0.02586,-1.383,-2.662,7.0,0.887,-0.461,0.0,0.0
1738225477619637489,0,0,0,0,0,0,0,0,0,-2.373,-1.855,6.97,0.574,-0.8047,0.09766,-0.11835,0.08014,0.02731,-1.293,-2.707,7.0,0.9023,-0.4312,0.0,0.0
1738225477669647455,0,0,0,0,0,0,0,0,0,-2.338,-1.902,6.97,0.574,-0.797,0.10156,-0.11475,0.0789,0.02826,-1.293,-2.707,7.0,0.9023,-0.4312,0.0,0.0
1738225477719637393,0,0,0,0,0,0,0,0,0,-2.316,-1.934,6.97,0.574,-0.793,0.10547,-0.1118,0.0787,0.02852,-1.202,-2.748,7.0,0.916,-0.401,0.0,0.0
1738225477769658327,0,0,0,0,0,0,0,0,0,-2.299,-1.957,6.97,0.578,-0.789,0.1094,-0.1074,0.0762,0.0293,-1.202,-2.748,7.0,0.916,-0.401,0.0,0.0
1738225477819653034,0,0,0,0,0,0,0,0,0,-2.264,-2.006,6.973,0.586,-0.7773,0.1172,-0.1022,0.06836,0.02904,-1.11,-2.787,7.0,0.929,-0.37,0.0,0.0
1738225477869648218,0,0,0,0,0,0,0,0,0,-2.22,-2.06,6.977,0.6055,-0.754,0.1211,-0.09973,0.05896,0.02788,-1.11,-2.787,7.0,0.929,-0.37,0.0,0.0
1738225477919662952,0,0,0,0,0,0,0,0,0,-2.201,-2.084,7.004,0.617,-0.742,0.1133,-0.0993,0.0558,0.0278,-1.017,-2.822,7.0,0.941,-0.3389,0.0,0.0
1738225477969648838,0,0,0,0,0,0,0,0,0,-2.158,-2.133,7.004,0.6367,-0.7305,0.1133,-0.1013,0.0518,0.02782,-1.017,-2.822,7.0,0.941,-0.3389,0.0,0.0
1738225478019646883,0,0,0,0,0,0,0,0,0,-2.14,-2.152,7.008,0.629,-0.711,0.10156,-0.0988,0.05164,0.02826,-0.922,-2.855,7.0,0.9517,-0.3074,0.0,0.0
1738225478069652080,0,0,0,0,0,0,0,0,0,-2.092,-2.205,7.01,0.6484,-0.699,0.08984,-0.09625,0.0531,0.02875,-0.922,-2.855,7.0,0.9517,-0.3074,0.0,0.0
1738225478119648456,0,0,0,0,0,0,0,0,0,-2.074,-2.223,7.02,0.66,-0.6914,0.08594,-0.0972,0.0532,0.02798,-0.826,-2.885,7.0,0.9614,-0.2754,0.0,0.0
1738225478169642686,0,0,0,0,0,0,0,0,0,-2.027,-2.271,7.03,0.676,-0.676,0.0703,-0.0951,0.05276,0.02708,-0.826,-2.885,7.0,0.9614,-0.2754,0.0,0.0
1738225478219639778,0,0,0,0,0,0,0,0,0,-2.006,-2.291,7.03,0.6836,-0.6445,0.0664,-0.09375,0.05273,0.02724,-0.73,-2.91,7.0,0.9697,-0.2433,0.0,0.0
1738225478269643068,0,0,0,0,0,0,0,0,0,-1.982,-2.312,7.03,0.6953,-0.6406,0.0586,-0.0926,0.05164,0.0278,-0.73,-2.91,7.0,0.9697,-0.2433,0.0,0.0
1738225478319631338,0,0,0,0,0,0,0,0,0,-1.932,-2.357,7.04,0.715,-0.617,0.04688,-0.0946,0.049,0.02812,-0.6323,-2.932,7.0,0.9775,-0.2108,0.0,0.0
1738225478369644880,0,0,0,0,0,0,0,0,0,-1.909,-2.377,7.05,0.7227,-0.6133,0.04297,-0.0951,0.0467,0.02821,-0.6323,-2.932,7.0,0.9775,-0.2108,0.0,0.0
1738225478419637918,0,0,0,0,0,0,0,0,0,-1.861,-2.414,7.05,0.746,-0.582,0.03516,-0.0888,0.04178,0.03004,-0.534,-2.951,7.0,0.984,-0.1781,0.0,0.0
1738225478469761371,0,0,0,0,0,0,0,0,0,-1.84,-2.432,7.05,0.758,-0.578,0.03906,-0.08575,0.0408,0.03076,-0.534,-2.951,7.0,0.984,-0.1781,0.0,0.0
1738225478519744396,0,0,0,0,0,0,0,0,0,-1.788,-2.469,7.05,0.793,-0.551,0.02734,-0.0818,0.03568,0.02995,-0.4355,-2.969,7.0,0.9893,-0.1453,0.0,0.0
1738225478569786071,0,0,0,0,0,0,0,0,0,-1.76,-2.488,7.05,0.8047,-0.543,0.01953,-0.08356,0.03235,0.0287,-0.4355,-2.969,7.0,0.9893,-0.1453,0.0,0.0
1738225478619645833,0,0,0,0,0,0,0,0,0,-1.701,-2.523,7.047,0.836,-0.508,0.01563,-0.08466,0.03336,0.02902,-0.3364,-2.98,7.0,0.9937,-0.1122,0.0,0.0
1738225478669642448,0,0,0,0,0,0,0,0,0,-1.676,-2.54,7.047,0.8477,-0.504,0.01172,-0.0819,0.03488,0.03108,-0.3364,-2.98,7.0,0.9937,-0.1122,0.0,0.0
1738225478719635009,0,0,0,0,0,0,0,0,0,-1.613,-2.574,7.043,0.875,-0.4844,0.01563,-0.0837,0.03952,0.03036,-0.2369,-2.99,7.0,0.997,-0.079,0.0,0.0
1738225478769646644,0,0,0,0,0,0,0,0,0,-1.586,-2.59,7.043,0.883,-0.4766,0.01563,-0.08466,0.0416,0.03001,-0.2369,-2.99,7.0,0.997,-0.079,0.0,0.0
1738225478819638967,0,0,0,0,0,0,0,0,0,-1.526,-2.62,7.035,0.9062,-0.4531,0.02344,-0.0846,0.04404,0.0299,-0.1371,-2.996,7.0,0.999,-0.04572,0.0,0.0
1738225478869645595,0,0,0,0,0,0,0,0,0,-1.495,-2.635,7.035,0.91,-0.4453,0.02344,-0.084,0.04562,0.0301,-0.1371,-2.996,7.0,0.999,-0.04572,0.0,0.0
1738225478919637441,0,0,0,0,0,0,0,0,0,-1.433,-2.664,7.03,0.926,-0.4297,0.02734,-0.086,0.05005,0.03,-0.03717,-3.0,7.0,1.0,-0.01239,0.0,0.0
1738225478969645500,0,0,0,0,0,0,0,0,0,-1.399,-2.68,7.027,0.9297,-0.4219,0.03125,-0.0875,0.05096,0.03041,-0.03717,-3.0,7.0,1.0,-0.01239,0.0,0.0
1738225479019639730,0,0,0,0,0,0,0,0,0,-1.346,-2.703,7.027,0.9297,-0.418,0.03906,-0.09045,0.05087,0.03058,0.0628,-3.0,7.0,1.0,0.02095,0.0,0.0
1738225479069627046,0,0,0,0,0,0,0,0,0,-1.313,-2.719,7.023,0.9375,-0.414,0.03906,-0.09247,0.04944,0.03047,0.0628,-3.0,7.0,1.0,0.02095,0.0,0.0
1738225479119617223,0,0,0,0,0,0,0,0,0,-1.223,-2.758,7.11,0.965,-0.4102,0.04297,-0.09796,0.04608,0.03223,0.1627,-2.996,7.0,0.9985,0.05426,0.0,0.0
1738225479169627666,0,0,0,0,0,0,0,0,0,-1.223,-2.758,7.11,0.965,-0.4102,0.04297,-0.09796,0.04608,0.03223,0.1627,-2.996,7.0,0.9985,0.05426,0.0,0.0
1738225479219630479,0,0,0,0,0,0,0,0,0,-1.154,-2.785,7.11,0.9766,-0.4023,0.05078,-0.08624,0.04825,0.03079,0.1627,-2.996,7.0,0.9985,0.05426,0.0,0.0
1738225479269649505,0,0,0,0,0,0,0,0,0,-1.154,-2.785,7.11,0.9766,-0.4023,0.05078,-0.08624,0.04825,0.03079,0.2625,-2.988,7.0,0.996,0.0875,0.0,0.0
1738225479319678306,0,0,0,0,0,0,0,0,0,-1.027,-2.836,7.11,0.9883,-0.3945,0.0547,-0.08307,0.04816,0.02928,0.362,-2.979,7.0,0.9927,0.12067,0.0,0.0
1738225479369666576,0,0,0,0,0,0,0,0,0,-0.996,-2.848,7.113,1.0,-0.3672,0.0625,-0.0829,0.05737,0.02794,0.362,-2.979,7.0,0.9927,0.12067,0.0,0.0
1738225479419658660,0,0,0,0,0,0,0,0,0,-0.928,-2.871,7.113,0.9883,-0.332,0.04297,-0.08453,0.0792,0.02649,0.461,-2.965,7.0,0.9883,0.1537,0.0,0.0
1738225479469652175,0,0,0,0,0,0,0,0,0,-0.928,-2.871,7.113,0.9883,-0.332,0.04297,-0.08453,0.0792,0.02649,0.461,-2.965,7.0,0.9883,0.1537,0.0,0.0
1738225479519644975,0,0,0,0,0,0,0,0,0,-0.8535,-2.895,7.13,0.9727,-0.3086,-0.01953,-0.0855,0.0796,0.029,0.5596,-2.947,7.0,0.9824,0.1865,0.0,0.0
1738225479569651603,0,0,0,0,0,0,0,0,0,-0.813,-2.908,7.125,0.965,-0.3086,-0.0547,-0.08673,0.07935,0.02823,0.5596,-2.947,7.0,0.9824,0.1865,0.0,0.0
1738225479619651317,0,0,0,0,0,0,0,0,0,-0.76,-2.924,7.117,0.953,-0.289,-0.0547,-0.0845,0.0751,0.02911,0.657,-2.928,7.0,0.9756,0.2191,0.0,0.0
1738225479669643163,0,0,0,0,0,0,0,0,0,-0.724,-2.936,7.117,0.949,-0.2695,-0.04688,-0.0764,0.07227,0.03,0.657,-2.928,7.0,0.9756,0.2191,0.0,0.0
1738225479719638347,0,0,0,0,0,0,0,0,0,-0.6665,-2.95,7.113,0.9414,-0.2422,-0.04688,-0.05807,0.0665,0.0318,0.755,-2.904,7.0,0.968,0.2515,0.0,0.0
1738225479769643783,0,0,0,0,0,0,0,0,0,-0.6294,-2.959,7.11,0.9414,-0.2188,-0.0547,-0.05444,0.06415,0.03186,0.755,-2.904,7.0,0.968,0.2515,0.0,0.0
1738225479819639444,0,0,0,0,0,0,0,0,0,-0.571,-2.97,7.105,0.9453,-0.1758,-0.0664,-0.0567,0.05582,0.02994,0.851,-2.877,7.0,0.959,0.2837,0.0,0.0
1738225479869642019,0,0,0,0,0,0,0,0,0,-0.536,-2.977,7.1,0.9414,-0.1641,-0.0742,-0.0601,0.0524,0.02872,0.851,-2.877,7.0,0.959,0.2837,0.0,0.0
1738225479919639348,0,0,0,0,0,0,0,0,0,-0.4768,-2.986,7.105,0.9453,-0.1328,-0.08984,-0.0661,0.05206,0.02687,0.9463,-2.848,7.0,0.9487,0.3154,0.0,0.0
1738225479969641447,0,0,0,0,0,0,0,0,0,-0.4355,-2.99,7.1,0.953,-0.1211,-0.09766,-0.07184,0.05228,0.0272,0.9463,-2.848,7.0,0.9487,0.3154,0.0,0.0
1738225480019640207,0,0,0,0,0,0,0,0,0,-0.3845,-2.996,7.1,0.949,-0.10547,-0.0781,-0.07623,0.0488,0.03003,1.041,-2.814,7.0,0.938,0.347,0.0,0.0
1738225480069641113,0,0,0,0,0,0,0,0,0,-0.3435,-3.0,7.098,0.957,-0.09375,-0.0703,-0.07495,0.04657,0.02954,1.041,-2.814,7.0,0.938,0.347,0.0,0.0
1738225480119642257,0,0,0,0,0,0,0,0,0,-0.2866,-3.006,7.105,0.9727,-0.0703,-0.0664,-0.0691,0.04343,0.02953,1.134,-2.777,7.0,0.926,0.378,0.0,0.0
1738225480169651985,0,0,0,0,0,0,0,0,0,-0.2113,-3.01,7.1,0.9883,-0.03906,-0.0742,-0.0757,0.0411,0.02728,1.134,-2.777,7.0,0.926,0.378,0.0,0.0
1738225480219645738,0,0,0,0,0,0,0,0,0,-0.2113,-3.01,7.1,0.9883,-0.03906,-0.0742,-0.0757,0.0411,0.02728,1.226,-2.738,7.0,0.9126,0.4087,0.0,0.0
1738225480269639730,0,0,0,0,0,0,0,0,0,-0.2113,-3.01,7.1,0.9883,-0.03906,-0.0742,-0.0757,0.0411,0.02728,1.226,-2.738,7.0,0.9126,0.4087,0.0,0.0
1738225480319636106,0,0,0,0,0,0,0,0,0,-0.06226,-3.014,7.098,0.992,-0.01953,-0.08203,-0.07355,0.05353,0.02724,1.316,-2.695,7.0,0.8984,0.4387,0.0,0.0
1738225480369643449,0,0,0,0,0,0,0,0,0,-0.02837,-3.014,7.086,0.9805,0.0,-0.08594,-0.07874,0.0665,0.02867,1.316,-2.695,7.0,0.8984,0.4387,0.0,0.0
1738225480419644355,0,0,0,0,0,0,0,0,0,0.007774,-3.012,7.08,0.9766,0.01953,-0.08594,-0.07513,0.06274,0.02686,1.405,-2.65,7.0,0.8833,0.4685,0.0,0.0
1738225480469646453,0,0,0,0,0,0,0,0,0,0.0518,-3.012,7.08,0.9805,0.03125,-0.08594,-0.0752,0.0587,0.02725,1.405,-2.65,7.0,0.8833,0.4685,0.0,0.0
1738225480519640922,0,0,0,0,0,0,0,0,0,0.1091,-3.01,7.08,0.9883,0.04297,-0.08594,-0.0758,0.04773,0.02788,1.493,-2.602,7.0,0.867,0.4978,0.0,0.0
1738225480569643735,0,0,0,0,0,0,0,0,0,0.146,-3.008,7.074,0.996,0.05078,-0.08594,-0.07477,0.04465,0.02754,1.493,-2.602,7.0,0.867,0.4978,0.0,0.0
1738225480619641065,0,0,0,0,0,0,0,0,0,0.2048,-3.004,7.066,1.004,0.0664,-0.08203,-0.0737,0.04938,0.0269,1.579,-2.55,7.0,0.85,0.5264,0.0,0.0
1738225480669661283,0,0,0,0,0,0,0,0,0,0.2489,-3.0,7.062,1.004,0.0703,-0.0781,-0.0732,0.05182,0.02719,1.579,-2.55,7.0,0.85,0.5264,0.0,0.0
1738225480719643115,0,0,0,0,0,0,0,0,0,0.315,-2.996,7.062,1.008,0.08594,-0.0547,-0.0712,0.05267,0.0283,1.663,-2.496,7.0,0.832,0.554,0.0,0.0
1738225480769644737,0,0,0,0,0,0,0,0,0,0.3484,-2.992,7.062,1.012,0.09766,-0.04688,-0.06915,0.05252,0.028,1.663,-2.496,7.0,0.832,0.554,0.0,0.0
1738225480819647312,0,0,0,0,0,0,0,0,0,0.4133,-2.984,7.066,1.012,0.1094,-0.05078,-0.0705,0.0552,0.0269,1.745,-2.44,7.0,0.8135,0.582,0.0,0.0
1738225480869651556,0,0,0,0,0,0,0,0,0,0.4802,-2.977,7.062,1.0,0.125,-0.0547,-0.07263,0.0613,0.02637,1.745,-2.44,7.0,0.8135,0.582,0.0,0.0
1738225480919641971,0,0,0,0,0,0,0,0,0,0.518,-2.973,7.06,0.996,0.1289,-0.0586,-0.0721,0.0639,0.02641,1.826,-2.38,7.0,0.7935,0.6084,0.0,0.0
1738225480969648599,0,0,0,0,0,0,0,0,0,0.5527,-2.967,7.06,0.9883,0.1328,-0.0586,-0.0708,0.066,0.02736,1.826,-2.38,7.0,0.7935,0.6084,0.0,0.0
1738225481019643068,0,0,0,0,0,0,0,0,0,0.6157,-2.959,7.062,0.9805,0.1406,-0.0625,-0.06757,0.06464,0.02605,1.904,-2.318,7.0,0.773,0.635,0.0,0.0
1738225481069648742,0,0,0,0,0,0,0,0,0,0.6787,-2.95,7.062,0.9844,0.1523,-0.0625,-0.0615,0.05997,0.02711,1.904,-2.318,7.0,0.773,0.635,0.0,0.0
1738225481119631767,0,0,0,0,0,0,0,0,0,0.7183,-2.941,7.06,0.9805,0.1719,-0.0625,-0.0586,0.05673,0.02681,1.98,-2.254,7.0,0.751,0.66,0.0,0.0
1738225481169640302,0,0,0,0,0,0,0,0,0,0.7456,-2.938,7.06,0.9844,0.1797,-0.0664,-0.05435,0.05423,0.027,1.98,-2.254,7.0,0.751,0.66,0.0,0.0
1738225481219651937,0,0,0,0,0,0,0,0,0,0.8193,-2.924,7.062,1.0,0.1953,-0.0664,-0.05112,0.04895,0.02745,2.055,-2.186,7.0,0.729,0.6846,0.0,0.0
1738225481269648313,0,0,0,0,0,0,0,0,0,0.846,-2.918,7.074,1.004,0.2031,-0.0664,-0.04712,0.04813,0.02684,2.055,-2.186,7.0,0.729,0.6846,0.0,0.0
1738225481319634914,0,0,0,0,0,0,0,0,0,0.9146,-2.902,7.07,1.016,0.2305,-0.0547,-0.04074,0.0501,0.02621,2.127,-2.117,7.0,0.7056,0.7085,0.0,0.0
1738225481369648218,0,0,0,0,0,0,0,0,0,0.95,-2.895,7.07,1.02,0.25,-0.04688,-0.03653,0.0548,0.02586,2.127,-2.117,7.0,0.7056,0.7085,0.0,0.0
1738225481419651985,0,0,0,0,0,0,0,0,0,1.01,-2.879,7.066,1.016,0.2852,-0.04297,-0.02841,0.0662,0.02716,2.195,-2.045,7.0,0.6816,0.732,0.0,0.0
1738225481469639539,0,0,0,0,0,0,0,0,0,1.01,-2.879,7.066,1.016,0.2852,-0.04297,-0.02841,0.0662,0.02716,2.195,-2.045,7.0,0.6816,0.732,0.0,0.0
1738225481519634485,0,0,0,0,0,0,0,0,0,1.128,-2.844,7.066,1.012,0.3008,-0.04297,-0.02504,0.06995,0.0282,2.262,-1.971,7.0,0.6567,0.754,0.0,0.0
1738225481569645166,0,0,0,0,0,0,0,0,0,1.167,-2.83,7.062,1.012,0.3594,-0.05078,-0.02133,0.0726,0.02843,2.262,-1.971,7.0,0.6567,0.754,0.0,0.0
1738225481619656801,0,0,0,0,0,0,0,0,0,1.221,-2.809,7.055,1.004,0.418,-0.0586,-0.02423,0.07837,0.02715,2.326,-1.894,7.0,0.6313,0.7754,0.0,0.0
1738225481669648408,0,0,0,0,0,0,0,0,0,1.248,-2.797,7.055,1.0,0.4336,-0.0586,-0.02678,0.07965,0.02716,2.326,-1.894,7.0,0.6313,0.7754,0.0,0.0
1738225481719641923,0,0,0,0,0,0,0,0,0,1.317,-2.764,7.062,0.9805,0.4883,-0.0625,-0.02841,0.08527,0.02727,2.389,-1.815,7.0,0.605,0.7964,0.0,0.0
1738225481769648075,0,0,0,0,0,0,0,0,0,1.379,-2.73,7.062,0.965,0.5312,-0.0625,-0.02885,0.0923,0.02885,2.389,-1.815,7.0,0.605,0.7964,0.0,0.0
1738225481819649934,0,0,0,0,0,0,0,0,0,1.413,-2.71,7.07,0.953,0.551,-0.0664,-0.03038,0.0945,0.02962,2.447,-1.734,7.0,0.578,0.816,0.0,0.0
1738225481869649648,0,0,0,0,0,0,0,0,0,1.442,-2.693,7.066,0.9453,0.582,-0.0664,-0.03378,0.09576,0.02956,2.447,-1.734,7.0,0.578,0.816,0.0,0.0
1738225481919635534,0,0,0,0,0,0,0,0,0,1.51,-2.648,7.07,0.922,0.617,-0.0625,-0.03784,0.0967,0.02861,2.504,-1.652,7.0,0.551,0.8345,0.0,0.0
1738225481969659090,0,0,0,0,0,0,0,0,0,1.536,-2.63,7.082,0.914,0.633,-0.0547,-0.03906,0.09656,0.02892,2.504,-1.652,7.0,0.551,0.8345,0.0,0.0
1738225482019651889,0,0,0,0,0,0,0,0,0,1.598,-2.584,7.09,0.8906,0.6836,-0.0781,-0.03647,0.09937,0.02863,2.559,-1.567,7.0,0.5225,0.8525,0.0,0.0
1738225482069650650,0,0,0,0,0,0,0,0,0,1.621,-2.566,7.086,0.883,0.6875,-0.08984,-0.04034,0.10065,0.02914,2.559,-1.567,7.0,0.5225,0.8525,0.0,0.0
1738225482119669675,0,0,0,0,0,0,0,0,0,1.69,-2.51,7.098,0.867,0.711,-0.10547,-0.05035,0.10144,0.03143,2.61,-1.481,7.0,0.494,0.8696,0.0,0.0
1738225482169627189,0,0,0,0,0,0,0,0,0,1.709,-2.494,7.094,0.8633,0.7188,-0.1133,-0.05383,0.0993,0.03119,2.61,-1.481,7.0,0.494,0.8696,0.0,0.0
1738225482219638824,0,0,0,0,0,0,0,0,0,1.77,-2.441,7.09,0.84,0.7344,-0.1211,-0.05905,0.0949,0.028,2.656,-1.394,7.0,0.4646,0.8857,0.0,0.0
1738225482269642591,0,0,0,0,0,0,0,0,0,1.794,-2.42,7.098,0.836,0.7383,-0.1211,-0.0623,0.09467,0.02701,2.656,-1.394,7.0,0.4646,0.8857,0.0,0.0
1738225482319648504,0,0,0,0,0,0,0,0,0,1.855,-2.365,7.09,0.8203,0.746,-0.1367,-0.0714,0.0991,0.02692,2.701,-1.305,7.0,0.4348,0.9004,0.0,0.0
1738225482369646072,0,0,0,0,0,0,0,0,0,1.875,-2.348,7.086,0.8164,0.742,-0.1367,-0.0773,0.102,0.02664,2.701,-1.305,7.0,0.4348,0.9004,0.0,0.0
1738225482419644355,0,0,0,0,0,0,0,0,0,1.915,-2.31,7.082,0.801,0.746,-0.1289,-0.08124,0.10376,0.02698,2.744,-1.214,7.0,0.4045,0.9146,0.0,0.0
1738225482469634294,0,0,0,0,0,0,0,0,0,1.915,-2.31,7.082,0.801,0.746,-0.1289,-0.08124,0.10376,0.02698,2.744,-1.214,7.0,0.4045,0.9146,0.0,0.0
1738225482519642114,0,0,0,0,0,0,0,0,0,2.0,-2.23,7.074,0.793,0.742,-0.1328,-0.0857,0.10474,0.02805,2.783,-1.122,7.0,0.3738,0.9272,0.0,0.0
1738225482569638490,0,0,0,0,0,0,0,0,0,2.057,-2.176,7.055,0.758,0.7305,-0.1328,-0.07715,0.1078,0.02728,2.783,-1.122,7.0,0.3738,0.9272,0.0,0.0
1738225482619637489,0,0,0,0,0,0,0,0,0,2.084,-2.148,7.047,0.7266,0.7344,-0.125,-0.07336,0.11224,0.02817,2.818,-1.028,7.0,0.3428,0.9395,0.0,0.0
1738225482669641733,0,0,0,0,0,0,0,0,0,2.107,-2.125,7.043,0.715,0.742,-0.1172,-0.0705,0.11395,0.02876,2.818,-1.028,7.0,0.3428,0.9395,0.0,0.0
1738225482719646215,0,0,0,0,0,0,0,0,0,2.107,-2.125,7.043,0.715,0.742,-0.1172,-0.0705,0.11395,0.02876,2.852,-0.9336,7.0,0.3113,0.95,0.0,0.0
1738225482769645452,0,0,0,0,0,0,0,0,0,2.201,-2.025,7.03,0.6875,0.742,-0.08203,-0.0671,0.1084,0.02805,2.852,-0.9336,7.0,0.3113,0.95,0.0,0.0
1738225482819644689,0,0,0,0,0,0,0,0,0,2.232,-1.99,7.023,0.6562,0.7383,-0.0586,-0.065,0.107,0.0282,2.88,-0.8384,7.0,0.2793,0.96,0.0,0.0
1738225482869644403,0,0,0,0,0,0,0,0,0,2.242,-1.978,7.023,0.6562,0.754,-0.05078,-0.06192,0.1071,0.02885,2.88,-0.8384,7.0,0.2793,0.96,0.0,0.0
1738225482919647216,0,0,0,0,0,0,0,0,0,2.29,-1.925,7.02,0.633,0.7617,-0.03125,-0.0605,0.1067,0.02844,2.906,-0.7417,7.0,0.2473,0.9688,0.0,0.0
1738225482969645977,0,0,0,0,0,0,0,0,0,2.309,-1.9,7.016,0.625,0.7656,-0.02734,-0.06107,0.10706,0.02866,2.906,-0.7417,7.0,0.2473,0.9688,0.0,0.0
1738225483019629478,0,0,0,0,0,0,0,0,0,2.309,-1.9,7.016,0.625,0.7656,-0.02734,-0.06107,0.10706,0.02866,2.906,-0.7417,7.0,0.2473,0.9688,0.0,0.0
1738225483069638490,0,0,0,0,0,0,0,0,0,2.309,-1.9,7.016,0.625,0.7656,-0.02734,-0.06107,0.10706,0.02866,2.93,-0.6445,7.0,0.2148,0.9766,0.0,0.0
1738225483119647026,0,0,0,0,0,0,0,0,0,2.422,-1.75,7.008,0.551,0.793,-0.02344,-0.06232,0.11487,0.02676,2.95,-0.5464,7.0,0.1821,0.9834,0.0,0.0
1738225483169648647,0,0,0,0,0,0,0,0,0,2.43,-1.739,7.004,0.539,0.801,-0.02344,-0.0629,0.1143,0.02856,2.95,-0.5464,7.0,0.1821,0.9834,0.0,0.0
1738225483219651222,0,0,0,0,0,0,0,0,0,2.46,-1.688,7.004,0.508,0.8086,-0.0,-0.05923,0.1055,0.02696,2.967,-0.4478,7.0,0.1493,0.989,0.0,0.0
1738225483269647359,0,0,0,0,0,0,0,0,0,2.482,-1.654,7.004,0.496,0.8125,0.003906,-0.05893,0.1062,0.02536,2.967,-0.4478,7.0,0.1493,0.989,0.0,0.0
1738225483319650411,0,0,0,0,0,0,0,0,0,2.502,-1.622,7.004,0.4883,0.8164,0.007812,-0.0568,0.1072,0.02606,2.98,-0.3489,7.0,0.1163,0.993,0.0,0.0
1738225483369637966,0,0,0,0,0,0,0,0,0,2.502,-1.622,7.004,0.4883,0.8164,0.007812,-0.0568,0.1072,0.02606,2.98,-0.3489,7.0,0.1163,0.993,0.0,0.0
1738225483419647932,0,0,0,0,0,0,0,0,0,2.564,-1.513,7.0,0.4492,0.8516,0.007812,-0.05194,0.10516,0.026,2.99,-0.2493,7.0,0.08307,0.9966,0.0,0.0
1738225483469636917,0,0,0,0,0,0,0,0,0,2.582,-1.4795,7.0,0.4375,0.8594,0.007812,-0.05194,0.1055,0.02588,2.99,-0.2493,7.0,0.08307,0.9966,0.0,0.0
1738225483519640922,0,0,0,0,0,0,0,0,0,2.6,-1.441,7.0,0.418,0.879,0.01172,-0.05344,0.1064,0.02492,2.996,-0.1495,7.0,0.04984,0.9985,0.0,0.0
1738225483569641113,0,0,0,0,0,0,0,0,0,2.62,-1.401,7.0,0.4102,0.8867,0.01563,-0.0571,0.10645,0.02533,2.996,-0.1495,7.0,0.04984,0.9985,0.0,0.0
1738225483619627714,0,0,0,0,0,0,0,0,0,2.62,-1.401,7.0,0.4102,0.8867,0.01563,-0.0571,0.10645,0.02533,2.996,-0.1495,7.0,0.04984,0.9985,0.0,0.0
