time,x_sphinx,y_sphinx,z_sphinx,vx_sphinx,vy_sphinx,vz_sphinx,roll_sphinx,pitch_sphinx,yaw_sphinx,x_anafi,y_anafi,z_anafi,vx_anafi,vy_anafi,vz_anafi,roll_anafi,pitch_anafi,yaw_anafi,wp_x,wp_y,wp_z,wp_vx,wp_vy,wp_vz,wp_yaw
1738224637647162199,0,0,0,0,0,0,0,0,0,1.498,-1.179,6.945,0.8086,0.6953,0.1523,-0.1353,0.06042,-0.007523,1.999,-0.06635,7.0,0.03317,0.9995,0.0,0.0
1738224637697140693,0,0,0,0,0,0,0,0,0,1.526,-1.153,6.945,0.789,0.6875,0.1719,-0.1294,0.065,-0.007027,2.0,0.0,7.0,-0.0,1.0,0.0,0.0
1738224637747149467,0,0,0,0,0,0,0,0,0,1.575,-1.109,6.94,0.75,0.6875,0.2031,-0.1199,0.07684,-0.00535,2.0,0.0,7.0,-0.0,1.0,0.0,0.0
1738224637797127008,0,0,0,0,0,0,0,0,0,1.603,-1.083,6.94,0.715,0.6953,0.2148,-0.11536,0.0814,-0.004704,1.997,0.1,7.0,-0.05,0.9985,0.0,0.0
1738224637847159385,0,0,0,0,0,0,0,0,0,1.643,-1.042,6.95,0.676,0.699,0.2148,-0.11194,0.08655,-0.005222,1.997,0.1,7.0,-0.05,0.9985,0.0,0.0
1738224637897143840,0,0,0,0,0,0,0,0,0,1.666,-1.017,6.953,0.6562,0.703,0.2109,-0.1136,0.0868,-0.005547,1.99,0.1997,7.0,-0.09985,0.995,0.0,0.0
1738224637947141170,0,0,0,0,0,0,0,0,0,1.689,-0.99,6.96,0.633,0.707,0.1953,-0.1154,0.08606,-0.005463,1.99,0.1997,7.0,-0.09985,0.995,0.0,0.0
1738224637997131824,0,0,0,0,0,0,0,0,0,1.689,-0.99,6.96,0.633,0.707,0.1953,-0.1154,0.08606,-0.005463,1.978,0.2988,7.0,-0.1494,0.989,0.0,0.0
1738224638047131299,0,0,0,0,0,0,0,0,0,1.773,-0.895,6.953,0.6133,0.699,0.1875,-0.1171,0.0843,-0.00629,1.978,0.2988,7.0,-0.1494,0.989,0.0,0.0
1738224638097125530,0,0,0,0,0,0,0,0,0,1.797,-0.864,6.957,0.5273,0.7344,0.1953,-0.11206,0.07916,-0.005424,1.96,0.3972,7.0,-0.1986,0.98,0.0,0.0
1738224638147135972,0,0,0,0,0,0,0,0,0,1.82,-0.8306,6.957,0.496,0.75,0.1875,-0.1043,0.08466,-0.003933,1.96,0.3972,7.0,-0.1986,0.98,0.0,0.0
1738224638197143316,0,0,0,0,0,0,0,0,0,1.84,-0.7983,6.957,0.4766,0.7656,0.1836,-0.1027,0.08527,-0.003897,1.9375,0.4949,7.0,-0.2474,0.9688,0.0,0.0
1738224638247145414,0,0,0,0,0,0,0,0,0,1.867,-0.752,6.97,0.4453,0.7773,0.1836,-0.0955,0.0824,-0.007,1.9375,0.4949,7.0,-0.2474,0.9688,0.0,0.0
1738224638297128438,0,0,0,0,0,0,0,0,0,1.884,-0.7217,6.97,0.4336,0.785,0.1758,-0.09845,0.0804,-0.00825,1.911,0.591,7.0,-0.2954,0.9556,0.0,0.0
1738224638347153425,0,0,0,0,0,0,0,0,0,1.91,-0.6714,6.98,0.4023,0.793,0.168,-0.10205,0.0802,-0.009605,1.911,0.591,7.0,-0.2954,0.9556,0.0,0.0
1738224638397140502,0,0,0,0,0,0,0,0,0,1.924,-0.6426,6.984,0.3867,0.8125,0.1641,-0.10223,0.08374,-0.0093,1.879,0.686,7.0,-0.343,0.9395,0.0,0.0
1738224638447145223,0,0,0,0,0,0,0,0,0,1.947,-0.5874,6.992,0.3477,0.824,0.1523,-0.09076,0.0971,-0.007835,1.879,0.686,7.0,-0.343,0.9395,0.0,0.0
1738224638497152328,0,0,0,0,0,0,0,0,0,1.961,-0.5522,7.0,0.3281,0.836,0.1367,-0.08856,0.0979,-0.00838,1.842,0.779,7.0,-0.3894,0.921,0.0,0.0
1738224638547137737,0,0,0,0,0,0,0,0,0,1.978,-0.507,7.01,0.2969,0.8516,0.09375,-0.09186,0.0985,-0.00857,1.842,0.779,7.0,-0.3894,0.921,0.0,0.0
1738224638597120523,0,0,0,0,0,0,0,0,0,1.992,-0.4585,7.016,0.2617,0.875,0.0664,-0.0929,0.0985,-0.00899,1.801,0.87,7.0,-0.435,0.9004,0.0,0.0
1738224638647145271,0,0,0,0,0,0,0,0,0,2.004,-0.4153,7.023,0.2383,0.8867,0.03906,-0.09674,0.0999,-0.0101,1.801,0.87,7.0,-0.435,0.9004,0.0,0.0
1738224638697153091,0,0,0,0,0,0,0,0,0,2.012,-0.3804,7.027,0.2188,0.8945,0.01563,-0.09625,0.10077,-0.00975,1.755,0.959,7.0,-0.4795,0.8774,0.0,0.0
1738224638747151613,0,0,0,0,0,0,0,0,0,2.023,-0.329,7.027,0.1875,0.91,-0.0,-0.0938,0.1031,-0.01011,1.755,0.959,7.0,-0.4795,0.8774,0.0,0.0
1738224638797132253,0,0,0,0,0,0,0,0,0,2.031,-0.276,7.027,0.1445,0.9375,-0.0,-0.08905,0.1081,-0.011185,1.705,1.045,7.0,-0.5225,0.8525,0.0,0.0
1738224638847126245,0,0,0,0,0,0,0,0,0,2.037,-0.235,7.027,0.10547,0.961,-0.003906,-0.08154,0.1176,-0.00799,1.705,1.045,7.0,-0.5225,0.8525,0.0,0.0
1738224638897137880,0,0,0,0,0,0,0,0,0,2.037,-0.235,7.027,0.10547,0.961,-0.003906,-0.08154,0.1176,-0.00799,1.65,1.129,7.0,-0.5645,0.825,0.0,0.0
1738224638947139263,0,0,0,0,0,0,0,0,0,2.037,-0.235,7.027,0.10547,0.961,-0.003906,-0.08154,0.1176,-0.00799,1.65,1.129,7.0,-0.5645,0.825,0.0,0.0
1738224638997138261,0,0,0,0,0,0,0,0,0,2.049,-0.0889,7.03,0.0742,0.9805,-0.003906,-0.07947,0.1185,-0.00778,1.592,1.21,7.0,-0.605,0.796,0.0,0.0
1738224639047138929,0,0,0,0,0,0,0,0,0,2.049,-0.02141,7.03,0.0,1.035,-0.03125,-0.09106,0.1094,-0.006336,1.592,1.21,7.0,-0.605,0.796,0.0,0.0
1738224639097137212,0,0,0,0,0,0,0,0,0,2.049,0.01227,7.03,-0.01563,1.043,-0.02344,-0.09686,0.1084,-0.00685,1.529,1.288,7.0,-0.644,0.7646,0.0,0.0
1738224639147156476,0,0,0,0,0,0,0,0,0,2.047,0.0753,7.035,-0.03906,1.047,-0.02734,-0.1065,0.109,-0.00594,1.529,1.288,7.0,-0.644,0.7646,0.0,0.0
1738224639197138786,0,0,0,0,0,0,0,0,0,2.047,0.0753,7.035,-0.03906,1.047,-0.02734,-0.1065,0.109,-0.00594,1.463,1.363,7.0,-0.6816,0.7314,0.0,0.0
1738224639247145414,0,0,0,0,0,0,0,0,0,2.047,0.0753,7.035,-0.03906,1.047,-0.02734,-0.1065,0.109,-0.00594,1.463,1.363,7.0,-0.6816,0.7314,0.0,0.0
1738224639297136068,0,0,0,0,0,0,0,0,0,2.037,0.2379,7.03,-0.0586,1.047,-0.03125,-0.10913,0.1087,-0.005455,1.394,1.435,7.0,-0.7173,0.697,0.0,0.0
1738224639347128152,0,0,0,0,0,0,0,0,0,2.033,0.2817,7.03,-0.09375,1.051,-0.0547,-0.11084,0.1064,-0.0075,1.394,1.435,7.0,-0.7173,0.697,0.0,0.0
1738224639397130012,0,0,0,0,0,0,0,0,0,2.027,0.338,7.027,-0.1211,1.031,-0.0625,-0.1293,0.10767,-0.00771,1.32,1.503,7.0,-0.7515,0.66,0.0,0.0
1738224639447150230,0,0,0,0,0,0,0,0,0,2.021,0.3796,7.027,-0.1406,1.02,-0.0625,-0.1333,0.1114,-0.007442,1.32,1.503,7.0,-0.7515,0.66,0.0,0.0
1738224639497138261,0,0,0,0,0,0,0,0,0,2.016,0.4246,7.023,-0.1484,1.012,-0.0586,-0.1332,0.11127,-0.00755,1.243,1.566,7.0,-0.783,0.6216,0.0,0.0
1738224639547134637,0,0,0,0,0,0,0,0,0,2.008,0.4768,7.02,-0.168,0.992,-0.05078,-0.1329,0.11475,-0.006664,1.243,1.566,7.0,-0.783,0.6216,0.0,0.0
1738224639597134828,0,0,0,0,0,0,0,0,0,1.996,0.532,7.016,-0.1992,0.9844,-0.04688,-0.1317,0.11816,-0.00682,1.163,1.627,7.0,-0.8135,0.5815,0.0,0.0
1738224639647151947,0,0,0,0,0,0,0,0,0,1.988,0.565,7.008,-0.207,0.9766,-0.04297,-0.1321,0.12476,-0.007645,1.163,1.627,7.0,-0.8135,0.5815,0.0,0.0
1738224639697156429,0,0,0,0,0,0,0,0,0,1.974,0.6265,7.004,-0.2383,0.965,-0.0,-0.127,0.1322,-0.007557,1.081,1.683,7.0,-0.8413,0.5405,0.0,0.0
1738224639747121572,0,0,0,0,0,0,0,0,0,1.958,0.687,7.004,-0.2656,0.961,0.01953,-0.1179,0.1367,-0.007225,1.081,1.683,7.0,-0.8413,0.5405,0.0,0.0
1738224639797134399,0,0,0,0,0,0,0,0,0,1.958,0.687,7.004,-0.2656,0.961,0.01953,-0.1179,0.1367,-0.007225,0.995,1.734,7.0,-0.867,0.4976,0.0,0.0
1738224639847148895,0,0,0,0,0,0,0,0,0,1.958,0.687,7.004,-0.2656,0.961,0.01953,-0.1179,0.1367,-0.007225,0.995,1.734,7.0,-0.867,0.4976,0.0,0.0
1738224639897163867,0,0,0,0,0,0,0,0,0,1.914,0.8325,7.008,-0.3203,0.9805,0.02344,-0.11176,0.143,-0.00752,0.907,1.782,7.0,-0.891,0.4536,0.0,0.0
1738224639947177886,0,0,0,0,0,0,0,0,0,1.895,0.8857,7.016,-0.3906,0.996,0.01563,-0.11725,0.1632,-0.01034,0.907,1.782,7.0,-0.891,0.4536,0.0,0.0
1738224639997169733,0,0,0,0,0,0,0,0,0,1.885,0.9097,7.016,-0.418,0.992,0.01172,-0.1251,0.1688,-0.01084,0.817,1.825,7.0,-0.9126,0.4084,0.0,0.0
1738224640047155380,0,0,0,0,0,0,0,0,0,1.852,0.9795,7.02,-0.496,0.996,0.01172,-0.128,0.1786,-0.00989,0.817,1.825,7.0,-0.9126,0.4084,0.0,0.0
1738224640097179412,0,0,0,0,0,0,0,0,0,1.852,0.9795,7.02,-0.496,0.996,0.01172,-0.128,0.1786,-0.00989,0.7246,1.864,7.0,-0.932,0.3623,0.0,0.0
1738224640147175073,0,0,0,0,0,0,0,0,0,1.852,0.9795,7.02,-0.496,0.996,0.01172,-0.128,0.1786,-0.00989,0.7246,1.864,7.0,-0.932,0.3623,0.0,0.0
1738224640197172403,0,0,0,0,0,0,0,0,0,1.852,0.9795,7.02,-0.496,0.996,0.01172,-0.128,0.1786,-0.00989,0.631,1.898,7.0,-0.949,0.3154,0.0,0.0
1738224640247140407,0,0,0,0,0,0,0,0,0,1.746,1.173,7.027,-0.633,0.996,-0.0,-0.1421,0.1696,-0.009384,0.631,1.898,7.0,-0.949,0.3154,0.0,0.0
1738224640297123432,0,0,0,0,0,0,0,0,0,1.712,1.223,7.023,-0.6836,0.953,-0.02344,-0.1642,0.14,-0.0049,0.535,1.927,7.0,-0.9634,0.2676,0.0,0.0
1738224640347122669,0,0,0,0,0,0,0,0,0,1.677,1.2705,7.027,-0.6875,0.918,-0.01953,-0.1755,0.1301,-0.004223,0.535,1.927,7.0,-0.9634,0.2676,0.0,0.0
1738224640397145748,0,0,0,0,0,0,0,0,0,1.646,1.309,7.023,-0.715,0.9023,-0.02344,-0.1796,0.1278,-0.003164,0.438,1.951,7.0,-0.9756,0.219,0.0,0.0
1738224640447152376,0,0,0,0,0,0,0,0,0,1.606,1.356,7.023,-0.7305,0.8633,-0.01172,-0.178,0.1316,-0.003902,0.438,1.951,7.0,-0.9756,0.219,0.0,0.0
1738224640497153759,0,0,0,0,0,0,0,0,0,1.58,1.387,7.027,-0.7344,0.8516,-0.007812,-0.1736,0.1372,-0.003357,0.3398,1.971,7.0,-0.9854,0.1699,0.0,0.0
1738224640547163248,0,0,0,0,0,0,0,0,0,1.528,1.443,7.016,-0.754,0.793,-0.01953,-0.174,0.1473,-0.004883,0.3398,1.971,7.0,-0.9854,0.1699,0.0,0.0
1738224640597156524,0,0,0,0,0,0,0,0,0,1.502,1.469,7.01,-0.7695,0.7617,-0.01953,-0.1816,0.1515,-0.004604,0.241,1.985,7.0,-0.9927,0.1205,0.0,0.0
1738224640647163867,0,0,0,0,0,0,0,0,0,1.454,1.514,7.008,-0.797,0.715,-0.0,-0.1843,0.1475,-0.005417,0.241,1.985,7.0,-0.9927,0.1205,0.0,0.0
1738224640697155237,0,0,0,0,0,0,0,0,0,1.425,1.539,7.01,-0.8047,0.6914,0.003906,-0.1814,0.1437,-0.007187,0.1415,1.995,7.0,-0.9976,0.07074,0.0,0.0
1738224640747170209,0,0,0,0,0,0,0,0,0,1.368,1.584,7.02,-0.824,0.6562,0.02344,-0.1703,0.1392,-0.007355,0.1415,1.995,7.0,-0.9976,0.07074,0.0,0.0
1738224640797151565,0,0,0,0,0,0,0,0,0,1.368,1.584,7.02,-0.824,0.6562,0.02344,-0.1703,0.1392,-0.007355,0.0416,2.0,7.0,-1.0,0.0208,0.0,0.0
1738224640847152233,0,0,0,0,0,0,0,0,0,1.368,1.584,7.02,-0.824,0.6562,0.02344,-0.1703,0.1392,-0.007355,0.0416,2.0,7.0,-1.0,0.0208,0.0,0.0
1738224640897131443,0,0,0,0,0,0,0,0,0,1.245,1.677,7.023,-0.836,0.625,0.01172,-0.164,0.1396,-0.006824,-0.0584,1.999,7.0,-0.9995,-0.0292,0.0,0.0
1738224640947162628,0,0,0,0,0,0,0,0,0,1.202,1.705,7.023,-0.871,0.543,-0.0,-0.1737,0.1343,-0.007042,-0.0584,1.999,7.0,-0.9995,-0.0292,0.0,0.0
1738224640997159004,0,0,0,0,0,0,0,0,0,1.16,1.729,7.027,-0.879,0.504,-0.003906,-0.1729,0.1254,-0.00571,-0.1582,1.994,7.0,-0.997,-0.0791,0.0,0.0
1738224641047153234,0,0,0,0,0,0,0,0,0,1.118,1.752,7.03,-0.8867,0.4727,-0.01953,-0.1764,0.132,-0.0096,-0.1582,1.994,7.0,-0.997,-0.0791,0.0,0.0
1738224641097134113,0,0,0,0,0,0,0,0,0,1.087,1.768,7.03,-0.8945,0.4531,-0.02344,-0.1742,0.1326,-0.009995,-0.2576,1.983,7.0,-0.9917,-0.1288,0.0,0.0
1738224641147139072,0,0,0,0,0,0,0,0,0,1.026,1.796,7.03,-0.9023,0.4062,-0.03906,-0.1796,0.1298,-0.00874,-0.2576,1.983,7.0,-0.9917,-0.1288,0.0,0.0
1738224641197129964,0,0,0,0,0,0,0,0,0,0.992,1.811,7.035,-0.9062,0.379,-0.04297,-0.1793,0.1282,-0.00748,-0.3564,1.968,7.0,-0.984,-0.1782,0.0,0.0
1738224641247165918,0,0,0,0,0,0,0,0,0,0.9336,1.832,7.035,-0.914,0.336,-0.0664,-0.1765,0.1272,-0.006485,-0.3564,1.968,7.0,-0.984,-0.1782,0.0,0.0
1738224641297155618,0,0,0,0,0,0,0,0,0,0.896,1.846,7.035,-0.918,0.3242,-0.0742,-0.1747,0.1278,-0.00703,-0.4543,1.947,7.0,-0.9736,-0.2272,0.0,0.0
1738224641347164630,0,0,0,0,0,0,0,0,0,0.8438,1.862,7.035,-0.9336,0.2969,-0.08594,-0.165,0.132,-0.00982,-0.4543,1.947,7.0,-0.9736,-0.2272,0.0,0.0
1738224641397142410,0,0,0,0,0,0,0,0,0,0.8115,1.872,7.04,-0.949,0.2773,-0.08984,-0.1617,0.135,-0.01047,-0.5513,1.923,7.0,-0.9614,-0.2756,0.0,0.0
1738224641447171688,0,0,0,0,0,0,0,0,0,0.743,1.891,7.03,-0.961,0.25,-0.10156,-0.1602,0.1357,-0.00968,-0.5513,1.923,7.0,-0.9614,-0.2756,0.0,0.0
1738224641497149229,0,0,0,0,0,0,0,0,0,0.7065,1.899,7.027,-0.965,0.2461,-0.10156,-0.1603,0.1329,-0.009346,-0.6465,1.893,7.0,-0.9463,-0.3232,0.0,0.0
1738224641547159194,0,0,0,0,0,0,0,0,0,0.65,1.913,7.027,-0.996,0.2383,-0.10156,-0.1498,0.1375,-0.01229,-0.6465,1.893,7.0,-0.9463,-0.3232,0.0,0.0
1738224641597132444,0,0,0,0,0,0,0,0,0,0.6167,1.922,7.027,-1.008,0.2461,-0.10547,-0.1461,0.141,-0.01389,-0.74,1.858,7.0,-0.929,-0.37,0.0,0.0
1738224641647150516,0,0,0,0,0,0,0,0,0,0.547,1.9375,7.027,-1.043,0.2461,-0.09766,-0.142,0.1403,-0.01539,-0.74,1.858,7.0,-0.929,-0.37,0.0,0.0
1738224641697129964,0,0,0,0,0,0,0,0,0,0.5024,1.948,7.035,-1.055,0.254,-0.08594,-0.137,0.1346,-0.01514,-0.8325,1.818,7.0,-0.909,-0.4163,0.0,0.0
1738224641747163295,0,0,0,0,0,0,0,0,0,0.442,1.963,7.03,-1.0625,0.2422,-0.08594,-0.147,0.1137,-0.00936,-0.8325,1.818,7.0,-0.909,-0.4163,0.0,0.0
1738224641797135829,0,0,0,0,0,0,0,0,0,0.3938,1.974,7.027,-1.066,0.2422,-0.0781,-0.1548,0.10443,-0.007248,-0.9224,1.774,7.0,-0.887,-0.4612,0.0,0.0
1738224641847168922,0,0,0,0,0,0,0,0,0,0.3315,1.986,7.02,-1.059,0.1992,-0.0664,-0.1727,0.09406,-0.005447,-0.9224,1.774,7.0,-0.887,-0.4612,0.0,0.0
1738224641897152662,0,0,0,0,0,0,0,0,0,0.2917,1.993,7.02,-1.051,0.1875,-0.0625,-0.1763,0.09106,-0.00437,-1.01,1.727,7.0,-0.8633,-0.505,0.0,0.0
1738224641947167634,0,0,0,0,0,0,0,0,0,0.2274,2.002,7.02,-1.035,0.1523,-0.0664,-0.1766,0.0873,-0.005527,-1.01,1.727,7.0,-0.8633,-0.505,0.0,0.0
1738224641997148275,0,0,0,0,0,0,0,0,0,0.1935,2.008,7.02,-1.027,0.1367,-0.0781,-0.1787,0.08765,-0.00724,-1.095,1.674,7.0,-0.837,-0.5474,0.0,0.0
1738224642047155380,0,0,0,0,0,0,0,0,0,0.1292,2.014,7.02,-1.008,0.10156,-0.0703,-0.1824,0.0898,-0.00895,-1.095,1.674,7.0,-0.837,-0.5474,0.0,0.0
1738224642097136497,0,0,0,0,0,0,0,0,0,0.0824,2.018,7.02,-1.004,0.08594,-0.0547,-0.1746,0.0903,-0.007904,-1.177,1.617,7.0,-0.8086,-0.5884,0.0,0.0
1738224642147164344,0,0,0,0,0,0,0,0,0,0.0312,2.021,7.02,-0.992,0.04688,-0.05078,-0.1766,0.0859,-0.007366,-1.177,1.617,7.0,-0.8086,-0.5884,0.0,0.0
1738224642197150707,0,0,0,0,0,0,0,0,0,0.0312,2.021,7.02,-0.992,0.04688,-0.05078,-0.1766,0.0859,-0.007366,-1.256,1.556,7.0,-0.778,-0.628,0.0,0.0
1738224642247141838,0,0,0,0,0,0,0,0,0,0.0312,2.021,7.02,-0.992,0.04688,-0.05078,-0.1766,0.0859,-0.007366,-1.256,1.556,7.0,-0.778,-0.628,0.0,0.0
1738224642297146558,0,0,0,0,0,0,0,0,0,-0.11945,2.023,7.016,-0.9805,0.01172,-0.0547,-0.1842,0.08636,-0.007736,-1.333,1.491,7.0,-0.7456,-0.6665,0.0,0.0
1738224642347153663,0,0,0,0,0,0,0,0,0,-0.1725,2.021,7.01,-0.961,-0.08594,-0.0586,-0.1969,0.08154,-0.00769,-1.333,1.491,7.0,-0.7456,-0.6665,0.0,0.0
1738224642397125482,0,0,0,0,0,0,0,0,0,-0.2262,2.014,7.008,-0.965,-0.125,-0.04688,-0.1766,0.0936,-0.0132,-1.405,1.423,7.0,-0.7114,-0.7026,0.0,0.0
1738224642447156190,0,0,0,0,0,0,0,0,0,-0.2615,2.01,7.008,-0.9805,-0.1367,-0.04297,-0.1677,0.1,-0.01639,-1.405,1.423,7.0,-0.7114,-0.7026,0.0,0.0
1738224642497149705,0,0,0,0,0,0,0,0,0,-0.301,2.004,7.004,-0.992,-0.1484,-0.04688,-0.1688,0.09955,-0.01591,-1.475,1.351,7.0,-0.6753,-0.7373,0.0,0.0
1738224642547142505,0,0,0,0,0,0,0,0,0,-0.3582,1.994,7.004,-1.012,-0.1641,-0.04297,-0.1749,0.1031,-0.0158,-1.475,1.351,7.0,-0.6753,-0.7373,0.0,0.0
1738224642597121000,0,0,0,0,0,0,0,0,0,-0.3582,1.994,7.004,-1.012,-0.1641,-0.04297,-0.1749,0.1031,-0.0158,-1.54,1.275,7.0,-0.6377,-0.77,0.0,0.0
1738224642647120237,0,0,0,0,0,0,0,0,0,-0.3582,1.994,7.004,-1.012,-0.1641,-0.04297,-0.1749,0.1031,-0.0158,-1.54,1.275,7.0,-0.6377,-0.77,0.0,0.0
1738224642697133302,0,0,0,0,0,0,0,0,0,-0.3582,1.994,7.004,-1.012,-0.1641,-0.04297,-0.1749,0.1031,-0.0158,-1.603,1.197,7.0,-0.5986,-0.8013,0.0,0.0
1738224642747145652,0,0,0,0,0,0,0,0,0,-0.58,1.952,6.996,-1.055,-0.25,-0.03125,-0.189,0.07245,-0.005642,-1.603,1.197,7.0,-0.5986,-0.8013,0.0,0.0
1738224642797148704,0,0,0,0,0,0,0,0,0,-0.628,1.94,6.996,-1.051,-0.2656,-0.02344,-0.1879,0.06555,-0.005566,-1.66,1.115,7.0,-0.5576,-0.83,0.0,0.0
1738224642847183704,0,0,0,0,0,0,0,0,0,-0.6514,1.934,6.992,-1.047,-0.2773,-0.01953,-0.1842,0.06018,-0.00703,-1.66,1.115,7.0,-0.5576,-0.83,0.0,0.0
1738224642897150278,0,0,0,0,0,0,0,0,0,-0.6514,1.934,6.992,-1.047,-0.2773,-0.01953,-0.1842,0.06018,-0.00703,-1.714,1.031,7.0,-0.5156,-0.857,0.0,0.0
1738224642947146892,0,0,0,0,0,0,0,0,0,-0.784,1.896,6.992,-1.035,-0.3047,-0.003906,-0.1858,0.05655,-0.0103,-1.714,1.031,7.0,-0.5156,-0.857,0.0,0.0
1738224642997142076,0,0,0,0,0,0,0,0,0,-0.8315,1.881,6.992,-1.008,-0.3516,-0.0,-0.1919,0.051,-0.0092,-1.763,0.944,7.0,-0.472,-0.8813,0.0,0.0
1738224643047157049,0,0,0,0,0,0,0,0,0,-0.8853,1.86,6.996,-0.9766,-0.3828,-0.007812,-0.2103,0.0486,-0.00931,-1.763,0.944,7.0,-0.472,-0.8813,0.0,0.0
1738224643097139596,0,0,0,0,0,0,0,0,0,-0.925,1.844,6.996,-0.957,-0.414,-0.003906,-0.2151,0.0462,-0.007572,-1.809,0.855,7.0,-0.4275,-0.9043,0.0,0.0
1738224643147157669,0,0,0,0,0,0,0,0,0,-0.969,1.822,7.0,-0.926,-0.4531,-0.0,-0.2133,0.03745,-0.006954,-1.809,0.855,7.0,-0.4275,-0.9043,0.0,0.0
1738224643197132110,0,0,0,0,0,0,0,0,0,-0.969,1.822,7.0,-0.926,-0.4531,-0.0,-0.2133,0.03745,-0.006954,-1.809,0.855,7.0,-0.4275,-0.9043,0.0,0.0
1738224643247136831,0,0,0,0,0,0,0,0,0,-0.969,1.822,7.0,-0.926,-0.4531,-0.0,-0.2133,0.03745,-0.006954,-1.849,0.763,7.0,-0.3816,-0.9243,0.0,0.0
1738224643297147989,0,0,0,0,0,0,0,0,0,-1.103,1.753,7.0,-0.8945,-0.4648,-0.0,-0.2103,0.0363,-0.007393,-1.885,0.67,7.0,-0.335,-0.9424,0.0,0.0
1738224643347147941,0,0,0,0,0,0,0,0,0,-1.155,1.719,6.996,-0.785,-0.5547,-0.003906,-0.207,0.03894,-0.008095,-1.885,0.67,7.0,-0.335,-0.9424,0.0,0.0
1738224643397140502,0,0,0,0,0,0,0,0,0,-1.183,1.698,6.99,-0.754,-0.547,-0.0,-0.2102,0.0401,-0.007423,-1.916,0.575,7.0,-0.2876,-0.958,0.0,0.0
1738224643447142362,0,0,0,0,0,0,0,0,0,-1.231,1.659,6.99,-0.703,-0.582,0.01172,-0.2119,0.04108,-0.004982,-1.916,0.575,7.0,-0.2876,-0.958,0.0,0.0
1738224643497135162,0,0,0,0,0,0,0,0,0,-1.257,1.638,6.992,-0.6875,-0.5977,0.01563,-0.2097,0.04465,-0.006172,-1.942,0.4785,7.0,-0.2393,-0.971,0.0,0.0
1738224643547140836,0,0,0,0,0,0,0,0,0,-1.295,1.602,6.996,-0.6484,-0.6133,0.007812,-0.2028,0.05292,-0.00821,-1.942,0.4785,7.0,-0.2393,-0.971,0.0,0.0
1738224643597147464,0,0,0,0,0,0,0,0,0,-1.319,1.576,6.996,-0.6133,-0.633,-0.0,-0.2026,0.05914,-0.00982,-1.964,0.3809,7.0,-0.1904,-0.982,0.0,0.0
1738224643647151470,0,0,0,0,0,0,0,0,0,-1.333,1.562,6.992,-0.6016,-0.6562,-0.0,-0.2089,0.06174,-0.01065,-1.964,0.3809,7.0,-0.1904,-0.982,0.0,0.0
1738224643697147130,0,0,0,0,0,0,0,0,0,-1.333,1.562,6.992,-0.6016,-0.6562,-0.0,-0.2089,0.06174,-0.01065,-1.98,0.2822,7.0,-0.1411,-0.99,0.0,0.0
1738224643747140645,0,0,0,0,0,0,0,0,0,-1.333,1.562,6.992,-0.6016,-0.6562,-0.0,-0.2089,0.06174,-0.01065,-1.98,0.2822,7.0,-0.1411,-0.99,0.0,0.0
1738224643797146797,0,0,0,0,0,0,0,0,0,-1.44,1.434,6.977,-0.543,-0.7773,-0.0,-0.2334,0.07135,-0.01194,-1.991,0.183,7.0,-0.0915,-0.9956,0.0,0.0
1738224643847145318,0,0,0,0,0,0,0,0,0,-1.454,1.412,6.973,-0.547,-0.8086,0.01953,-0.2316,0.07684,-0.01362,-1.991,0.183,7.0,-0.0915,-0.9956,0.0,0.0
1738224643897151708,0,0,0,0,0,0,0,0,0,-1.487,1.361,6.965,-0.5586,-0.867,0.05078,-0.2162,0.0881,-0.014725,-1.998,0.0832,7.0,-0.0416,-0.999,0.0,0.0
1738224643947149515,0,0,0,0,0,0,0,0,0,-1.528,1.297,6.96,-0.582,-0.918,0.08984,-0.1969,0.091,-0.01538,-1.998,0.0832,7.0,-0.0416,-0.999,0.0,0.0
1738224643997150897,0,0,0,0,0,0,0,0,0,-1.548,1.265,6.96,-0.59,-0.9414,0.09766,-0.1906,0.0907,-0.01604,-2.0,-0.01682,7.0,0.00841,-1.0,0.0,0.0
1738224644047122001,0,0,0,0,0,0,0,0,0,-1.589,1.2,6.957,-0.6016,-0.9766,0.1172,-0.1924,0.079,-0.01401,-2.0,-0.01682,7.0,0.00841,-1.0,0.0,0.0
1738224644097139358,0,0,0,0,0,0,0,0,0,-1.621,1.146,6.96,-0.625,-1.016,0.1289,-0.1725,0.0884,-0.01145,-1.997,-0.11676,7.0,0.05838,-0.9985,0.0,0.0
1738224644147117376,0,0,0,0,0,0,0,0,0,-1.6455,1.106,6.965,-0.625,-1.027,0.1289,-0.1611,0.0853,-0.00665,-1.997,-0.11676,7.0,0.05838,-0.9985,0.0,0.0
1738224644197142124,0,0,0,0,0,0,0,0,0,-1.673,1.061,6.965,-0.6133,-1.035,0.1211,-0.1569,0.0691,-0.003225,-1.988,-0.2164,7.0,0.1082,-0.994,0.0,0.0
1738224644247147321,0,0,0,0,0,0,0,0,0,-1.6875,1.036,6.965,-0.6094,-1.047,0.125,-0.1549,0.0519,-0.004765,-1.988,-0.2164,7.0,0.1082,-0.994,0.0,0.0
1738224644297140598,0,0,0,0,0,0,0,0,0,-1.6875,1.036,6.965,-0.6094,-1.047,0.125,-0.1549,0.0519,-0.004765,-1.975,-0.3154,7.0,0.1577,-0.9873,0.0,0.0
1738224644347148895,0,0,0,0,0,0,0,0,0,-1.76,0.9087,6.973,-0.5977,-1.051,0.1289,-0.1461,0.03864,-0.007236,-1.975,-0.3154,7.0,0.1577,-0.9873,0.0,0.0
1738224644397124528,0,0,0,0,0,0,0,0,0,-1.792,0.851,6.992,-0.5664,-1.051,0.10156,-0.1346,0.02306,-0.009995,-1.957,-0.4138,7.0,0.2069,-0.9785,0.0,0.0
1738224644447138786,0,0,0,0,0,0,0,0,0,-1.824,0.7896,7.004,-0.547,-1.027,0.0586,-0.1203,0.02324,-0.010086,-1.957,-0.4138,7.0,0.2069,-0.9785,0.0,0.0
1738224644497146368,0,0,0,0,0,0,0,0,0,-1.844,0.753,7.008,-0.539,-1.023,0.04297,-0.1254,0.01993,-0.00798,-1.934,-0.511,7.0,0.2556,-0.967,0.0,0.0
1738224644547157049,0,0,0,0,0,0,0,0,0,-1.857,0.727,7.01,-0.5312,-1.008,0.02734,-0.1293,0.01557,-0.008835,-1.934,-0.511,7.0,0.2556,-0.967,0.0,0.0
1738224644597147226,0,0,0,0,0,0,0,0,0,-1.857,0.727,7.01,-0.5312,-1.008,0.02734,-0.1293,0.01557,-0.008835,-1.905,-0.607,7.0,0.3035,-0.9526,0.0,0.0
1738224644647125720,0,0,0,0,0,0,0,0,0,-1.931,0.586,7.01,-0.5195,-0.9688,0.01563,-0.1277,0.01332,-0.00978,-1.905,-0.607,7.0,0.3035,-0.9526,0.0,0.0
1738224644697129726,0,0,0,0,0,0,0,0,0,-1.948,0.5522,7.027,-0.4727,-0.9336,-0.01953,-0.128,-0.002375,-0.00841,-1.873,-0.7017,7.0,0.3508,-0.9365,0.0,0.0
1738224644747137069,0,0,0,0,0,0,0,0,0,-1.976,0.4954,7.027,-0.4258,-0.91,-0.05078,-0.1436,-0.02133,-0.008995,-1.873,-0.7017,7.0,0.3508,-0.9365,0.0,0.0
1738224644797134876,0,0,0,0,0,0,0,0,0,-1.994,0.4534,7.027,-0.3945,-0.9023,-0.05078,-0.1439,-0.02478,-0.007515,-1.836,-0.7944,7.0,0.3972,-0.918,0.0,0.0
1738224644847130060,0,0,0,0,0,0,0,0,0,-2.012,0.4104,7.03,-0.3438,-0.8867,-0.0547,-0.1458,-0.02928,-0.007164,-1.836,-0.7944,7.0,0.3972,-0.918,0.0,0.0
1738224644897126436,0,0,0,0,0,0,0,0,0,-2.021,0.3782,7.023,-0.3125,-0.8906,-0.0625,-0.1472,-0.03087,-0.0085,-1.794,-0.8853,7.0,0.4426,-0.897,0.0,0.0
1738224644947137832,0,0,0,0,0,0,0,0,0,-2.031,0.3484,7.03,-0.2852,-0.883,-0.0625,-0.1472,-0.03012,-0.01014,-1.794,-0.8853,7.0,0.4426,-0.897,0.0,0.0
1738224644997126340,0,0,0,0,0,0,0,0,0,-2.031,0.3484,7.03,-0.2852,-0.883,-0.0625,-0.1472,-0.03012,-0.01014,-1.747,-0.9736,7.0,0.4868,-0.8735,0.0,0.0
1738224645047130823,0,0,0,0,0,0,0,0,0,-2.064,0.2405,7.03,-0.2656,-0.871,-0.0742,-0.1489,-0.02716,-0.01119,-1.747,-0.9736,7.0,0.4868,-0.8735,0.0,0.0
1738224645097138404,0,0,0,0,0,0,0,0,0,-2.074,0.2041,7.035,-0.168,-0.8633,-0.0703,-0.1512,-0.02803,-0.00792,-1.696,-1.06,7.0,0.53,-0.848,0.0,0.0
1738224645147141933,0,0,0,0,0,0,0,0,0,-2.08,0.1512,7.04,-0.0625,-0.8633,-0.08203,-0.1494,-0.04868,-0.006027,-1.696,-1.06,7.0,0.53,-0.848,0.0,0.0
1738224645197133064,0,0,0,0,0,0,0,0,0,-2.08,0.107,7.04,0.0,-0.871,-0.08594,-0.152,-0.05362,-0.004612,-1.642,-1.144,7.0,0.572,-0.821,0.0,0.0
1738224645247138738,0,0,0,0,0,0,0,0,0,-2.076,0.0608,7.035,0.09375,-0.879,-0.09375,-0.1602,-0.0594,0.00011224,-1.642,-1.144,7.0,0.572,-0.821,0.0,0.0
1738224645297129392,0,0,0,0,0,0,0,0,0,-2.07,0.01863,7.035,0.1367,-0.8906,-0.10156,-0.163,-0.05872,0.001121,-1.582,-1.224,7.0,0.612,-0.791,0.0,0.0
1738224645347118377,0,0,0,0,0,0,0,0,0,-2.059,-0.0288,7.03,0.2148,-0.914,-0.10156,-0.1692,-0.04752,0.0002317,-1.582,-1.224,7.0,0.612,-0.791,0.0,0.0
1738224645397124290,0,0,0,0,0,0,0,0,0,-2.05,-0.0589,7.03,0.2695,-0.9297,-0.09766,-0.1683,-0.04016,0.0004468,-1.519,-1.301,7.0,0.6504,-0.7593,0.0,0.0
1738224645447139024,0,0,0,0,0,0,0,0,0,-2.03,-0.1239,6.918,0.3164,-0.949,-0.10547,-0.1586,-0.007545,0.0006,-1.519,-1.301,7.0,0.6504,-0.7593,0.0,0.0
1738224645497131109,0,0,0,0,0,0,0,0,0,-2.018,-0.1576,6.918,0.3281,-0.957,-0.1094,-0.1537,0.004204,0.000533,-1.452,-1.376,7.0,0.688,-0.726,0.0,0.0
1738224645547138929,0,0,0,0,0,0,0,0,0,-1.994,-0.2197,6.945,0.3672,-0.9766,-0.125,-0.159,0.01332,-0.001919,-1.452,-1.376,7.0,0.688,-0.726,0.0,0.0
1738224645597138881,0,0,0,0,0,0,0,0,0,-1.98,-0.2544,6.95,0.3906,-0.9883,-0.1406,-0.1616,0.01441,-0.002024,-1.381,-1.446,7.0,0.723,-0.6904,0.0,0.0
1738224645647149801,0,0,0,0,0,0,0,0,0,-1.952,-0.3237,6.94,0.4258,-1.008,-0.1719,-0.163,0.01836,-0.003214,-1.381,-1.446,7.0,0.723,-0.6904,0.0,0.0
1738224645697147130,0,0,0,0,0,0,0,0,0,-1.9375,-0.3572,6.938,0.4453,-1.02,-0.1562,-0.1573,0.02196,-0.002588,-1.308,-1.514,7.0,0.757,-0.654,0.0,0.0
1738224645747149229,0,0,0,0,0,0,0,0,0,-1.906,-0.423,6.91,0.5,-1.031,-0.1172,-0.1425,0.01833,0.002975,-1.308,-1.514,7.0,0.757,-0.654,0.0,0.0
1738224645797130823,0,0,0,0,0,0,0,0,0,-1.906,-0.423,6.91,0.5,-1.031,-0.1172,-0.1425,0.01833,0.002975,-1.23,-1.577,7.0,0.7886,-0.615,0.0,0.0
1738224645847134828,0,0,0,0,0,0,0,0,0,-1.906,-0.423,6.91,0.5,-1.031,-0.1172,-0.1425,0.01833,0.002975,-1.23,-1.577,7.0,0.7886,-0.615,0.0,0.0
1738224645897132396,0,0,0,0,0,0,0,0,0,-1.831,-0.568,6.906,0.535,-1.031,-0.0742,-0.1364,0.01903,-0.0009317,-1.149,-1.637,7.0,0.8184,-0.5747,0.0,0.0
1738224645947138786,0,0,0,0,0,0,0,0,0,-1.795,-0.63,6.855,0.5977,-0.9727,-0.0,-0.1078,0.07245,-0.01272,-1.149,-1.637,7.0,0.8184,-0.5747,0.0,0.0
1738224645997137546,0,0,0,0,0,0,0,0,0,-1.795,-0.63,6.855,0.5977,-0.9727,-0.0,-0.1078,0.07245,-0.01272,-1.066,-1.692,7.0,0.846,-0.533,0.0,0.0
1738224646047124147,0,0,0,0,0,0,0,0,0,-1.73,-0.7314,6.855,0.5977,-0.949,0.02344,-0.10736,0.08,-0.01335,-1.066,-1.692,7.0,0.846,-0.533,0.0,0.0
1738224646097133636,0,0,0,0,0,0,0,0,0,-1.712,-0.76,6.844,0.586,-0.879,0.05078,-0.11676,0.09564,-0.01686,-0.9805,-1.743,7.0,0.8716,-0.4902,0.0,0.0
1738224646147137880,0,0,0,0,0,0,0,0,0,-1.691,-0.79,6.832,0.582,-0.8555,0.0625,-0.123,0.10223,-0.01536,-0.9805,-1.743,7.0,0.8716,-0.4902,0.0,0.0
1738224646197139024,0,0,0,0,0,0,0,0,0,-1.648,-0.8525,6.83,0.5664,-0.8047,0.10156,-0.1311,0.11224,-0.01289,-0.892,-1.79,7.0,0.895,-0.446,0.0,0.0
1738224646247148990,0,0,0,0,0,0,0,0,0,-1.623,-0.8867,6.832,0.5586,-0.7773,0.1484,-0.1333,0.1098,-0.01298,-0.892,-1.79,7.0,0.895,-0.446,0.0,0.0
1738224646297134160,0,0,0,0,0,0,0,0,0,-1.601,-0.918,6.84,0.547,-0.75,0.1797,-0.135,0.1084,-0.013824,-0.802,-1.832,7.0,0.916,-0.401,0.0,0.0
1738224646347117900,0,0,0,0,0,0,0,0,0,-1.566,-0.965,6.848,0.535,-0.715,0.1953,-0.1384,0.11383,-0.01145,-0.802,-1.832,7.0,0.916,-0.401,0.0,0.0
1738224646397150993,0,0,0,0,0,0,0,0,0,-1.54,-0.999,6.855,0.5234,-0.6953,0.1953,-0.1476,0.1178,-0.01179,-0.709,-1.87,7.0,0.935,-0.3545,0.0,0.0
1738224646447151660,0,0,0,0,0,0,0,0,0,-1.53,-1.013,6.86,0.508,-0.6797,0.1992,-0.1606,0.1225,-0.01159,-0.709,-1.87,7.0,0.935,-0.3545,0.0,0.0
1738224646497189044,0,0,0,0,0,0,0,0,0,-1.53,-1.013,6.86,0.508,-0.6797,0.1992,-0.1606,0.1225,-0.01159,-0.709,-1.87,7.0,0.935,-0.3545,0.0,0.0
1738224646547152996,0,0,0,0,0,0,0,0,0,-1.498,-1.057,6.863,0.5,-0.6797,0.1953,-0.1655,0.126,-0.0123,-0.6147,-1.903,7.0,0.9517,-0.3074,0.0,0.0
1738224646597130537,0,0,0,0,0,0,0,0,0,-1.451,-1.122,6.883,0.457,-0.664,0.1992,-0.1677,0.1317,-0.01145,-0.5186,-1.932,7.0,0.966,-0.2593,0.0,0.0
1738224646647118806,0,0,0,0,0,0,0,0,0,-1.425,-1.16,6.9,0.418,-0.629,0.1992,-0.173,0.1177,-0.01193,-0.5186,-1.932,7.0,0.966,-0.2593,0.0,0.0
1738224646697134256,0,0,0,0,0,0,0,0,0,-1.425,-1.16,6.9,0.418,-0.629,0.1992,-0.173,0.1177,-0.01193,-0.4216,-1.955,7.0,0.9775,-0.2108,0.0,0.0
1738224646747138977,0,0,0,0,0,0,0,0,0,-1.378,-1.233,6.906,0.414,-0.6367,0.1953,-0.1766,0.1144,-0.011246,-0.4216,-1.955,7.0,0.9775,-0.2108,0.0,0.0
1738224646797145843,0,0,0,0,0,0,0,0,0,-1.36,-1.259,6.92,0.3945,-0.6133,0.1641,-0.1831,0.10284,-0.00847,-0.3232,-1.974,7.0,0.987,-0.1616,0.0,0.0
1738224646847123384,0,0,0,0,0,0,0,0,0,-1.343,-1.287,6.93,0.3984,-0.6094,0.1602,-0.1798,0.0911,-0.00785,-0.3232,-1.974,7.0,0.987,-0.1616,0.0,0.0
1738224646897140741,0,0,0,0,0,0,0,0,0,-1.324,-1.313,6.938,0.4062,-0.6016,0.1562,-0.1779,0.0868,-0.008484,-0.2244,-1.987,7.0,0.9937,-0.1122,0.0,0.0
1738224646947140693,0,0,0,0,0,0,0,0,0,-1.303,-1.346,6.94,0.4219,-0.6016,0.1328,-0.1836,0.07764,-0.007763,-0.2244,-1.987,7.0,0.9937,-0.1122,0.0,0.0
1738224646997146844,0,0,0,0,0,0,0,0,0,-1.282,-1.374,6.945,0.4336,-0.5938,0.1289,-0.1881,0.0747,-0.00742,-0.1247,-1.996,7.0,0.998,-0.06235,0.0,0.0
1738224647047150850,0,0,0,0,0,0,0,0,0,-1.2705,-1.39,6.95,0.4453,-0.5938,0.125,-0.1873,0.07135,-0.00817,-0.1247,-1.996,7.0,0.998,-0.06235,0.0,0.0
1738224647097163677,0,0,0,0,0,0,0,0,0,-1.234,-1.435,6.96,0.4766,-0.5938,0.10156,-0.1823,0.0613,-0.00916,-0.02478,-2.0,7.0,1.0,-0.01239,0.0,0.0
1738224647147140502,0,0,0,0,0,0,0,0,0,-1.205,-1.469,6.965,0.508,-0.5938,0.09375,-0.1835,0.05008,-0.00866,-0.02478,-2.0,7.0,1.0,-0.01239,0.0,0.0
1738224647197151184,0,0,0,0,0,0,0,0,0,-1.185,-1.492,6.97,0.5312,-0.5977,0.08984,-0.1783,0.04462,-0.00828,0.0752,-1.999,7.0,0.9995,0.0376,0.0,0.0
1738224647247131347,0,0,0,0,0,0,0,0,0,-1.147,-1.532,6.973,0.5703,-0.5938,0.0742,-0.1747,0.0383,-0.00923,0.0752,-1.999,7.0,0.9995,0.0376,0.0,0.0
1738224647297147274,0,0,0,0,0,0,0,0,0,-1.125,-1.555,6.973,0.586,-0.5938,0.0625,-0.1748,0.0355,-0.007523,0.175,-1.992,7.0,0.996,0.0875,0.0,0.0
1738224647347131967,0,0,0,0,0,0,0,0,0,-1.09,-1.589,6.977,0.629,-0.6016,0.0547,-0.168,0.0334,-0.00796,0.175,-1.992,7.0,0.996,0.0875,0.0,0.0
1738224647397139549,0,0,0,0,0,0,0,0,0,-1.064,-1.611,6.98,0.672,-0.5977,0.0547,-0.1621,0.03078,-0.00862,0.2744,-1.981,7.0,0.9907,0.1372,0.0,0.0
1738224647447121858,0,0,0,0,0,0,0,0,0,-1.046,-1.628,6.99,0.6914,-0.586,0.05078,-0.16,0.02737,-0.00991,0.2744,-1.981,7.0,0.9907,0.1372,0.0,0.0
1738224647497140169,0,0,0,0,0,0,0,0,0,-1.017,-1.651,6.99,0.7188,-0.582,0.03906,-0.1554,0.02531,-0.00993,0.373,-1.965,7.0,0.9824,0.1865,0.0,0.0
1738224647547133922,0,0,0,0,0,0,0,0,0,-1.017,-1.651,6.99,0.7188,-0.582,0.03906,-0.1554,0.02531,-0.00993,0.373,-1.965,7.0,0.9824,0.1865,0.0,0.0
1738224647597143411,0,0,0,0,0,0,0,0,0,-0.9185,-1.728,6.99,0.7383,-0.578,0.03516,-0.1528,0.02258,-0.00896,0.4707,-1.943,7.0,0.9717,0.2354,0.0,0.0
1738224647647142410,0,0,0,0,0,0,0,0,0,-0.879,-1.755,6.992,0.836,-0.543,0.03125,-0.1396,0.02101,-0.005753,0.4707,-1.943,7.0,0.9717,0.2354,0.0,0.0
1738224647697158098,0,0,0,0,0,0,0,0,0,-0.8364,-1.781,6.992,0.875,-0.5234,0.01563,-0.1345,0.03062,-0.00867,0.5674,-1.918,7.0,0.959,0.2837,0.0,0.0
1738224647747164249,0,0,0,0,0,0,0,0,0,-0.8135,-1.794,6.992,0.8867,-0.504,0.01563,-0.1294,0.0384,-0.00983,0.5674,-1.918,7.0,0.959,0.2837,0.0,0.0
1738224647797131776,0,0,0,0,0,0,0,0,0,-0.737,-1.834,6.992,0.8945,-0.4531,0.007812,-0.1204,0.05417,-0.01232,0.6626,-1.887,7.0,0.9434,0.3313,0.0,0.0
1738224647847141027,0,0,0,0,0,0,0,0,0,-0.6895,-1.857,6.992,0.9023,-0.4219,-0.0,-0.11975,0.05576,-0.01264,0.6626,-1.887,7.0,0.9434,0.3313,0.0,0.0
1738224647897142887,0,0,0,0,0,0,0,0,0,-0.6597,-1.87,6.992,0.9062,-0.4023,-0.003906,-0.1194,0.05542,-0.012245,0.756,-1.852,7.0,0.926,0.378,0.0,0.0
1738224647947145938,0,0,0,0,0,0,0,0,0,-0.6597,-1.87,6.992,0.9062,-0.4023,-0.003906,-0.1194,0.05542,-0.012245,0.756,-1.852,7.0,0.926,0.378,0.0,0.0
1738224647997141838,0,0,0,0,0,0,0,0,0,-0.5547,-1.915,6.992,0.91,-0.3867,-0.003906,-0.1198,0.05493,-0.01174,0.8477,-1.812,7.0,0.906,0.4238,0.0,0.0
1738224648047147750,0,0,0,0,0,0,0,0,0,-0.509,-1.933,6.99,0.9297,-0.3281,-0.007812,-0.1189,0.05347,-0.00991,0.8477,-1.812,7.0,0.906,0.4238,0.0,0.0
1738224648097160100,0,0,0,0,0,0,0,0,0,-0.4807,-1.941,6.99,0.922,-0.2852,-0.02344,-0.12177,0.05756,-0.01085,0.937,-1.767,7.0,0.8833,0.4685,0.0,0.0
1738224648147134542,0,0,0,0,0,0,0,0,0,-0.4114,-1.961,6.99,0.922,-0.2461,-0.01563,-0.122,0.062,-0.01003,0.937,-1.767,7.0,0.8833,0.4685,0.0,0.0
1738224648197132587,0,0,0,0,0,0,0,0,0,-0.374,-1.97,6.984,0.926,-0.2188,-0.01172,-0.1189,0.05844,-0.00862,1.024,-1.718,7.0,0.859,0.512,0.0,0.0
1738224648247134208,0,0,0,0,0,0,0,0,0,-0.3213,-1.98,6.984,0.9414,-0.1836,-0.01172,-0.1184,0.05298,-0.009995,1.024,-1.718,7.0,0.859,0.512,0.0,0.0
1738224648297152280,0,0,0,0,0,0,0,0,0,-0.2937,-1.985,6.984,0.949,-0.168,-0.01172,-0.1216,0.05057,-0.00895,1.108,-1.664,7.0,0.832,0.554,0.0,0.0
1738224648347136974,0,0,0,0,0,0,0,0,0,-0.222,-1.996,6.984,0.961,-0.1406,-0.01172,-0.1225,0.05005,-0.007595,1.108,-1.664,7.0,0.832,0.554,0.0,0.0
1738224648397154569,0,0,0,0,0,0,0,0,0,-0.1886,-2.0,6.984,0.953,-0.1094,-0.003906,-0.12006,0.0518,-0.00752,1.19,-1.607,7.0,0.8037,0.595,0.0,0.0
1738224648447163820,0,0,0,0,0,0,0,0,0,-0.1627,-2.002,6.98,0.953,-0.09375,-0.003906,-0.12024,0.05402,-0.00864,1.19,-1.607,7.0,0.8037,0.595,0.0,0.0
1738224648497155189,0,0,0,0,0,0,0,0,0,-0.09045,-2.008,6.98,0.957,-0.0625,0.003906,-0.11847,0.05515,-0.006207,1.27,-1.546,7.0,0.773,0.635,0.0,0.0
1738224648547119140,0,0,0,0,0,0,0,0,0,-0.0391,-2.01,6.98,0.9688,-0.03125,0.007812,-0.11523,0.0491,-0.005524,1.27,-1.546,7.0,0.773,0.635,0.0,0.0
1738224648597141981,0,0,0,0,0,0,0,0,0,0.001664,-2.01,6.977,0.9727,-0.003906,0.007812,-0.11487,0.0475,-0.005787,1.345,-1.48,7.0,0.74,0.6724,0.0,0.0
1738224648647124052,0,0,0,0,0,0,0,0,0,0.0603,-2.008,6.977,0.996,0.02734,0.01172,-0.1103,0.0432,-0.005566,1.345,-1.48,7.0,0.74,0.6724,0.0,0.0
1738224648697123289,0,0,0,0,0,0,0,0,0,0.0603,-2.008,6.977,0.996,0.02734,0.01172,-0.1103,0.0432,-0.005566,1.417,-1.411,7.0,0.7056,0.7085,0.0,0.0
1738224648747133016,0,0,0,0,0,0,0,0,0,0.0603,-2.008,6.977,0.996,0.02734,0.01172,-0.1103,0.0432,-0.005566,1.417,-1.411,7.0,0.7056,0.7085,0.0,0.0
1738224648797149181,0,0,0,0,0,0,0,0,0,0.2146,-2.002,6.977,1.012,0.09375,0.01563,-0.1063,0.05002,-0.006454,1.486,-1.339,7.0,0.6694,0.743,0.0,0.0
1738224648847136735,0,0,0,0,0,0,0,0,0,0.2668,-1.994,6.977,1.027,0.1602,0.02344,-0.1059,0.05588,-0.006874,1.486,-1.339,7.0,0.6694,0.743,0.0,0.0
1738224648897150516,0,0,0,0,0,0,0,0,0,0.3088,-1.986,6.977,1.035,0.1797,0.02734,-0.10834,0.05426,-0.007103,1.551,-1.263,7.0,0.6313,0.7754,0.0,0.0
1738224648947145700,0,0,0,0,0,0,0,0,0,0.3088,-1.986,6.977,1.035,0.1797,0.02734,-0.10834,0.05426,-0.007103,1.551,-1.263,7.0,0.6313,0.7754,0.0,0.0
1738224648997164487,0,0,0,0,0,0,0,0,0,0.3992,-1.97,6.977,1.047,0.1992,0.03516,-0.1115,0.0527,-0.00661,1.612,-1.184,7.0,0.592,0.806,0.0,0.0
1738224649047127485,0,0,0,0,0,0,0,0,0,0.4702,-1.955,6.977,1.066,0.2422,0.03906,-0.11847,0.0563,-0.005665,1.612,-1.184,7.0,0.592,0.806,0.0,0.0
1738224649097135066,0,0,0,0,0,0,0,0,0,0.517,-1.943,6.977,1.066,0.2695,0.03125,-0.1172,0.06775,-0.006424,1.669,-1.102,7.0,0.551,0.8345,0.0,0.0
1738224649147146224,0,0,0,0,0,0,0,0,0,0.545,-1.936,6.977,1.066,0.2852,0.03125,-0.1203,0.07336,-0.006744,1.669,-1.102,7.0,0.551,0.8345,0.0,0.0
1738224649197143554,0,0,0,0,0,0,0,0,0,0.545,-1.936,6.977,1.066,0.2852,0.03125,-0.1203,0.07336,-0.006744,1.723,-1.017,7.0,0.5083,0.8613,0.0,0.0
1738224649247131824,0,0,0,0,0,0,0,0,0,0.662,-1.904,6.977,1.066,0.2852,0.03516,-0.12054,0.0803,-0.00681,1.723,-1.017,7.0,0.5083,0.8613,0.0,0.0
1738224649297157287,0,0,0,0,0,0,0,0,0,0.737,-1.881,6.97,1.02,0.3477,0.03906,-0.11957,0.1074,-0.00999,1.771,-0.929,7.0,0.4646,0.8857,0.0,0.0
1738224649347175121,0,0,0,0,0,0,0,0,0,0.786,-1.862,6.97,0.9805,0.3672,0.03516,-0.11523,0.12036,-0.007195,1.771,-0.929,7.0,0.4646,0.8857,0.0,0.0
1738224649397124767,0,0,0,0,0,0,0,0,0,0.828,-1.847,6.97,0.957,0.371,0.04297,-0.109,0.1198,-0.00581,1.815,-0.8394,7.0,0.4197,0.9077,0.0,0.0
1738224649447149753,0,0,0,0,0,0,0,0,0,0.881,-1.824,6.97,0.922,0.4062,0.05078,-0.09467,0.115,-0.00668,1.815,-0.8394,7.0,0.4197,0.9077,0.0,0.0
1738224649497150421,0,0,0,0,0,0,0,0,0,0.9185,-1.807,6.97,0.9062,0.4219,0.04297,-0.0925,0.1125,-0.007538,1.8545,-0.7476,7.0,0.3738,0.9272,0.0,0.0
1738224649547149658,0,0,0,0,0,0,0,0,0,0.9727,-1.779,6.973,0.883,0.4531,0.04297,-0.0908,0.10474,-0.006355,1.8545,-0.7476,7.0,0.3738,0.9272,0.0,0.0
1738224649597147226,0,0,0,0,0,0,0,0,0,0.9727,-1.779,6.973,0.883,0.4531,0.04297,-0.0908,0.10474,-0.006355,1.89,-0.6543,7.0,0.3271,0.945,0.0,0.0
1738224649647136688,0,0,0,0,0,0,0,0,0,0.9727,-1.779,6.973,0.883,0.4531,0.04297,-0.0908,0.10474,-0.006355,1.89,-0.6543,7.0,0.3271,0.945,0.0,0.0
1738224649697131633,0,0,0,0,0,0,0,0,0,0.9727,-1.779,6.973,0.883,0.4531,0.04297,-0.0908,0.10474,-0.006355,1.92,-0.5586,7.0,0.2793,0.96,0.0,0.0
1738224649747137546,0,0,0,0,0,0,0,0,0,1.143,-1.682,6.977,0.8203,0.535,0.0625,-0.09406,0.0997,-0.004936,1.92,-0.5586,7.0,0.2793,0.96,0.0,0.0
1738224649797161102,0,0,0,0,0,0,0,0,0,1.16,-1.669,6.977,0.793,0.5586,0.0625,-0.0906,0.0983,-0.007153,1.946,-0.4622,7.0,0.2311,0.973,0.0,0.0
1738224649847158193,0,0,0,0,0,0,0,0,0,1.217,-1.625,6.98,0.746,0.621,0.0625,-0.09314,0.09875,-0.00644,1.946,-0.4622,7.0,0.2311,0.973,0.0,0.0
1738224649897153854,0,0,0,0,0,0,0,0,0,1.249,-1.597,6.98,0.7344,0.633,0.05078,-0.0929,0.09845,-0.007393,1.967,-0.3643,7.0,0.1821,0.9834,0.0,0.0
1738224649947206497,0,0,0,0,0,0,0,0,0,1.292,-1.558,6.98,0.7227,0.664,0.04297,-0.0958,0.092,-0.00686,1.967,-0.3643,7.0,0.1821,0.9834,0.0,0.0
1738224649997162342,0,0,0,0,0,0,0,0,0,1.292,-1.558,6.98,0.7227,0.664,0.04297,-0.0958,0.092,-0.00686,1.982,-0.2656,7.0,0.1328,0.991,0.0,0.0
1738224650047151803,0,0,0,0,0,0,0,0,0,1.361,-1.492,6.984,0.703,0.6953,0.04688,-0.0942,0.0796,-0.00791,1.982,-0.2656,7.0,0.1328,0.991,0.0,0.0
1738224650097145080,0,0,0,0,0,0,0,0,0,1.4,-1.453,6.984,0.707,0.699,0.04297,-0.0952,0.0769,-0.007214,1.993,-0.1661,7.0,0.08307,0.9966,0.0,0.0
1738224650147136449,0,0,0,0,0,0,0,0,0,1.431,-1.424,6.98,0.715,0.711,0.05078,-0.1008,0.0736,-0.006653,1.993,-0.1661,7.0,0.08307,0.9966,0.0,0.0
