time,x_sphinx,y_sphinx,z_sphinx,vx_sphinx,vy_sphinx,vz_sphinx,roll_sphinx,pitch_sphinx,yaw_sphinx,x_anafi,y_anafi,z_anafi,vx_anafi,vy_anafi,vz_anafi,roll_anafi,pitch_anafi,yaw_anafi,wp_x,wp_y,wp_z,wp_vx,wp_vy,wp_vz,wp_yaw
1738224826773251533,0,0,0,0,0,0,0,0,0,0.3118,-1.926,6.926,1.914,0.4531,0.0664,-0.01657,0.05927,-0.007088,1.993,-0.1661,7.0,0.1661,1.993,0.0,0.0
1738224826823262453,0,0,0,0,0,0,0,0,0,0.3792,-1.907,6.93,1.91,0.5117,0.0664,-0.01439,0.06635,-0.006706,2.0,0.0,7.0,-0.0,2.0,0.0,0.0
1738224826873247146,0,0,0,0,0,0,0,0,0,0.5156,-1.864,6.934,1.879,0.6406,0.0547,-0.01622,0.08014,-0.00835,2.0,0.0,7.0,-0.0,2.0,0.0,0.0
1738224826923268556,0,0,0,0,0,0,0,0,0,0.572,-1.844,6.934,1.871,0.6797,0.04688,-0.01936,0.08905,-0.00954,1.99,0.1997,7.0,-0.1997,1.99,0.0,0.0
1738224826973284244,0,0,0,0,0,0,0,0,0,0.6914,-1.795,6.938,1.844,0.793,0.03906,-0.02612,0.1053,-0.00847,1.99,0.1997,7.0,-0.1997,1.99,0.0,0.0
1738224827023277759,0,0,0,0,0,0,0,0,0,0.751,-1.768,6.938,1.824,0.828,0.03906,-0.02686,0.1144,-0.007652,1.96,0.3972,7.0,-0.3972,1.96,0.0,0.0
1738224827073264837,0,0,0,0,0,0,0,0,0,0.873,-1.703,6.938,1.746,0.965,0.03906,-0.0309,0.1302,-0.0085,1.96,0.3972,7.0,-0.3972,1.96,0.0,0.0
1738224827123274326,0,0,0,0,0,0,0,0,0,0.9336,-1.668,6.94,1.719,1.012,0.04297,-0.02785,0.1382,-0.00621,1.911,0.591,7.0,-0.591,1.911,0.0,0.0
1738224827173254489,0,0,0,0,0,0,0,0,0,1.048,-1.595,6.94,1.672,1.105,0.0547,-0.03336,0.1483,-0.00725,1.911,0.591,7.0,-0.591,1.911,0.0,0.0
1738224827223252534,0,0,0,0,0,0,0,0,0,1.102,-1.558,6.94,1.641,1.152,0.0586,-0.03485,0.1553,-0.00871,1.842,0.779,7.0,-0.779,1.842,0.0,0.0
1738224827273245334,0,0,0,0,0,0,0,0,0,1.2,-1.478,6.94,1.535,1.297,0.0586,-0.03726,0.1742,-0.00987,1.842,0.779,7.0,-0.779,1.842,0.0,0.0
1738224827323269844,0,0,0,0,0,0,0,0,0,1.24,-1.442,6.945,1.504,1.344,0.0586,-0.0428,0.1826,-0.00944,1.755,0.959,7.0,-0.959,1.755,0.0,0.0
1738224827373248100,0,0,0,0,0,0,0,0,0,1.351,-1.332,6.945,1.418,1.445,0.0625,-0.0571,0.1984,-0.009125,1.755,0.959,7.0,-0.959,1.755,0.0,0.0
1738224827423258066,0,0,0,0,0,0,0,0,0,1.391,-1.29,6.945,1.383,1.484,0.0586,-0.06354,0.2017,-0.009254,1.65,1.129,7.0,-1.129,1.65,0.0,0.0
1738224827473253488,0,0,0,0,0,0,0,0,0,1.48,-1.18,6.945,1.25,1.59,0.0586,-0.0756,0.2135,-0.00663,1.65,1.129,7.0,-1.129,1.65,0.0,0.0
1738224827523264169,0,0,0,0,0,0,0,0,0,1.517,-1.132,6.945,1.215,1.617,0.0586,-0.0818,0.2178,-0.00563,1.529,1.288,7.0,-1.288,1.529,0.0,0.0
1738224827573251247,0,0,0,0,0,0,0,0,0,1.601,-1.012,6.945,1.121,1.676,0.0703,-0.0982,0.2249,-0.004333,1.529,1.288,7.0,-1.288,1.529,0.0,0.0
1738224827623267889,0,0,0,0,0,0,0,0,0,1.631,-0.965,6.945,1.09,1.691,0.0781,-0.1024,0.2289,-0.003418,1.394,1.435,7.0,-1.435,1.394,0.0,0.0
1738224827673268556,0,0,0,0,0,0,0,0,0,1.7,-0.841,6.945,0.953,1.746,0.09375,-0.1098,0.2458,-0.001999,1.394,1.435,7.0,-1.435,1.394,0.0,0.0
1738224827723270654,0,0,0,0,0,0,0,0,0,1.73,-0.782,6.945,0.91,1.762,0.10156,-0.11127,0.2527,-0.002558,1.243,1.566,7.0,-1.566,1.243,0.0,0.0
1738224827773268938,0,0,0,0,0,0,0,0,0,1.789,-0.658,6.95,0.801,1.793,0.10547,-0.13,0.2732,-0.004807,1.243,1.566,7.0,-1.566,1.243,0.0,0.0
1738224827823263168,0,0,0,0,0,0,0,0,0,1.8125,-0.602,6.945,0.746,1.805,0.10547,-0.1353,0.284,-0.00515,1.081,1.683,7.0,-1.683,1.081,0.0,0.0
1738224827873267412,0,0,0,0,0,0,0,0,0,1.851,-0.494,6.95,0.582,1.84,0.10547,-0.1483,0.3113,-0.00534,1.081,1.683,7.0,-1.683,1.081,0.0,0.0
1738224827923258304,0,0,0,0,0,0,0,0,0,1.869,-0.4246,6.95,0.508,1.844,0.1094,-0.1517,0.3203,-0.005093,0.907,1.782,7.0,-1.782,0.907,0.0,0.0
1738224827973248243,0,0,0,0,0,0,0,0,0,1.896,-0.2961,6.95,0.3477,1.859,0.1133,-0.159,0.331,-0.00625,0.907,1.782,7.0,-1.782,0.907,0.0,0.0
1738224828023258447,0,0,0,0,0,0,0,0,0,1.904,-0.2454,6.95,0.2812,1.863,0.1133,-0.1646,0.332,-0.006523,0.7246,1.864,7.0,-1.864,0.7246,0.0,0.0
1738224828073256254,0,0,0,0,0,0,0,0,0,1.914,-0.1103,6.953,0.0781,1.879,0.1211,-0.1678,0.3403,-0.00453,0.7246,1.864,7.0,-1.864,0.7246,0.0,0.0
1738224828123262166,0,0,0,0,0,0,0,0,0,1.914,-0.05566,6.953,0.01172,1.883,0.125,-0.169,0.3406,-0.00489,0.535,1.927,7.0,-1.927,0.535,0.0,0.0
1738224828173235177,0,0,0,0,0,0,0,0,0,1.91,0.06885,6.957,-0.0586,1.883,0.125,-0.1738,0.3381,-0.005127,0.535,1.927,7.0,-1.927,0.535,0.0,0.0
1738224828223271369,0,0,0,0,0,0,0,0,0,1.906,0.1276,6.96,-0.1797,1.887,0.1289,-0.19,0.332,-0.005795,0.3398,1.971,7.0,-1.971,0.3398,0.0,0.0
1738224828273261547,0,0,0,0,0,0,0,0,0,1.884,0.2603,6.965,-0.3672,1.859,0.1289,-0.2084,0.332,-0.00516,0.3398,1.971,7.0,-1.971,0.3398,0.0,0.0
1738224828323260068,0,0,0,0,0,0,0,0,0,1.869,0.324,6.965,-0.4219,1.848,0.1367,-0.2163,0.3298,-0.00515,0.1415,1.995,7.0,-1.995,0.1415,0.0,0.0
1738224828373249769,0,0,0,0,0,0,0,0,0,1.833,0.4512,6.97,-0.535,1.8125,0.1367,-0.2433,0.321,-0.005703,0.1415,1.995,7.0,-1.995,0.1415,0.0,0.0
1738224828423257112,0,0,0,0,0,0,0,0,0,1.811,0.515,6.973,-0.629,1.77,0.1367,-0.2534,0.3176,-0.004303,-0.0584,1.999,7.0,-1.999,-0.0584,0.0,0.0
1738224828473253488,0,0,0,0,0,0,0,0,0,1.772,0.6143,6.973,-0.7188,1.734,0.1328,-0.2744,0.3096,-0.002415,-0.0584,1.999,7.0,-1.999,-0.0584,0.0,0.0
1738224828523262023,0,0,0,0,0,0,0,0,0,1.727,0.7134,6.977,-0.789,1.699,0.125,-0.2786,0.3086,-0.00305,-0.2576,1.983,7.0,-1.983,-0.2576,0.0,0.0
1738224828573255062,0,0,0,0,0,0,0,0,0,1.699,0.7676,6.977,-0.832,1.672,0.1211,-0.2878,0.3054,-0.003933,-0.2576,1.983,7.0,-1.983,-0.2576,0.0,0.0
1738224828623256921,0,0,0,0,0,0,0,0,0,1.649,0.855,6.98,-0.949,1.578,0.1133,-0.302,0.2932,-0.00212,-0.4543,1.947,7.0,-1.947,-0.4543,0.0,0.0
1738224828673253059,0,0,0,0,0,0,0,0,0,1.59,0.9478,6.98,-1.02,1.504,0.1133,-0.3132,0.2847,-0.000932,-0.4543,1.947,7.0,-1.947,-0.4543,0.0,0.0
1738224828723239421,0,0,0,0,0,0,0,0,0,1.55,1.002,6.98,-1.055,1.457,0.10547,-0.3137,0.2817,-0.001678,-0.6465,1.893,7.0,-1.893,-0.6465,0.0,0.0
1738224828773240089,0,0,0,0,0,0,0,0,0,1.481,1.09,6.984,-1.113,1.363,0.10547,-0.3254,0.2766,-0.004993,-0.6465,1.893,7.0,-1.893,-0.6465,0.0,0.0
1738224828823263883,0,0,0,0,0,0,0,0,0,1.429,1.149,6.98,-1.141,1.305,0.1094,-0.3228,0.274,-0.002792,-0.8325,1.818,7.0,-1.818,-0.8325,0.0,0.0
1738224828873260259,0,0,0,0,0,0,0,0,0,1.364,1.217,6.98,-1.195,1.172,0.1445,-0.307,0.2583,-0.004185,-0.8325,1.818,7.0,-1.818,-0.8325,0.0,0.0
1738224828923278570,0,0,0,0,0,0,0,0,0,1.364,1.217,6.98,-1.195,1.172,0.1445,-0.307,0.2583,-0.004185,-1.01,1.727,7.0,-1.727,-1.01,0.0,0.0
1738224828973254680,0,0,0,0,0,0,0,0,0,1.364,1.217,6.98,-1.195,1.172,0.1445,-0.307,0.2583,-0.004185,-1.01,1.727,7.0,-1.727,-1.01,0.0,0.0
1738224829023283720,0,0,0,0,0,0,0,0,0,1.207,1.358,6.98,-1.223,1.105,0.1562,-0.306,0.2537,-0.004696,-1.177,1.617,7.0,-1.617,-1.177,0.0,0.0
1738224829073252916,0,0,0,0,0,0,0,0,0,1.115,1.424,7.004,-1.363,0.8984,0.1289,-0.3157,0.276,-0.01648,-1.177,1.617,7.0,-1.617,-1.177,0.0,0.0
1738224829123283147,0,0,0,0,0,0,0,0,0,1.063,1.455,7.008,-1.453,0.84,0.10156,-0.3162,0.2874,-0.02339,-1.333,1.491,7.0,-1.491,-1.333,0.0,0.0
1738224829173272848,0,0,0,0,0,0,0,0,0,0.97,1.504,7.004,-1.531,0.7773,0.08203,-0.318,0.2874,-0.02266,-1.333,1.491,7.0,-1.491,-1.333,0.0,0.0
1738224829223276138,0,0,0,0,0,0,0,0,0,0.898,1.536,7.004,-1.586,0.703,0.0703,-0.3254,0.2827,-0.02011,-1.475,1.351,7.0,-1.351,-1.475,0.0,0.0
1738224829273260593,0,0,0,0,0,0,0,0,0,0.806,1.572,6.996,-1.656,0.621,0.0742,-0.3433,0.2646,-0.013916,-1.475,1.351,7.0,-1.351,-1.475,0.0,0.0
1738224829323246240,0,0,0,0,0,0,0,0,0,0.749,1.591,7.0,-1.691,0.5664,0.08594,-0.3423,0.2593,-0.01295,-1.603,1.197,7.0,-1.197,-1.603,0.0,0.0
1738224829373215198,0,0,0,0,0,0,0,0,0,0.6387,1.624,6.996,-1.734,0.4766,0.1133,-0.3389,0.2379,-0.00722,-1.603,1.197,7.0,-1.197,-1.603,0.0,0.0
1738224829423274278,0,0,0,0,0,0,0,0,0,0.5674,1.64,6.996,-1.754,0.3828,0.1133,-0.3428,0.2294,-0.00583,-1.714,1.031,7.0,-1.031,-1.714,0.0,0.0
1738224829473366022,0,0,0,0,0,0,0,0,0,0.4485,1.661,6.996,-1.785,0.289,0.10156,-0.3506,0.2236,-0.00684,-1.714,1.031,7.0,-1.031,-1.714,0.0,0.0
1738224829523273706,0,0,0,0,0,0,0,0,0,0.4485,1.661,6.996,-1.785,0.289,0.10156,-0.3506,0.2236,-0.00684,-1.809,0.855,7.0,-0.855,-1.809,0.0,0.0
1738224829573276042,0,0,0,0,0,0,0,0,0,0.4485,1.661,6.996,-1.785,0.289,0.10156,-0.3506,0.2236,-0.00684,-1.809,0.855,7.0,-0.855,-1.809,0.0,0.0
1738224829623264312,0,0,0,0,0,0,0,0,0,0.2095,1.691,6.996,-1.801,0.2305,0.09375,-0.3513,0.2231,-0.00747,-1.885,0.67,7.0,-0.67,-1.885,0.0,0.0
1738224829673273324,0,0,0,0,0,0,0,0,0,0.1411,1.695,6.99,-1.809,0.02734,0.08594,-0.3577,0.2118,-0.007866,-1.885,0.67,7.0,-0.67,-1.885,0.0,0.0
1738224829723282575,0,0,0,0,0,0,0,0,0,0.01642,1.688,6.98,-1.809,-0.1719,0.08203,-0.367,0.1771,-0.005295,-1.942,0.4785,7.0,-0.4785,-1.942,0.0,0.0
1738224829773279428,0,0,0,0,0,0,0,0,0,-0.09326,1.675,6.98,-1.816,-0.2734,0.10547,-0.355,0.1758,-0.00808,-1.942,0.4785,7.0,-0.4785,-1.942,0.0,0.0
1738224829823286771,0,0,0,0,0,0,0,0,0,-0.1542,1.664,6.98,-1.816,-0.3125,0.1133,-0.3381,0.1746,-0.00773,-1.98,0.2822,7.0,-0.2822,-1.98,0.0,0.0
1738224829873270988,0,0,0,0,0,0,0,0,0,-0.2654,1.642,6.984,-1.797,-0.3906,0.1211,-0.331,0.169,-0.01313,-1.98,0.2822,7.0,-0.2822,-1.98,0.0,0.0
1738224829923287153,0,0,0,0,0,0,0,0,0,-0.3237,1.628,6.984,-1.801,-0.4219,0.1211,-0.3286,0.1666,-0.01564,-1.998,0.0832,7.0,-0.0832,-1.998,0.0,0.0
1738224829973295927,0,0,0,0,0,0,0,0,0,-0.4482,1.596,6.992,-1.805,-0.4844,0.1133,-0.3298,0.1566,-0.0183,-1.998,0.0832,7.0,-0.0832,-1.998,0.0,0.0
1738224830023279905,0,0,0,0,0,0,0,0,0,-0.508,1.578,6.996,-1.777,-0.5312,0.10547,-0.3364,0.1497,-0.02112,-1.997,-0.11676,7.0,0.11676,-1.997,0.0,0.0
1738224830073281764,0,0,0,0,0,0,0,0,0,-0.6245,1.54,7.0,-1.754,-0.6016,0.08984,-0.3445,0.134,-0.01888,-1.997,-0.11676,7.0,0.11676,-1.997,0.0,0.0
1738224830123289346,0,0,0,0,0,0,0,0,0,-0.681,1.52,7.004,-1.738,-0.629,0.0742,-0.3513,0.1207,-0.01685,-1.975,-0.3154,7.0,0.3154,-1.975,0.0,0.0
1738224830173285722,0,0,0,0,0,0,0,0,0,-0.771,1.485,7.004,-1.719,-0.664,0.0586,-0.3542,0.1123,-0.016,-1.975,-0.3154,7.0,0.3154,-1.975,0.0,0.0
1738224830223275661,0,0,0,0,0,0,0,0,0,-0.8467,1.453,7.02,-1.672,-0.7266,0.08594,-0.3442,0.0941,-0.01266,-1.934,-0.511,7.0,0.511,-1.934,0.0,0.0
1738224830273270368,0,0,0,0,0,0,0,0,0,-0.96,1.397,7.03,-1.5625,-0.8086,0.08984,-0.342,0.0721,-0.013695,-1.934,-0.511,7.0,0.511,-1.934,0.0,0.0
1738224830323279142,0,0,0,0,0,0,0,0,0,-1.007,1.372,7.035,-1.531,-0.836,0.0742,-0.3542,0.06903,-0.01559,-1.873,-0.7017,7.0,0.7017,-1.873,0.0,0.0
1738224830373268842,0,0,0,0,0,0,0,0,0,-1.085,1.326,7.04,-1.5,-0.871,0.0586,-0.361,0.06775,-0.01498,-1.873,-0.7017,7.0,0.7017,-1.873,0.0,0.0
1738224830423269033,0,0,0,0,0,0,0,0,0,-1.169,1.271,7.043,-1.387,-0.9375,0.02344,-0.3687,0.06335,-0.01604,-1.794,-0.8853,7.0,0.8853,-1.794,0.0,0.0
1738224830473257303,0,0,0,0,0,0,0,0,0,-1.251,1.213,7.043,-1.332,-0.9805,0.003906,-0.37,0.05502,-0.018,-1.794,-0.8853,7.0,0.8853,-1.794,0.0,0.0
1738224830523246049,0,0,0,0,0,0,0,0,0,-1.289,1.184,7.043,-1.305,-1.004,-0.0,-0.3655,0.051,-0.0196,-1.696,-1.06,7.0,1.06,-1.696,0.0,0.0
1738224830573254108,0,0,0,0,0,0,0,0,0,-1.289,1.184,7.043,-1.305,-1.004,-0.0,-0.3655,0.051,-0.0196,-1.696,-1.06,7.0,1.06,-1.696,0.0,0.0
1738224830623264789,0,0,0,0,0,0,0,0,0,-1.435,1.067,7.043,-1.27,-1.023,-0.01172,-0.364,0.04834,-0.01994,-1.582,-1.224,7.0,1.224,-1.582,0.0,0.0
1738224830673260450,0,0,0,0,0,0,0,0,0,-1.48,1.025,7.027,-1.172,-1.047,-0.05078,-0.363,0.0463,-0.01894,-1.582,-1.224,7.0,1.224,-1.582,0.0,0.0
1738224830723278045,0,0,0,0,0,0,0,0,0,-1.542,0.9653,7.03,-1.078,-1.117,-0.05078,-0.374,0.02533,-0.01188,-1.452,-1.376,7.0,1.376,-1.452,0.0,0.0
1738224830773266792,0,0,0,0,0,0,0,0,0,-1.601,0.8984,7.027,-0.996,-1.172,-0.03906,-0.3757,0.0119,-0.01059,-1.452,-1.376,7.0,1.376,-1.452,0.0,0.0
1738224830823264598,0,0,0,0,0,0,0,0,0,-1.629,0.864,7.027,-0.953,-1.1875,-0.03906,-0.3813,0.002003,-0.00959,-1.308,-1.514,7.0,1.514,-1.308,0.0,0.0
1738224830873265981,0,0,0,0,0,0,0,0,0,-1.679,0.796,7.027,-0.8867,-1.211,-0.04297,-0.3882,-0.00512,-0.00895,-1.308,-1.514,7.0,1.514,-1.308,0.0,0.0
1738224830923268079,0,0,0,0,0,0,0,0,0,-1.721,0.7305,7.023,-0.7695,-1.227,-0.03125,-0.3992,-0.02,-0.005917,-1.149,-1.637,7.0,1.637,-1.149,0.0,0.0
1738224830973269701,0,0,0,0,0,0,0,0,0,-1.763,0.6523,7.023,-0.6484,-1.289,-0.01563,-0.4087,-0.03296,-0.008,-1.149,-1.637,7.0,1.637,-1.149,0.0,0.0
1738224831023263216,0,0,0,0,0,0,0,0,0,-1.784,0.6045,7.02,-0.59,-1.324,-0.01172,-0.4138,-0.0377,-0.007183,-0.9805,-1.743,7.0,1.743,-0.9805,0.0,0.0
1738224831073264837,0,0,0,0,0,0,0,0,0,-1.815,0.5127,7.01,-0.4336,-1.41,-0.003906,-0.4216,-0.0479,-0.00635,-0.9805,-1.743,7.0,1.743,-0.9805,0.0,0.0
1738224831123285293,0,0,0,0,0,0,0,0,0,-1.826,0.473,7.01,-0.375,-1.445,-0.0,-0.4224,-0.0503,-0.006824,-0.802,-1.832,7.0,1.832,-0.802,0.0,0.0
1738224831173260450,0,0,0,0,0,0,0,0,0,-1.847,0.368,7.004,-0.2461,-1.508,-0.0,-0.423,-0.05002,-0.00849,-0.802,-1.832,7.0,1.832,-0.802,0.0,0.0
1738224831223285436,0,0,0,0,0,0,0,0,0,-1.851,0.3223,7.004,-0.1562,-1.539,-0.0,-0.424,-0.0489,-0.01021,-0.6147,-1.903,7.0,1.903,-0.6147,0.0,0.0
1738224831273276567,0,0,0,0,0,0,0,0,0,-1.856,0.2102,7.004,-0.04297,-1.598,-0.007812,-0.4282,-0.0442,-0.009636,-0.6147,-1.903,7.0,1.903,-0.6147,0.0,0.0
1738224831323277235,0,0,0,0,0,0,0,0,0,-1.855,0.1481,7.008,0.01172,-1.621,-0.007812,-0.4263,-0.04437,-0.008255,-0.4216,-1.955,7.0,1.955,-0.4216,0.0,0.0
1738224831373330831,0,0,0,0,0,0,0,0,0,-1.851,0.0478,7.164,0.1094,-1.664,-0.003906,-0.418,-0.0474,-0.00805,-0.4216,-1.955,7.0,1.955,-0.4216,0.0,0.0
1738224831423309087,0,0,0,0,0,0,0,0,0,-1.846,-0.00644,7.17,0.1641,-1.68,-0.0,-0.4136,-0.04834,-0.00807,-0.2244,-1.987,7.0,1.987,-0.2244,0.0,0.0
1738224831473259449,0,0,0,0,0,0,0,0,0,-1.846,-0.00644,7.17,0.1641,-1.68,-0.0,-0.4136,-0.04834,-0.00807,-0.2244,-1.987,7.0,1.987,-0.2244,0.0,0.0
1738224831523270368,0,0,0,0,0,0,0,0,0,-1.846,-0.00644,7.17,0.1641,-1.68,-0.0,-0.4136,-0.04834,-0.00807,-0.02478,-2.0,7.0,2.0,-0.02478,0.0,0.0
1738224831573274850,0,0,0,0,0,0,0,0,0,-1.799,-0.278,7.176,0.3867,-1.723,-0.0,-0.4048,-0.05624,-0.00927,-0.02478,-2.0,7.0,2.0,-0.02478,0.0,0.0
1738224831623281002,0,0,0,0,0,0,0,0,0,-1.778,-0.351,7.168,0.5664,-1.73,-0.007812,-0.3909,-0.04477,-0.01429,0.175,-1.992,7.0,1.992,0.175,0.0,0.0
1738224831673271656,0,0,0,0,0,0,0,0,0,-1.738,-0.4587,7.168,0.668,-1.746,-0.01953,-0.3745,-0.03973,-0.00838,0.175,-1.992,7.0,1.992,0.175,0.0,0.0
1738224831723297357,0,0,0,0,0,0,0,0,0,-1.717,-0.5117,7.168,0.711,-1.742,-0.0781,-0.3726,-0.042,-0.00997,0.373,-1.965,7.0,1.965,0.373,0.0,0.0
1738224831773350954,0,0,0,0,0,0,0,0,0,-1.672,-0.6123,7.16,0.7812,-1.742,-0.1328,-0.378,-0.0432,-0.013374,0.373,-1.965,7.0,1.965,0.373,0.0,0.0
1738224831823311328,0,0,0,0,0,0,0,0,0,-1.623,-0.7104,7.15,0.8945,-1.762,-0.1406,-0.3582,-0.04968,-0.009125,0.5674,-1.918,7.0,1.918,0.5674,0.0,0.0
1738224831873271226,0,0,0,0,0,0,0,0,0,-1.567,-0.8115,7.14,1.023,-1.73,-0.1289,-0.3206,-0.04752,-0.01013,0.5674,-1.918,7.0,1.918,0.5674,0.0,0.0
1738224831923278093,0,0,0,0,0,0,0,0,0,-1.529,-0.8726,7.137,1.074,-1.727,-0.1172,-0.309,-0.046,-0.00964,0.756,-1.852,7.0,1.852,0.756,0.0,0.0
1738224831973261594,0,0,0,0,0,0,0,0,0,-1.449,-0.989,7.125,1.203,-1.707,-0.10156,-0.2712,-0.0448,-0.00769,0.756,-1.852,7.0,1.852,0.756,0.0,0.0
1738224832023270606,0,0,0,0,0,0,0,0,0,-1.405,-1.047,7.12,1.266,-1.691,-0.09766,-0.2588,-0.04315,-0.00903,0.937,-1.767,7.0,1.767,0.937,0.0,0.0
1738224832073259353,0,0,0,0,0,0,0,0,0,-1.32,-1.148,7.117,1.406,-1.641,-0.0664,-0.2285,-0.03427,-0.00958,0.937,-1.767,7.0,1.767,0.937,0.0,0.0
1738224832123281240,0,0,0,0,0,0,0,0,0,-1.262,-1.214,7.11,1.461,-1.617,-0.04688,-0.2145,-0.0321,-0.01079,1.108,-1.664,7.0,1.664,1.108,0.0,0.0
1738224832173265933,0,0,0,0,0,0,0,0,0,-1.163,-1.318,7.105,1.535,-1.578,-0.04297,-0.1813,-0.01407,-0.01049,1.108,-1.664,7.0,1.664,1.108,0.0,0.0
1738224832223266839,0,0,0,0,0,0,0,0,0,-1.096,-1.381,7.1,1.609,-1.504,-0.0547,-0.1774,-0.003185,-0.00964,1.27,-1.546,7.0,1.546,1.27,0.0,0.0
1738224832273241281,0,0,0,0,0,0,0,0,0,-1.005,-1.46,7.098,1.691,-1.426,-0.0586,-0.144,0.00789,-0.007668,1.27,-1.546,7.0,1.546,1.27,0.0,0.0
1738224832323254823,0,0,0,0,0,0,0,0,0,-0.931,-1.52,7.094,1.738,-1.387,-0.04297,-0.1296,0.01383,-0.00934,1.417,-1.411,7.0,1.411,1.417,0.0,0.0
1738224832373246669,0,0,0,0,0,0,0,0,0,-0.821,-1.602,7.09,1.797,-1.297,-0.03125,-0.1022,0.037,-0.01045,1.417,-1.411,7.0,1.411,1.417,0.0,0.0
1738224832423267126,0,0,0,0,0,0,0,0,0,-0.7437,-1.65,7.094,1.84,-1.18,-0.01563,-0.0978,0.0488,-0.01168,1.551,-1.263,7.0,1.263,1.551,0.0,0.0
1738224832473248958,0,0,0,0,0,0,0,0,0,-0.6455,-1.71,7.094,1.875,-1.094,-0.03125,-0.08057,0.0779,-0.01366,1.551,-1.263,7.0,1.263,1.551,0.0,0.0
1738224832523276805,0,0,0,0,0,0,0,0,0,-0.564,-1.756,7.09,1.883,-1.051,-0.02734,-0.0778,0.08923,-0.012276,1.669,-1.102,7.0,1.102,1.669,0.0,0.0
1738224832573263406,0,0,0,0,0,0,0,0,0,-0.4585,-1.8125,7.09,1.875,-0.992,-0.03906,-0.0472,0.0959,-0.01095,1.669,-1.102,7.0,1.102,1.669,0.0,0.0
1738224832623269319,0,0,0,0,0,0,0,0,0,-0.3691,-1.855,7.09,1.859,-0.8867,-0.0586,-0.04694,0.09717,-0.007416,1.771,-0.929,7.0,0.929,1.771,0.0,0.0
1738224832673260211,0,0,0,0,0,0,0,0,0,-0.2954,-1.889,7.086,1.844,-0.84,-0.0586,-0.00877,0.1092,0.002699,1.771,-0.929,7.0,0.929,1.771,0.0,0.0
1738224832723253488,0,0,0,0,0,0,0,0,0,-0.193,-1.932,7.086,1.8125,-0.7383,-0.0703,0.02483,0.11945,0.004173,1.8545,-0.7476,7.0,0.7476,1.8545,0.0,0.0
1738224832773427963,0,0,0,0,0,0,0,0,0,-0.08026,-1.974,7.082,1.789,-0.633,-0.0664,0.04245,0.1142,0.002426,1.8545,-0.7476,7.0,0.7476,1.8545,0.0,0.0
1738224832823264360,0,0,0,0,0,0,0,0,0,-0.014336,-1.994,7.08,1.77,-0.5586,-0.0625,0.04675,0.109,0.003286,1.92,-0.5586,7.0,0.5586,1.92,0.0,0.0
1738224832873247861,0,0,0,0,0,0,0,0,0,0.0849,-2.021,7.074,1.727,-0.4492,-0.03516,0.05597,0.1065,0.0017605,1.92,-0.5586,7.0,0.5586,1.92,0.0,0.0
1738224832923257827,0,0,0,0,0,0,0,0,0,0.1569,-2.037,7.074,1.715,-0.379,-0.03125,0.0617,0.1055,0.001425,1.967,-0.3643,7.0,0.3643,1.967,0.0,0.0
1738224832973246097,0,0,0,0,0,0,0,0,0,0.1569,-2.037,7.074,1.715,-0.379,-0.03125,0.0617,0.1055,0.001425,1.967,-0.3643,7.0,0.3643,1.967,0.0,0.0
