time,x_sphinx,y_sphinx,z_sphinx,vx_sphinx,vy_sphinx,vz_sphinx,roll_sphinx,pitch_sphinx,yaw_sphinx,x_anafi,y_anafi,z_anafi,vx_anafi,vy_anafi,vz_anafi,roll_anafi,pitch_anafi,yaw_anafi,wp_x,wp_y,wp_z,wp_vx,wp_vy,wp_vz,wp_yaw
1738222702375453710,0,0,0,0,0,0,0,0,0,-0.05023,0.5044,6.008,0.03906,-0.04297,-0.03516,-0.2019,0.1808,0.03424,0.0,0.0,6.0,0.0,0.0,0.0,0.0
1738222702425445079,0,0,0,0,0,0,0,0,0,-0.04413,0.4924,6.01,0.03125,-0.10156,-0.01172,-0.1992,0.1859,0.03384,0.0,0.0,6.0,0.0,0.0,0.0,0.0
1738222702475445270,0,0,0,0,0,0,0,0,0,-0.04367,0.4907,6.008,0.02734,-0.1094,-0.01563,-0.1962,0.1859,0.0324,0.0,0.0,6.0,0.0,0.0,0.0,0.0
1738222702525470972,0,0,0,0,0,0,0,0,0,-0.04187,0.4827,5.812,0.02344,-0.1172,-0.003906,-0.1923,0.1844,0.0318,0.0,0.0,6.0,0.0,0.0,0.0,0.0
1738222702575470924,0,0,0,0,0,0,0,0,0,-0.04034,0.4746,5.812,0.02344,-0.125,0.003906,-0.1885,0.1836,0.03174,0.0,0.0,6.0,0.0,0.0,0.0,0.0
1738222702625465631,0,0,0,0,0,0,0,0,0,-0.03976,0.471,5.812,0.01953,-0.1289,0.003906,-0.1876,0.1843,0.0305,0.0,0.0,6.0,0.0,0.0,0.0,0.0
1738222702675456285,0,0,0,0,0,0,0,0,0,-0.03897,0.4653,5.812,0.01953,-0.1367,-0.0,-0.1896,0.184,0.02988,0.0,0.0,6.0,0.0,0.0,0.0,0.0
1738222702725473165,0,0,0,0,0,0,0,0,0,-0.03802,0.4565,5.81,0.01563,-0.1562,0.01172,-0.1927,0.1836,0.03122,0.0,0.0,6.0,0.0,0.0,0.0,0.0
1738222702775479078,0,0,0,0,0,0,0,0,0,-0.03802,0.4565,5.81,0.01563,-0.1562,0.01172,-0.1927,0.1836,0.03122,0.0,0.0,6.0,0.0,0.0,0.0,0.0
1738222702825459718,0,0,0,0,0,0,0,0,0,-0.03802,0.4565,5.81,0.01563,-0.1562,0.01172,-0.1927,0.1836,0.03122,0.0,0.0,6.0,0.0,0.0,0.0,0.0
1738222702875463962,0,0,0,0,0,0,0,0,0,-0.03665,0.4265,5.82,0.007812,-0.1953,0.0703,-0.1825,0.18,0.0332,0.0,0.0,6.0,0.0,0.0,0.0,0.0
1738222702925488233,0,0,0,0,0,0,0,0,0,-0.03625,0.4194,5.832,0.01172,-0.2148,0.125,-0.1716,0.1787,0.03503,0.0,0.0,6.0,0.0,0.0,0.0,0.0
1738222702975494146,0,0,0,0,0,0,0,0,0,-0.0357,0.4106,5.85,0.01172,-0.2227,0.1328,-0.1685,0.1794,0.03412,0.0,0.0,6.0,0.0,0.0,0.0,0.0
1738222703025458574,0,0,0,0,0,0,0,0,0,-0.03445,0.3962,5.867,0.01953,-0.2266,0.1172,-0.1681,0.1877,0.03152,0.0,0.0,6.0,0.0,0.0,0.0,0.0
1738222703075448989,0,0,0,0,0,0,0,0,0,-0.03378,0.3887,5.875,0.01953,-0.2266,0.10547,-0.17,0.1909,0.0307,0.0,0.0,6.0,0.0,0.0,0.0,0.0
1738222703125491142,0,0,0,0,0,0,0,0,0,-0.03293,0.3752,5.883,0.01172,-0.2188,0.09375,-0.1688,0.1958,0.02942,0.0,0.0,6.0,0.0,0.0,0.0,0.0
1738222703175464391,0,0,0,0,0,0,0,0,0,-0.03265,0.3672,5.89,0.007812,-0.2148,0.09375,-0.1637,0.1957,0.03017,0.0,0.0,6.0,0.0,0.0,0.0,0.0
1738222703225457668,0,0,0,0,0,0,0,0,0,-0.03238,0.3523,5.855,0.003906,-0.2031,0.09375,-0.1532,0.1913,0.0314,0.0,0.0,6.0,0.0,0.0,0.0,0.0
1738222703275447845,0,0,0,0,0,0,0,0,0,-0.03238,0.3455,5.86,0.0,-0.1992,0.1367,-0.1477,0.1884,0.03226,0.0,0.0,6.0,0.0,0.0,0.0,0.0
1738222703325479984,0,0,0,0,0,0,0,0,0,-0.03247,0.3337,5.844,-0.003906,-0.1719,0.2227,-0.1307,0.1818,0.03464,0.0,0.0,6.0,0.0,0.0,0.0,0.0
1738222703375456571,0,0,0,0,0,0,0,0,0,-0.03247,0.3293,5.84,0.0,-0.1484,0.2461,-0.1225,0.1803,0.03424,0.0,0.0,6.0,0.0,0.0,0.0,0.0
1738222703425513744,0,0,0,0,0,0,0,0,0,-0.03308,0.3215,5.855,-0.01172,-0.10547,0.289,-0.11633,0.1855,0.0325,0.0,0.0,6.0,0.0,0.0,0.0,0.0
1738222703475472688,0,0,0,0,0,0,0,0,0,-0.03403,0.3184,5.867,-0.02344,-0.08203,0.3398,-0.117,0.1896,0.03186,0.0,0.0,6.0,0.0,0.0,0.0,0.0
1738222703525470256,0,0,0,0,0,0,0,0,0,-0.03616,0.315,5.89,-0.03125,-0.03906,0.3633,-0.1202,0.1904,0.0319,0.0,0.0,6.0,0.0,0.0,0.0,0.0
1738222703575455188,0,0,0,0,0,0,0,0,0,-0.03702,0.315,5.906,-0.03516,0.0,0.3594,-0.1272,0.1919,0.03076,0.0,0.0,6.0,0.0,0.0,0.0,0.0
1738222703625459194,0,0,0,0,0,0,0,0,0,-0.03702,0.315,5.906,-0.03516,0.0,0.3594,-0.1272,0.1919,0.03076,0.0,0.0,6.0,0.0,0.0,0.0,0.0
1738222703675451040,0,0,0,0,0,0,0,0,0,-0.0418,0.3171,5.918,-0.03906,0.01953,0.3438,-0.1378,0.1945,0.0297,0.0,0.0,6.0,0.0,0.0,0.0,0.0
1738222703725450277,0,0,0,0,0,0,0,0,0,-0.04428,0.3193,5.95,-0.0586,0.05078,0.2812,-0.1582,0.2015,0.02866,0.0,0.0,6.0,0.0,0.0,0.0,0.0
1738222703775421380,0,0,0,0,0,0,0,0,0,-0.04602,0.3213,5.965,-0.0586,0.0625,0.2461,-0.1758,0.1941,0.03038,0.0,0.0,6.0,0.0,0.0,0.0,0.0
1738222703825464010,0,0,0,0,0,0,0,0,0,-0.04938,0.325,5.98,-0.0586,0.0664,0.2031,-0.1814,0.1858,0.03033,0.0,0.0,6.0,0.0,0.0,0.0,0.0
1738222703875454664,0,0,0,0,0,0,0,0,0,-0.04938,0.325,5.98,-0.0586,0.0664,0.2031,-0.1814,0.1858,0.03033,0.0,0.0,6.0,0.0,0.0,0.0,0.0
1738222703925455331,0,0,0,0,0,0,0,0,0,-0.0555,0.3328,5.99,-0.0547,0.0703,0.1758,-0.1832,0.184,0.03058,0.0,0.0,6.0,0.0,0.0,0.0,0.0
1738222703975506782,0,0,0,0,0,0,0,0,0,-0.05768,0.3357,6.0,-0.05078,0.0781,0.1289,-0.1852,0.1825,0.03015,0.0,0.0,6.0,0.0,0.0,0.0,0.0
1738222704025501728,0,0,0,0,0,0,0,0,0,-0.0606,0.3398,6.01,-0.0586,0.0742,0.0664,-0.19,0.177,0.02975,0.0,0.0,6.0,0.0,0.0,0.0,0.0
1738222704075516462,0,0,0,0,0,0,0,0,0,-0.0625,0.3423,6.016,-0.0586,0.0781,0.03516,-0.1915,0.1761,0.02959,0.0,0.0,6.0,0.0,0.0,0.0,0.0
1738222704125475168,0,0,0,0,0,0,0,0,0,-0.06573,0.347,6.016,-0.0547,0.08203,-0.007812,-0.2004,0.1714,0.03235,0.0,0.0,6.0,0.0,0.0,0.0,0.0
1738222704175450086,0,0,0,0,0,0,0,0,0,-0.0675,0.3503,6.016,-0.03906,0.0781,-0.02734,-0.2009,0.1682,0.03348,0.0,0.0,6.0,0.0,0.0,0.0,0.0
1738222704225452661,0,0,0,0,0,0,0,0,0,-0.0695,0.3545,6.01,-0.03125,0.0625,-0.02734,-0.1941,0.1611,0.03497,0.0,0.0,6.0,0.0,0.0,0.0,0.0
1738222704275472402,0,0,0,0,0,0,0,0,0,-0.0703,0.3562,6.01,-0.02344,0.05078,-0.01563,-0.1879,0.1578,0.03577,0.0,0.0,6.0,0.0,0.0,0.0,0.0
1738222704325453519,0,0,0,0,0,0,0,0,0,-0.0703,0.3562,6.01,-0.02344,0.05078,-0.01563,-0.1879,0.1578,0.03577,0.0,0.0,6.0,0.0,0.0,0.0,0.0
1738222704375443220,0,0,0,0,0,0,0,0,0,-0.0723,0.3628,6.016,-0.01563,0.05078,-0.003906,-0.1807,0.1558,0.03577,0.0,0.0,6.0,0.0,0.0,0.0,0.0
1738222704425495147,0,0,0,0,0,0,0,0,0,-0.0722,0.3643,6.02,0.007812,0.03906,0.01563,-0.1754,0.1531,0.0337,0.0,0.0,6.0,0.0,0.0,0.0,0.0
1738222704475454092,0,0,0,0,0,0,0,0,0,-0.07153,0.3655,6.023,0.02344,0.03516,-0.0,-0.1779,0.1575,0.03192,0.0,0.0,6.0,0.0,0.0,0.0,0.0
1738222704525437593,0,0,0,0,0,0,0,0,0,-0.06976,0.3674,6.023,0.03125,0.02734,-0.007812,-0.1879,0.1621,0.03119,0.0,0.0,6.0,0.0,0.0,0.0,0.0
1738222704575465917,0,0,0,0,0,0,0,0,0,-0.0684,0.3682,6.027,0.03906,0.01563,-0.007812,-0.1901,0.1648,0.03102,0.0,0.0,6.0,0.0,0.0,0.0,0.0
1738222704625437498,0,0,0,0,0,0,0,0,0,-0.06555,0.3687,6.027,0.04297,0.007812,-0.01172,-0.1862,0.167,0.03137,0.0,0.0,6.0,0.0,0.0,0.0,0.0
1738222704675444841,0,0,0,0,0,0,0,0,0,-0.06384,0.369,6.027,0.04688,0.003906,-0.007812,-0.1827,0.1666,0.03096,0.0,0.0,6.0,0.0,0.0,0.0,0.0
1738222704725448846,0,0,0,0,0,0,0,0,0,-0.06384,0.369,6.027,0.04688,0.003906,-0.007812,-0.1827,0.1666,0.03096,0.0,0.0,6.0,0.0,0.0,0.0,0.0
1738222704775479316,0,0,0,0,0,0,0,0,0,-0.06384,0.369,6.027,0.04688,0.003906,-0.007812,-0.1827,0.1666,0.03096,0.0,0.0,6.0,0.0,0.0,0.0,0.0
1738222704825468778,0,0,0,0,0,0,0,0,0,-0.05634,0.369,6.027,0.04688,0.0,-0.007812,-0.1819,0.1661,0.03046,0.0,0.0,6.0,0.0,0.0,0.0,0.0
1738222704875453710,0,0,0,0,0,0,0,0,0,-0.0547,0.368,6.027,0.03906,-0.03516,-0.007812,-0.1846,0.1665,0.03107,0.0,0.0,6.0,0.0,0.0,0.0,0.0
1738222704925452709,0,0,0,0,0,0,0,0,0,-0.052,0.365,6.027,0.0547,-0.0664,-0.01563,-0.1908,0.1631,0.03568,0.0,0.0,6.0,0.0,0.0,0.0,0.0
1738222704975437402,0,0,0,0,0,0,0,0,0,-0.04935,0.3608,6.027,0.0586,-0.09766,-0.03125,-0.1886,0.1655,0.03476,0.0,0.0,6.0,0.0,0.0,0.0,0.0
1738222705025453090,0,0,0,0,0,0,0,0,0,-0.0452,0.354,6.027,0.0703,-0.1211,-0.04297,-0.1805,0.1707,0.03336,0.0,0.0,6.0,0.0,0.0,0.0,0.0
1738222705075447320,0,0,0,0,0,0,0,0,0,-0.04294,0.3496,6.027,0.0664,-0.1289,-0.04297,-0.1766,0.1729,0.03226,0.0,0.0,6.0,0.0,0.0,0.0,0.0
1738222705125453472,0,0,0,0,0,0,0,0,0,-0.03824,0.339,6.03,0.0586,-0.1367,-0.03516,-0.162,0.1747,0.03041,0.0,0.0,6.0,0.0,0.0,0.0,0.0
1738222705175457477,0,0,0,0,0,0,0,0,0,-0.03647,0.3347,6.03,0.0586,-0.1484,-0.03125,-0.1573,0.1737,0.03065,0.0,0.0,6.0,0.0,0.0,0.0,0.0
1738222705225455522,0,0,0,0,0,0,0,0,0,-0.03333,0.3262,6.03,0.0547,-0.1406,-0.04688,-0.1514,0.1735,0.02898,0.0,0.0,6.0,0.0,0.0,0.0,0.0
1738222705275440692,0,0,0,0,0,0,0,0,0,-0.03128,0.321,6.027,0.0547,-0.1367,-0.0625,-0.1522,0.1743,0.02821,0.0,0.0,6.0,0.0,0.0,0.0,0.0
1738222705325458765,0,0,0,0,0,0,0,0,0,-0.02745,0.3103,6.02,0.04688,-0.1367,-0.0703,-0.1598,0.1772,0.02905,0.0,0.0,6.0,0.0,0.0,0.0,0.0
1738222705375449657,0,0,0,0,0,0,0,0,0,-0.02637,0.3066,6.02,0.04297,-0.1445,-0.0664,-0.1595,0.1765,0.03073,0.0,0.0,6.0,0.0,0.0,0.0,0.0
1738222705425473690,0,0,0,0,0,0,0,0,0,-0.02391,0.2983,6.016,0.03906,-0.1406,-0.0664,-0.151,0.1732,0.0311,0.0,0.0,6.0,0.0,0.0,0.0,0.0
1738222705475455045,0,0,0,0,0,0,0,0,0,-0.02289,0.2937,6.016,0.03125,-0.1367,-0.0586,-0.1443,0.1726,0.03062,0.0,0.0,6.0,0.0,0.0,0.0,0.0
1738222705525470733,0,0,0,0,0,0,0,0,0,-0.0207,0.2854,6.02,0.03516,-0.1172,-0.03516,-0.1312,0.1714,0.0296,0.0,0.0,6.0,0.0,0.0,0.0,0.0
1738222705575455188,0,0,0,0,0,0,0,0,0,-0.01917,0.281,6.027,0.03906,-0.1133,-0.01953,-0.1255,0.1672,0.0312,0.0,0.0,6.0,0.0,0.0,0.0,0.0
1738222705625471830,0,0,0,0,0,0,0,0,0,-0.01917,0.281,6.027,0.03906,-0.1133,-0.01953,-0.1255,0.1672,0.0312,0.0,0.0,6.0,0.0,0.0,0.0,0.0
1738222705675459861,0,0,0,0,0,0,0,0,0,-0.01364,0.2678,6.027,0.04688,-0.09766,-0.03906,-0.1355,0.1628,0.03238,0.0,0.0,6.0,0.0,0.0,0.0,0.0
1738222705725466966,0,0,0,0,0,0,0,0,0,-0.01177,0.2642,6.027,0.03906,-0.0742,-0.0586,-0.1418,0.1743,0.02899,0.0,0.0,6.0,0.0,0.0,0.0,0.0
1738222705775461673,0,0,0,0,0,0,0,0,0,-0.01047,0.2625,6.03,0.04688,-0.0664,-0.0547,-0.1378,0.1757,0.02948,0.0,0.0,6.0,0.0,0.0,0.0,0.0
1738222705825461864,0,0,0,0,0,0,0,0,0,-0.00811,0.2593,6.027,0.03516,-0.04688,-0.0703,-0.1351,0.1774,0.02838,0.0,0.0,6.0,0.0,0.0,0.0,0.0
1738222705875453233,0,0,0,0,0,0,0,0,0,-0.007088,0.2578,6.027,0.03125,-0.04297,-0.0664,-0.1354,0.1763,0.02856,0.0,0.0,6.0,0.0,0.0,0.0,0.0
1738222705925475835,0,0,0,0,0,0,0,0,0,-0.005196,0.2556,6.023,0.02734,-0.02734,-0.0586,-0.1337,0.173,0.03027,0.0,0.0,6.0,0.0,0.0,0.0,0.0
1738222705975445747,0,0,0,0,0,0,0,0,0,-0.004276,0.255,6.023,0.02734,-0.01953,-0.0547,-0.1339,0.1718,0.02995,0.0,0.0,6.0,0.0,0.0,0.0,0.0
1738222706025456905,0,0,0,0,0,0,0,0,0,-0.002743,0.2544,6.027,0.02344,-0.003906,-0.04297,-0.1335,0.1674,0.03162,0.0,0.0,6.0,0.0,0.0,0.0,0.0
1738222706075448036,0,0,0,0,0,0,0,0,0,-0.001911,0.2544,6.027,0.02344,0.0,-0.04297,-0.1355,0.1664,0.03253,0.0,0.0,6.0,0.0,0.0,0.0,0.0
1738222706125464677,0,0,0,0,0,0,0,0,0,-0.0002109,0.2546,6.027,0.02734,0.01172,-0.04688,-0.1394,0.1678,0.03062,0.0,0.0,6.0,0.0,0.0,0.0,0.0
1738222706175452947,0,0,0,0,0,0,0,0,0,0.0002059,0.2559,6.023,0.01172,0.03125,-0.03906,-0.1393,0.1688,0.02934,0.0,0.0,6.0,0.0,0.0,0.0,0.0
1738222706225454807,0,0,0,0,0,0,0,0,0,0.000604,0.2588,6.02,0.003906,0.04688,-0.03516,-0.1388,0.1719,0.02905,0.0,0.0,6.0,0.0,0.0,0.0,0.0
1738222706275450944,0,0,0,0,0,0,0,0,0,0.000604,0.2605,6.01,0.0,0.05078,-0.03125,-0.1432,0.1716,0.02956,0.0,0.0,6.0,0.0,0.0,0.0,0.0
1738222706325445413,0,0,0,0,0,0,0,0,0,0.000604,0.264,6.008,0.0,0.05078,-0.01563,-0.1544,0.1678,0.03317,0.0,0.0,6.0,0.0,0.0,0.0,0.0
1738222706375450134,0,0,0,0,0,0,0,0,0,0.0004728,0.2656,6.008,-0.003906,0.05078,-0.003906,-0.1545,0.1677,0.0349,0.0,0.0,6.0,0.0,0.0,0.0,0.0
1738222706425437927,0,0,0,0,0,0,0,0,0,0.0001342,0.2683,6.01,-0.007812,0.03906,-0.0,-0.1592,0.1678,0.03452,0.0,0.0,6.0,0.0,0.0,0.0,0.0
1738222706475446224,0,0,0,0,0,0,0,0,0,-0.0001647,0.2695,6.01,-0.007812,0.03516,-0.003906,-0.1631,0.1685,0.03366,0.0,0.0,6.0,0.0,0.0,0.0,0.0
1738222706525447368,0,0,0,0,0,0,0,0,0,-0.0009484,0.2712,6.008,-0.01563,0.02734,-0.007812,-0.1642,0.169,0.03326,0.0,0.0,6.0,0.0,0.0,0.0,0.0
1738222706575449228,0,0,0,0,0,0,0,0,0,-0.002182,0.2725,6.008,-0.02734,0.02344,-0.007812,-0.1646,0.1692,0.03174,0.0,0.0,6.0,0.0,0.0,0.0,0.0
1738222706625469207,0,0,0,0,0,0,0,0,0,-0.004112,0.2734,6.004,-0.03906,0.01953,-0.003906,-0.1616,0.1707,0.03052,0.0,0.0,6.0,0.0,0.0,0.0,0.0
1738222706675455331,0,0,0,0,0,0,0,0,0,-0.006245,0.2747,6.004,-0.04688,0.02344,-0.0,-0.1567,0.1702,0.03085,0.0,0.0,6.0,0.0,0.0,0.0,0.0
1738222706725465297,0,0,0,0,0,0,0,0,0,-0.00932,0.276,6.004,-0.0586,0.02344,-0.0,-0.1538,0.1669,0.03098,0.0,0.0,6.0,0.0,0.0,0.0,0.0
1738222706775451660,0,0,0,0,0,0,0,0,0,-0.01205,0.277,6.004,-0.0625,0.02734,-0.0,-0.1544,0.1655,0.03128,0.0,0.0,6.0,0.0,0.0,0.0,0.0
1738222706825471162,0,0,0,0,0,0,0,0,0,-0.01564,0.2788,6.0,-0.0664,0.03516,0.01953,-0.1477,0.1636,0.03146,0.0,0.0,6.0,0.0,0.0,0.0,0.0
1738222706875456094,0,0,0,0,0,0,0,0,0,-0.01862,0.2805,6.0,-0.0703,0.03906,0.03125,-0.1462,0.1609,0.0308,0.0,0.0,6.0,0.0,0.0,0.0,0.0
1738222706925461053,0,0,0,0,0,0,0,0,0,-0.0211,0.282,6.14,-0.0703,0.04297,0.03906,-0.1464,0.158,0.03062,0.0,0.0,6.0,0.0,0.0,0.0,0.0
1738222706975452899,0,0,0,0,0,0,0,0,0,-0.0211,0.282,6.14,-0.0703,0.04297,0.03906,-0.1464,0.158,0.03062,0.0,0.0,6.0,0.0,0.0,0.0,0.0
1738222707025462627,0,0,0,0,0,0,0,0,0,-0.03094,0.2886,6.15,-0.08203,0.05078,0.03516,-0.1527,0.1553,0.0313,0.0,0.0,6.0,0.0,0.0,0.0,0.0
1738222707075453281,0,0,0,0,0,0,0,0,0,-0.03317,0.2898,6.16,-0.08594,0.04688,0.01953,-0.1652,0.1559,0.03094,0.0,0.0,6.0,0.0,0.0,0.0,0.0
1738222707125480413,0,0,0,0,0,0,0,0,0,-0.03848,0.2925,6.16,-0.08594,0.04297,0.01172,-0.1686,0.1521,0.03111,0.0,0.0,6.0,0.0,0.0,0.0,0.0
1738222707175468206,0,0,0,0,0,0,0,0,0,-0.04153,0.294,6.16,-0.08594,0.03906,0.007812,-0.1703,0.1483,0.0318,0.0,0.0,6.0,0.0,0.0,0.0,0.0
1738222707225467443,0,0,0,0,0,0,0,0,0,-0.0467,0.2964,6.176,-0.08203,0.04688,-0.03125,-0.172,0.1443,0.03102,0.0,0.0,6.0,0.0,0.0,0.0,0.0
1738222707275451421,0,0,0,0,0,0,0,0,0,-0.04956,0.298,6.188,-0.0781,0.04688,-0.09375,-0.1765,0.1442,0.0296,0.0,0.0,6.0,0.0,0.0,0.0,0.0
1738222707325465202,0,0,0,0,0,0,0,0,0,-0.05496,0.3003,6.176,-0.08203,0.02344,-0.1406,-0.1925,0.1486,0.02782,0.0,0.0,6.0,0.0,0.0,0.0,0.0
1738222707375451326,0,0,0,0,0,0,0,0,0,-0.0574,0.3008,6.168,-0.0781,0.01953,-0.1406,-0.187,0.1445,0.03069,0.0,0.0,6.0,0.0,0.0,0.0,0.0
1738222707425456285,0,0,0,0,0,0,0,0,0,-0.06238,0.3015,6.16,-0.0703,0.003906,-0.1523,-0.1702,0.132,0.0328,0.0,0.0,6.0,0.0,0.0,0.0,0.0
1738222707475448369,0,0,0,0,0,0,0,0,0,-0.0644,0.3015,6.156,-0.0625,0.0,-0.1602,-0.1688,0.1256,0.03244,0.0,0.0,6.0,0.0,0.0,0.0,0.0
1738222707525463819,0,0,0,0,0,0,0,0,0,-0.0679,0.3003,6.145,-0.04297,-0.01953,-0.1758,-0.169,0.11865,0.03473,0.0,0.0,6.0,0.0,0.0,0.0,0.0
1738222707575458288,0,0,0,0,0,0,0,0,0,-0.06903,0.2996,6.15,-0.03516,-0.02344,-0.1758,-0.1671,0.1174,0.03543,0.0,0.0,6.0,0.0,0.0,0.0,0.0
1738222707625452518,0,0,0,0,0,0,0,0,0,-0.07043,0.2979,6.15,-0.01953,-0.02734,-0.1797,-0.1624,0.1164,0.03433,0.0,0.0,6.0,0.0,0.0,0.0,0.0
1738222707675449371,0,0,0,0,0,0,0,0,0,-0.07074,0.2964,6.14,-0.007812,-0.03516,-0.1797,-0.16,0.11664,0.03455,0.0,0.0,6.0,0.0,0.0,0.0,0.0
1738222707725453615,0,0,0,0,0,0,0,0,0,-0.07043,0.2942,6.125,0.01563,-0.03906,-0.1836,-0.1555,0.1194,0.03485,0.0,0.0,6.0,0.0,0.0,0.0,0.0
1738222707775441884,0,0,0,0,0,0,0,0,0,-0.0695,0.2925,6.13,0.02344,-0.04297,-0.1836,-0.156,0.1202,0.0344,0.0,0.0,6.0,0.0,0.0,0.0,0.0
1738222707825453042,0,0,0,0,0,0,0,0,0,-0.0671,0.29,6.125,0.04297,-0.04297,-0.1758,-0.1587,0.1223,0.0337,0.0,0.0,6.0,0.0,0.0,0.0,0.0
1738222707875438690,0,0,0,0,0,0,0,0,0,-0.06537,0.2883,6.117,0.05078,-0.04688,-0.1797,-0.1559,0.125,0.0322,0.0,0.0,6.0,0.0,0.0,0.0,0.0
1738222707925454854,0,0,0,0,0,0,0,0,0,-0.0618,0.2856,6.117,0.0547,-0.04297,-0.1836,-0.1565,0.1316,0.0309,0.0,0.0,6.0,0.0,0.0,0.0,0.0
1738222707975437879,0,0,0,0,0,0,0,0,0,-0.0597,0.284,6.11,0.0586,-0.04297,-0.1914,-0.159,0.1323,0.03105,0.0,0.0,6.0,0.0,0.0,0.0,0.0
1738222708025454521,0,0,0,0,0,0,0,0,0,-0.0597,0.284,6.11,0.0586,-0.04297,-0.1914,-0.159,0.1323,0.03105,0.0,0.0,6.0,0.0,0.0,0.0,0.0
1738222708075439929,0,0,0,0,0,0,0,0,0,-0.0597,0.284,6.11,0.0586,-0.04297,-0.1914,-0.159,0.1323,0.03105,0.0,0.0,6.0,0.0,0.0,0.0,0.0
1738222708125465631,0,0,0,0,0,0,0,0,0,-0.04752,0.2769,6.09,0.08203,-0.03906,-0.1914,-0.1602,0.1348,0.03226,0.0,0.0,6.0,0.0,0.0,0.0,0.0
1738222708175434350,0,0,0,0,0,0,0,0,0,-0.0431,0.2754,6.07,0.09375,-0.01953,-0.1602,-0.1506,0.1426,0.03033,0.0,0.0,6.0,0.0,0.0,0.0,0.0
1738222708225434303,0,0,0,0,0,0,0,0,0,-0.03815,0.2744,6.06,0.09766,-0.01953,-0.1367,-0.1516,0.1426,0.03238,0.0,0.0,6.0,0.0,0.0,0.0,0.0
1738222708275438308,0,0,0,0,0,0,0,0,0,-0.0344,0.2737,6.055,0.10156,-0.02344,-0.125,-0.1537,0.1438,0.03348,0.0,0.0,6.0,0.0,0.0,0.0,0.0
1738222708325438499,0,0,0,0,0,0,0,0,0,-0.02719,0.272,6.047,0.09766,-0.02344,-0.1133,-0.1562,0.1469,0.03342,0.0,0.0,6.0,0.0,0.0,0.0,0.0
1738222708375421762,0,0,0,0,0,0,0,0,0,-0.02531,0.2715,6.043,0.08984,-0.01563,-0.1094,-0.1577,0.15,0.03244,0.0,0.0,6.0,0.0,0.0,0.0,0.0
1738222708425428390,0,0,0,0,0,0,0,0,0,-0.01991,0.271,6.035,0.0742,-0.003906,-0.08594,-0.1547,0.1578,0.02975,0.0,0.0,6.0,0.0,0.0,0.0,0.0
1738222708475439071,0,0,0,0,0,0,0,0,0,-0.01651,0.271,6.03,0.0703,0.0,-0.0703,-0.1527,0.1602,0.02998,0.0,0.0,6.0,0.0,0.0,0.0,0.0
1738222708525456428,0,0,0,0,0,0,0,0,0,-0.0139,0.271,6.027,0.0625,0.0,-0.0586,-0.1531,0.1605,0.03029,0.0,0.0,6.0,0.0,0.0,0.0,0.0
1738222708575435876,0,0,0,0,0,0,0,0,0,-0.01142,0.2715,6.023,0.04688,0.01563,-0.03906,-0.1588,0.1622,0.03128,0.0,0.0,6.0,0.0,0.0,0.0,0.0
1738222708625454664,0,0,0,0,0,0,0,0,0,-0.00924,0.2725,6.023,0.04297,0.01953,-0.03516,-0.1617,0.1621,0.0324,0.0,0.0,6.0,0.0,0.0,0.0,0.0
1738222708675441265,0,0,0,0,0,0,0,0,0,-0.007065,0.2737,6.023,0.03516,0.01953,-0.03125,-0.1697,0.161,0.03214,0.0,0.0,6.0,0.0,0.0,0.0,0.0
1738222708725447654,0,0,0,0,0,0,0,0,0,-0.00516,0.275,6.02,0.02734,0.01953,-0.02344,-0.1777,0.1603,0.0318,0.0,0.0,6.0,0.0,0.0,0.0,0.0
1738222708775438785,0,0,0,0,0,0,0,0,0,-0.00444,0.2756,6.02,0.02734,0.02734,-0.01953,-0.179,0.1583,0.03235,0.0,0.0,6.0,0.0,0.0,0.0,0.0
1738222708825458765,0,0,0,0,0,0,0,0,0,-0.003138,0.277,6.02,0.02734,0.02734,-0.01563,-0.1804,0.1558,0.033,0.0,0.0,6.0,0.0,0.0,0.0,0.0
1738222708875448465,0,0,0,0,0,0,0,0,0,-0.001745,0.2786,6.02,0.02344,0.02734,-0.007812,-0.1838,0.1567,0.0331,0.0,0.0,6.0,0.0,0.0,0.0,0.0
1738222708925434350,0,0,0,0,0,0,0,0,0,-0.000317,0.2803,6.016,0.01953,0.02734,-0.01172,-0.1864,0.1606,0.03293,0.0,0.0,6.0,0.0,0.0,0.0,0.0
1738222708975440502,0,0,0,0,0,0,0,0,0,0.0003214,0.2812,6.016,0.01953,0.02734,-0.01172,-0.1864,0.1619,0.03244,0.0,0.0,6.0,0.0,0.0,0.0,0.0
1738222709025441646,0,0,0,0,0,0,0,0,0,0.0003214,0.2812,6.016,0.01953,0.02734,-0.01172,-0.1864,0.1619,0.03244,0.0,0.0,6.0,0.0,0.0,0.0,0.0
1738222709075438737,0,0,0,0,0,0,0,0,0,0.00306,0.285,6.016,0.02344,0.03125,-0.01563,-0.1869,0.162,0.03238,0.0,0.0,6.0,0.0,0.0,0.0,0.0
1738222709125456333,0,0,0,0,0,0,0,0,0,0.003662,0.2854,6.01,0.007812,0.007812,-0.02344,-0.1947,0.1637,0.03235,0.0,0.0,6.0,0.0,0.0,0.0,0.0
1738222709175442695,0,0,0,0,0,0,0,0,0,0.003471,0.2852,6.008,-0.007812,-0.01172,-0.01953,-0.1925,0.1647,0.03378,0.0,0.0,6.0,0.0,0.0,0.0,0.0
1738222709225474596,0,0,0,0,0,0,0,0,0,0.00257,0.2842,6.008,-0.02344,-0.02734,-0.007812,-0.1888,0.1615,0.0313,0.0,0.0,6.0,0.0,0.0,0.0,0.0
1738222709275456190,0,0,0,0,0,0,0,0,0,0.001526,0.283,6.008,-0.02734,-0.03125,-0.0,-0.1866,0.1594,0.03117,0.0,0.0,6.0,0.0,0.0,0.0,0.0
1738222709325467109,0,0,0,0,0,0,0,0,0,-0.000579,0.2803,6.008,-0.03125,-0.04297,0.01563,-0.1847,0.1528,0.03305,0.0,0.0,6.0,0.0,0.0,0.0,0.0
1738222709375436305,0,0,0,0,0,0,0,0,0,-0.001908,0.2786,6.008,-0.04297,-0.0547,0.01953,-0.185,0.1504,0.033,3.0,2.0,11.0,0.0,0.0,0.0,0.0
1738222709425463914,0,0,0,0,0,0,0,0,0,-0.001908,0.2786,6.008,-0.04297,-0.0547,0.01953,-0.185,0.1504,0.033,3.0,2.0,11.0,0.0,0.0,0.0,0.0
1738222709475474119,0,0,0,0,0,0,0,0,0,-0.001908,0.2786,6.008,-0.04297,-0.0547,0.01953,-0.185,0.1504,0.033,3.0,2.0,11.0,0.0,0.0,0.0,0.0
1738222709525460958,0,0,0,0,0,0,0,0,0,-0.00844,0.269,6.008,-0.04297,-0.0625,0.02734,-0.185,0.1484,0.0328,3.0,2.0,11.0,0.0,0.0,0.0,0.0
1738222709575443506,0,0,0,0,0,0,0,0,0,-0.01133,0.2637,6.055,-0.04297,-0.09375,0.617,-0.1504,0.1189,0.03137,3.0,2.0,11.0,0.0,0.0,0.0,0.0
1738222709625456094,0,0,0,0,0,0,0,0,0,-0.011635,0.262,6.082,-0.01172,-0.0625,0.801,-0.10645,0.07715,0.02965,3.0,2.0,11.0,0.0,0.0,0.0,0.0
1738222709675462484,0,0,0,0,0,0,0,0,0,-0.007504,0.26,6.117,0.04297,-0.01953,0.9844,-0.07526,0.03522,0.02702,3.0,2.0,11.0,0.0,0.0,0.0,0.0
1738222709725455284,0,0,0,0,0,0,0,0,0,-0.004143,0.261,6.156,0.1367,0.03516,1.164,-0.04504,-0.02223,0.02113,3.0,2.0,11.0,0.0,0.0,0.0,0.0
1738222709775437593,0,0,0,0,0,0,0,0,0,0.02362,0.274,6.33,0.5703,0.2695,1.637,0.03482,-0.1886,0.01289,3.0,2.0,11.0,0.0,0.0,0.0,0.0
1738222709825474262,0,0,0,0,0,0,0,0,0,0.06635,0.295,6.445,0.8477,0.4219,1.723,0.0488,-0.2395,0.01762,3.0,2.0,11.0,0.0,0.0,0.0,0.0
1738222709875443696,0,0,0,0,0,0,0,0,0,0.10645,0.315,6.504,0.9883,0.4922,1.738,0.03958,-0.2479,0.023,3.0,2.0,11.0,0.0,0.0,0.0,0.0
1738222709925454139,0,0,0,0,0,0,0,0,0,0.1849,0.3542,6.617,1.242,0.621,1.758,0.02713,-0.251,0.0298,3.0,2.0,11.0,0.0,0.0,0.0,0.0
1738222709975443124,0,0,0,0,0,0,0,0,0,0.223,0.3733,6.67,1.355,0.676,1.766,0.02788,-0.2496,0.02985,3.0,2.0,11.0,0.0,0.0,0.0,0.0
1738222710025464296,0,0,0,0,0,0,0,0,0,0.3367,0.4321,6.805,1.645,0.8555,1.781,0.03635,-0.2426,0.02878,3.0,2.0,11.0,0.0,0.0,0.0,0.0
1738222710075446844,0,0,0,0,0,0,0,0,0,0.3838,0.4568,6.86,1.738,0.914,1.789,0.0369,-0.2305,0.02843,3.0,2.0,11.0,0.0,0.0,0.0,0.0
1738222710125464200,0,0,0,0,0,0,0,0,0,0.5195,0.53,6.99,1.93,1.047,1.801,0.03772,-0.1832,0.02866,3.0,2.0,11.0,0.0,0.0,0.0,0.0
1738222710175446271,0,0,0,0,0,0,0,0,0,0.5796,0.5635,7.047,2.066,1.152,1.809,0.03455,-0.158,0.0279,3.0,2.0,11.0,0.0,0.0,0.0,0.0
1738222710225454092,0,0,0,0,0,0,0,0,0,0.5796,0.5635,7.047,2.066,1.152,1.809,0.03455,-0.158,0.0279,3.0,2.0,11.0,0.0,0.0,0.0,0.0
1738222710275458574,0,0,0,0,0,0,0,0,0,0.5796,0.5635,7.047,2.066,1.152,1.809,0.03455,-0.158,0.0279,3.0,2.0,11.0,0.0,0.0,0.0,0.0
1738222710325437068,0,0,0,0,0,0,0,0,0,0.9463,0.7725,7.17,2.176,1.262,1.824,0.0302,-0.1063,0.02762,3.0,2.0,11.0,0.0,0.0,0.0,0.0
1738222710375465154,0,0,0,0,0,0,0,0,0,1.065,0.8457,7.42,2.352,1.473,1.867,-0.01306,-0.02373,0.03079,3.0,2.0,11.0,0.0,0.0,0.0,0.0
1738222710425515890,0,0,0,0,0,0,0,0,0,1.187,0.923,7.535,2.367,1.523,1.883,-0.038,0.01306,0.03198,3.0,2.0,11.0,0.0,0.0,0.0,0.0
1738222710475459575,0,0,0,0,0,0,0,0,0,1.258,0.9697,7.6,2.375,1.543,1.898,-0.0474,0.02864,0.0334,3.0,2.0,11.0,0.0,0.0,0.0,0.0
1738222710525460004,0,0,0,0,0,0,0,0,0,1.392,1.058,7.71,2.367,1.57,1.926,-0.06216,0.05054,0.03375,3.0,2.0,11.0,0.0,0.0,0.0,0.0
1738222710575449228,0,0,0,0,0,0,0,0,0,1.4795,1.116,7.78,2.371,1.582,1.945,-0.0697,0.0624,0.03412,3.0,2.0,11.0,0.0,0.0,0.0,0.0
1738222710625458955,0,0,0,0,0,0,0,0,0,1.639,1.224,7.914,2.34,1.586,1.961,-0.0923,0.0914,0.03516,3.0,2.0,11.0,0.0,0.0,0.0,0.0
1738222710675440073,0,0,0,0,0,0,0,0,0,1.716,1.276,7.97,2.324,1.582,1.965,-0.10803,0.1085,0.03613,3.0,2.0,11.0,0.0,0.0,0.0,0.0
1738222710725444555,0,0,0,0,0,0,0,0,0,1.892,1.396,8.1,2.266,1.547,1.98,-0.1421,0.1458,0.037,3.0,2.0,11.0,0.0,0.0,0.0,0.0
1738222710775457382,0,0,0,0,0,0,0,0,0,1.941,1.431,8.164,2.21,1.512,1.992,-0.1561,0.1643,0.03714,3.0,2.0,11.0,0.0,0.0,0.0,0.0
1738222710825456380,0,0,0,0,0,0,0,0,0,2.105,1.542,8.305,2.113,1.449,2.004,-0.1792,0.2037,0.03857,3.0,2.0,11.0,0.0,0.0,0.0,0.0
1738222710875454425,0,0,0,0,0,0,0,0,0,2.158,1.579,8.36,2.062,1.418,2.008,-0.1896,0.223,0.03833,3.0,2.0,11.0,0.0,0.0,0.0,0.0
1738222710925453424,0,0,0,0,0,0,0,0,0,2.303,1.679,8.49,1.934,1.324,2.02,-0.2092,0.252,0.0375,3.0,2.0,11.0,0.0,0.0,0.0,0.0
1738222710975435733,0,0,0,0,0,0,0,0,0,2.303,1.679,8.49,1.934,1.324,2.02,-0.2092,0.252,0.0375,3.0,2.0,11.0,0.0,0.0,0.0,0.0
1738222711025456905,0,0,0,0,0,0,0,0,0,2.303,1.679,8.49,1.934,1.324,2.02,-0.2092,0.252,0.0375,3.0,2.0,11.0,0.0,0.0,0.0,0.0
1738222711075441122,0,0,0,0,0,0,0,0,0,2.545,1.844,8.555,1.871,1.281,2.023,-0.2266,0.267,0.03613,3.0,2.0,11.0,0.0,0.0,0.0,0.0
1738222711125455856,0,0,0,0,0,0,0,0,0,2.639,1.909,8.83,1.508,1.043,1.996,-0.2617,0.3174,0.03683,3.0,2.0,11.0,0.0,0.0,0.0,0.0
1738222711175441265,0,0,0,0,0,0,0,0,0,2.703,1.954,8.98,1.246,0.879,1.996,-0.273,0.3306,0.0373,3.0,2.0,11.0,0.0,0.0,0.0,0.0
1738222711225455522,0,0,0,0,0,0,0,0,0,2.762,1.995,9.09,1.086,0.7734,2.0,-0.2727,0.3384,0.03726,3.0,2.0,11.0,0.0,0.0,0.0,0.0
1738222711275440454,0,0,0,0,0,0,0,0,0,2.799,2.021,9.164,0.9883,0.715,2.008,-0.269,0.342,0.03778,3.0,2.0,11.0,0.0,0.0,0.0,0.0
1738222711325443983,0,0,0,0,0,0,0,0,0,2.861,2.068,9.3,0.801,0.6055,2.02,-0.2712,0.3496,0.03622,3.0,2.0,11.0,0.0,0.0,0.0,0.0
1738222711375434398,0,0,0,0,0,0,0,0,0,2.877,2.082,9.375,0.6445,0.5273,2.012,-0.2717,0.3506,0.0362,3.0,2.0,11.0,0.0,0.0,0.0,0.0
1738222711425464153,0,0,0,0,0,0,0,0,0,2.912,2.111,9.51,0.4805,0.4297,1.996,-0.2732,0.3398,0.0356,3.0,2.0,11.0,0.0,0.0,0.0,0.0
1738222711475439310,0,0,0,0,0,0,0,0,0,2.928,2.127,9.58,0.3984,0.3828,1.988,-0.2725,0.332,0.03528,3.0,2.0,11.0,0.0,0.0,0.0,0.0
1738222711525447368,0,0,0,0,0,0,0,0,0,2.947,2.148,9.72,0.2695,0.293,1.914,-0.275,0.305,0.03506,3.0,2.0,11.0,0.0,0.0,0.0,0.0
1738222711575442314,0,0,0,0,0,0,0,0,0,2.953,2.156,9.79,0.2148,0.25,1.871,-0.2795,0.2903,0.03586,3.0,2.0,11.0,0.0,0.0,0.0,0.0
1738222711625457525,0,0,0,0,0,0,0,0,0,2.96,2.164,9.85,0.1641,0.2031,1.828,-0.2815,0.278,0.03705,3.0,2.0,11.0,0.0,0.0,0.0,0.0
1738222711675438404,0,0,0,0,0,0,0,0,0,2.96,2.164,9.85,0.1641,0.2031,1.828,-0.2815,0.278,0.03705,3.0,2.0,11.0,0.0,0.0,0.0,0.0
1738222711725454807,0,0,0,0,0,0,0,0,0,2.96,2.164,9.85,0.1641,0.2031,1.828,-0.2815,0.278,0.03705,3.0,2.0,11.0,0.0,0.0,0.0,0.0
1738222711775437593,0,0,0,0,0,0,0,0,0,2.979,2.193,10.14,0.01172,0.0547,1.523,-0.2737,0.235,0.0396,3.0,2.0,11.0,0.0,0.0,0.0,0.0
1738222711825466156,0,0,0,0,0,0,0,0,0,2.979,2.193,10.25,-0.007812,0.01563,1.414,-0.2423,0.1821,0.03964,3.0,2.0,11.0,0.0,0.0,0.0,0.0
1738222711875445842,0,0,0,0,0,0,0,0,0,2.979,2.193,10.305,-0.01563,0.0,1.324,-0.2373,0.1719,0.0393,3.0,2.0,11.0,0.0,0.0,0.0,0.0
1738222711925440073,0,0,0,0,0,0,0,0,0,2.977,2.193,10.38,-0.01953,-0.01563,1.219,-0.2301,0.1552,0.03848,3.0,2.0,11.0,0.0,0.0,0.0,0.0
1738222711975434303,0,0,0,0,0,0,0,0,0,2.977,2.191,10.43,-0.01563,-0.02734,1.164,-0.224,0.1493,0.0392,3.0,2.0,11.0,0.0,0.0,0.0,0.0
1738222712025455951,0,0,0,0,0,0,0,0,0,2.977,2.191,10.43,-0.01563,-0.02734,1.164,-0.224,0.1493,0.0392,3.0,2.0,11.0,0.0,0.0,0.0,0.0
1738222712075433254,0,0,0,0,0,0,0,0,0,2.977,2.191,10.43,-0.01563,-0.02734,1.164,-0.224,0.1493,0.0392,3.0,2.0,11.0,0.0,0.0,0.0,0.0
1738222712125441312,0,0,0,0,0,0,0,0,0,2.973,2.186,10.59,0.0,-0.0586,0.9414,-0.2036,0.1313,0.0371,3.0,2.0,11.0,0.0,0.0,0.0,0.0
1738222712175446987,0,0,0,0,0,0,0,0,0,2.973,2.184,10.65,0.02344,-0.0625,0.754,-0.191,0.126,0.03595,3.0,2.0,11.0,0.0,0.0,0.0,0.0
1738222712225454807,0,0,0,0,0,0,0,0,0,2.975,2.18,10.7,0.03516,-0.08203,0.66,-0.1865,0.1305,0.03262,3.0,2.0,11.0,0.0,0.0,0.0,0.0
1738222712275454521,0,0,0,0,0,0,0,0,0,2.977,2.176,10.73,0.04297,-0.08594,0.6523,-0.1746,0.1276,0.03412,3.0,2.0,11.0,0.0,0.0,0.0,0.0
1738222712325464010,0,0,0,0,0,0,0,0,0,2.979,2.172,10.75,0.05078,-0.08984,0.6406,-0.1556,0.12225,0.03586,3.0,2.0,11.0,0.0,0.0,0.0,0.0
1738222712375441312,0,0,0,0,0,0,0,0,0,2.984,2.168,10.8,0.0703,-0.0742,0.551,-0.1344,0.1192,0.03387,3.0,2.0,11.0,0.0,0.0,0.0,0.0
1738222712425452947,0,0,0,0,0,0,0,0,0,2.988,2.162,10.836,0.0781,-0.0547,0.4648,-0.1255,0.1265,0.0325,3.0,2.0,11.0,0.0,0.0,0.0,0.0
1738222712475440979,0,0,0,0,0,0,0,0,0,2.99,2.162,10.85,0.0781,-0.05078,0.4219,-0.1252,0.1271,0.03186,3.0,2.0,11.0,0.0,0.0,0.0,0.0
1738222712525460243,0,0,0,0,0,0,0,0,0,2.994,2.16,10.87,0.08203,-0.04688,0.3867,-0.1261,0.1268,0.03192,3.0,2.0,11.0,0.0,0.0,0.0,0.0
1738222712575446128,0,0,0,0,0,0,0,0,0,3.0,2.156,10.89,0.08984,-0.03906,0.3047,-0.1255,0.1279,0.03302,3.0,2.0,11.0,0.0,0.0,0.0,0.0
1738222712625444173,0,0,0,0,0,0,0,0,0,3.006,2.154,10.914,0.09375,-0.02344,0.2266,-0.1237,0.1289,0.03099,3.0,2.0,11.0,0.0,0.0,0.0,0.0
1738222712675449609,0,0,0,0,0,0,0,0,0,3.008,2.154,10.92,0.09375,-0.01563,0.1836,-0.1255,0.1298,0.03082,3.0,2.0,11.0,0.0,0.0,0.0,0.0
1738222712725460052,0,0,0,0,0,0,0,0,0,3.016,2.154,10.93,0.10156,0.0,0.1445,-0.1265,0.1298,0.03406,3.0,2.0,11.0,0.0,0.0,0.0,0.0
1738222712775463104,0,0,0,0,0,0,0,0,0,3.018,2.156,10.945,0.09375,0.03125,0.1367,-0.12103,0.13,0.03452,3.0,2.0,11.0,0.0,0.0,0.0,0.0
1738222712825472116,0,0,0,0,0,0,0,0,0,3.023,2.158,10.95,0.09766,0.05078,0.1133,-0.1134,0.131,0.03275,3.0,2.0,11.0,0.0,0.0,0.0,0.0
1738222712875443220,0,0,0,0,0,0,0,0,0,3.027,2.162,10.96,0.10156,0.0664,0.0664,-0.11755,0.1322,0.02946,3.0,2.0,11.0,0.0,0.0,0.0,0.0
1738222712925460577,0,0,0,0,0,0,0,0,0,3.035,2.166,10.97,0.10156,0.08594,0.02734,-0.125,0.1375,0.03223,3.0,2.0,11.0,0.0,0.0,0.0,0.0
1738222712975451946,0,0,0,0,0,0,0,0,0,3.04,2.17,10.98,0.10156,0.08984,0.01172,-0.1276,0.1393,0.03363,3.0,2.0,11.0,0.0,0.0,0.0,0.0
1738222713025435447,0,0,0,0,0,0,0,0,0,3.047,2.178,10.99,0.1133,0.1133,-0.01563,-0.1301,0.1372,0.03555,3.0,2.0,11.0,0.0,0.0,0.0,0.0
1738222713075447559,0,0,0,0,0,0,0,0,0,3.049,2.18,10.99,0.1133,0.1172,-0.03516,-0.134,0.1357,0.0343,3.0,2.0,11.0,0.0,0.0,0.0,0.0
1738222713125457763,0,0,0,0,0,0,0,0,0,3.057,2.19,10.99,0.1094,0.125,-0.0625,-0.1417,0.1394,0.03403,3.0,2.0,11.0,0.0,0.0,0.0,0.0
1738222713175445318,0,0,0,0,0,0,0,0,0,3.06,2.193,11.0,0.1133,0.1406,-0.0703,-0.1427,0.1442,0.03433,3.0,2.0,11.0,0.0,0.0,0.0,0.0
1738222713225454807,0,0,0,0,0,0,0,0,0,3.064,2.2,11.0,0.1094,0.1445,-0.08984,-0.1427,0.1483,0.0337,3.0,2.0,11.0,0.0,0.0,0.0,0.0
1738222713275451660,0,0,0,0,0,0,0,0,0,3.072,2.209,11.0,0.09375,0.1484,-0.1172,-0.1506,0.1564,0.03043,3.0,2.0,11.0,0.0,0.0,0.0,0.0
1738222713325446605,0,0,0,0,0,0,0,0,0,3.076,2.219,11.0,0.08203,0.1523,-0.1172,-0.1537,0.1622,0.03195,3.0,2.0,11.0,0.0,0.0,0.0,0.0
1738222713375436544,0,0,0,0,0,0,0,0,0,3.08,2.225,11.0,0.0781,0.1484,-0.1211,-0.156,0.1633,0.03204,3.0,2.0,11.0,0.0,0.0,0.0,0.0
1738222713425445079,0,0,0,0,0,0,0,0,0,3.084,2.234,11.0,0.0625,0.1484,-0.1406,-0.1644,0.1638,0.02997,3.0,2.0,11.0,0.0,0.0,0.0,0.0
1738222713475441455,0,0,0,0,0,0,0,0,0,3.086,2.238,11.01,0.0547,0.1445,-0.1484,-0.1697,0.1644,0.03085,3.0,2.0,11.0,0.0,0.0,0.0,0.0
1738222713525445222,0,0,0,0,0,0,0,0,0,3.09,2.248,11.016,0.05078,0.1367,-0.1602,-0.1765,0.1637,0.03256,3.0,2.0,11.0,0.0,0.0,0.0,0.0
1738222713575443267,0,0,0,0,0,0,0,0,0,3.09,2.252,11.016,0.04688,0.1289,-0.168,-0.1781,0.1616,0.03412,3.0,2.0,11.0,0.0,0.0,0.0,0.0
1738222713625462055,0,0,0,0,0,0,0,0,0,3.094,2.26,11.016,0.04297,0.10547,-0.1875,-0.184,0.1593,0.0346,3.0,2.0,11.0,0.0,0.0,0.0,0.0
1738222713675448894,0,0,0,0,0,0,0,0,0,3.096,2.262,11.02,0.03906,0.09375,-0.1953,-0.1852,0.1606,0.03436,3.0,2.0,11.0,0.0,0.0,0.0,0.0
1738222713725461244,0,0,0,0,0,0,0,0,0,3.096,2.268,11.016,0.03516,0.08203,-0.1953,-0.1833,0.1615,0.03494,3.0,2.0,11.0,0.0,0.0,0.0,0.0
1738222713775455474,0,0,0,0,0,0,0,0,0,3.098,2.268,11.02,0.02734,0.0664,-0.1953,-0.1808,0.1616,0.03452,3.0,2.0,11.0,0.0,0.0,0.0,0.0
1738222713825442790,0,0,0,0,0,0,0,0,0,3.098,2.268,11.02,0.02734,0.0664,-0.1953,-0.1808,0.1616,0.03452,3.0,2.0,11.0,0.0,0.0,0.0,0.0
1738222713875446081,0,0,0,0,0,0,0,0,0,3.102,2.275,11.02,0.01953,0.02344,-0.1992,-0.1771,0.1595,0.03375,3.0,2.0,11.0,0.0,0.0,0.0,0.0
1738222713925452470,0,0,0,0,0,0,0,0,0,3.102,2.275,11.02,0.01563,0.01953,-0.1914,-0.1754,0.1605,0.03418,3.0,2.0,11.0,0.0,0.0,0.0,0.0
1738222713975445032,0,0,0,0,0,0,0,0,0,3.102,2.275,11.02,0.01172,0.007812,-0.1875,-0.1714,0.1621,0.03387,3.0,2.0,11.0,0.0,0.0,0.0,0.0
1738222714025444746,0,0,0,0,0,0,0,0,0,3.102,2.275,11.02,0.01172,0.007812,-0.1875,-0.1714,0.1621,0.03387,3.0,2.0,11.0,0.0,0.0,0.0,0.0
1738222714075447082,0,0,0,0,0,0,0,0,0,3.102,2.277,11.016,-0.007812,-0.003906,-0.1562,-0.1678,0.1658,0.03275,3.0,2.0,11.0,0.0,0.0,0.0,0.0
1738222714125449895,0,0,0,0,0,0,0,0,0,3.1,2.275,11.016,-0.03906,-0.03906,-0.1406,-0.1702,0.1659,0.0356,3.0,2.0,11.0,0.0,0.0,0.0,0.0
1738222714175453662,0,0,0,0,0,0,0,0,0,3.1,2.275,11.016,-0.03906,-0.03906,-0.1406,-0.1702,0.1659,0.0356,3.0,2.0,11.0,0.0,0.0,0.0,0.0
1738222714225451469,0,0,0,0,0,0,0,0,0,3.1,2.275,11.016,-0.03906,-0.03906,-0.1406,-0.1702,0.1659,0.0356,3.0,2.0,11.0,0.0,0.0,0.0,0.0
1738222714275454998,0,0,0,0,0,0,0,0,0,3.094,2.266,11.01,-0.0547,-0.0664,-0.1445,-0.1744,0.1652,0.03348,3.0,2.0,11.0,0.0,0.0,0.0,0.0
1738222714325459241,0,0,0,0,0,0,0,0,0,3.09,2.264,11.01,-0.0664,-0.08984,-0.1406,-0.1776,0.1628,0.03305,3.0,2.0,11.0,0.0,0.0,0.0,0.0
1738222714375442266,0,0,0,0,0,0,0,0,0,3.088,2.26,11.02,-0.0703,-0.10547,-0.1602,-0.174,0.1624,0.0302,3.0,2.0,11.0,0.0,0.0,0.0,0.0
1738222714425457000,0,0,0,0,0,0,0,0,0,3.084,2.254,11.016,-0.0742,-0.10156,-0.1758,-0.1759,0.1635,0.0297,3.0,2.0,11.0,0.0,0.0,0.0,0.0
1738222714475447893,0,0,0,0,0,0,0,0,0,3.078,2.248,11.03,-0.08594,-0.10156,-0.1797,-0.1678,0.163,0.03113,3.0,2.0,11.0,0.0,0.0,0.0,0.0
1738222714525466680,0,0,0,0,0,0,0,0,0,3.072,2.242,11.02,-0.09375,-0.10156,-0.1914,-0.1622,0.1588,0.03156,3.0,2.0,11.0,0.0,0.0,0.0,0.0
1738222714575451374,0,0,0,0,0,0,0,0,0,3.07,2.238,11.03,-0.09766,-0.09375,-0.1953,-0.1616,0.155,0.03177,3.0,2.0,11.0,0.0,0.0,0.0,0.0
1738222714625449895,0,0,0,0,0,0,0,0,0,3.066,2.234,11.02,-0.09375,-0.09375,-0.2031,-0.1608,0.1505,0.03256,3.0,2.0,11.0,0.0,0.0,0.0,0.0
1738222714675456047,0,0,0,0,0,0,0,0,0,3.06,2.229,11.02,-0.08984,-0.08984,-0.207,-0.162,0.146,0.0316,3.0,2.0,11.0,0.0,0.0,0.0,0.0
1738222714725451707,0,0,0,0,0,0,0,0,0,3.055,2.223,11.02,-0.08984,-0.08203,-0.2031,-0.1593,0.1442,0.0317,3.0,2.0,11.0,0.0,0.0,0.0,0.0
1738222714775441646,0,0,0,0,0,0,0,0,0,3.05,2.22,11.02,-0.08594,-0.0781,-0.207,-0.1594,0.1449,0.03114,3.0,2.0,11.0,0.0,0.0,0.0,0.0
1738222714825458526,0,0,0,0,0,0,0,0,0,3.047,2.217,11.016,-0.08203,-0.0664,-0.2188,-0.1625,0.1456,0.03111,3.0,2.0,11.0,0.0,0.0,0.0,0.0
1738222714875447988,0,0,0,0,0,0,0,0,0,3.043,2.215,11.016,-0.08203,-0.0625,-0.2188,-0.1646,0.1453,0.03146,3.0,2.0,11.0,0.0,0.0,0.0,0.0
1738222714925452947,0,0,0,0,0,0,0,0,0,3.04,2.21,11.01,-0.08203,-0.0586,-0.2148,-0.1658,0.145,0.03079,3.0,2.0,11.0,0.0,0.0,0.0,0.0
1738222714975446701,0,0,0,0,0,0,0,0,0,3.035,2.209,11.01,-0.08203,-0.0547,-0.1992,-0.1643,0.1447,0.03105,3.0,2.0,11.0,0.0,0.0,0.0,0.0
1738222715025470733,0,0,0,0,0,0,0,0,0,3.031,2.207,11.01,-0.0781,-0.04297,-0.1914,-0.1641,0.1433,0.03056,3.0,2.0,11.0,0.0,0.0,0.0,0.0
1738222715075441122,0,0,0,0,0,0,0,0,0,3.027,2.205,11.01,-0.0781,-0.03906,-0.1875,-0.164,0.1432,0.03047,3.0,2.0,11.0,0.0,0.0,0.0,0.0
1738222715125446081,0,0,0,0,0,0,0,0,0,3.021,2.203,11.01,-0.08203,-0.01953,-0.1719,-0.1656,0.1444,0.03012,3.0,2.0,11.0,0.0,0.0,0.0,0.0
1738222715175445556,0,0,0,0,0,0,0,0,0,3.02,2.201,11.01,-0.08203,-0.01563,-0.168,-0.1676,0.1432,0.03033,3.0,2.0,11.0,0.0,0.0,0.0,0.0
1738222715225616455,0,0,0,0,0,0,0,0,0,3.014,2.201,11.016,-0.0742,-0.01172,-0.1797,-0.174,0.1406,0.03072,3.0,2.0,11.0,0.0,0.0,0.0,0.0
1738222715275458574,0,0,0,0,0,0,0,0,0,3.012,2.201,11.01,-0.0703,-0.007812,-0.1875,-0.1752,0.1404,0.0309,3.0,2.0,11.0,0.0,0.0,0.0,0.0
1738222715325460910,0,0,0,0,0,0,0,0,0,3.012,2.201,11.01,-0.0703,-0.007812,-0.1875,-0.1752,0.1404,0.0309,3.0,2.0,11.0,0.0,0.0,0.0,0.0
1738222715375444412,0,0,0,0,0,0,0,0,0,3.012,2.201,11.01,-0.0703,-0.007812,-0.1875,-0.1752,0.1404,0.0309,3.0,2.0,11.0,0.0,0.0,0.0,0.0
1738222715425465345,0,0,0,0,0,0,0,0,0,3.002,2.2,11.01,-0.0625,-0.007812,-0.1797,-0.1776,0.14,0.0326,3.0,2.0,11.0,0.0,0.0,0.0,0.0
1738222715475446701,0,0,0,0,0,0,0,0,0,2.998,2.197,11.0,-0.05078,-0.01563,-0.168,-0.1755,0.138,0.03244,3.0,2.0,11.0,0.0,0.0,0.0,0.0
1738222715525473356,0,0,0,0,0,0,0,0,0,2.996,2.197,11.01,-0.04688,-0.01563,-0.1484,-0.1744,0.1375,0.03293,3.0,2.0,11.0,0.0,0.0,0.0,0.0
1738222715575448751,0,0,0,0,0,0,0,0,0,2.994,2.197,11.01,-0.04297,-0.01563,-0.1562,-0.1729,0.1377,0.03287,3.0,2.0,11.0,0.0,0.0,0.0,0.0
1738222715625461578,0,0,0,0,0,0,0,0,0,2.99,2.195,11.0,-0.04297,-0.01563,-0.1602,-0.1768,0.1404,0.03214,3.0,2.0,11.0,0.0,0.0,0.0,0.0
1738222715675452232,0,0,0,0,0,0,0,0,0,2.99,2.195,11.0,-0.04297,-0.01563,-0.1602,-0.1768,0.1404,0.03214,3.0,2.0,11.0,0.0,0.0,0.0,0.0
1738222715725450038,0,0,0,0,0,0,0,0,0,2.99,2.195,11.0,-0.04297,-0.01563,-0.1602,-0.1768,0.1404,0.03214,3.0,2.0,11.0,0.0,0.0,0.0,0.0
1738222715775446176,0,0,0,0,0,0,0,0,0,2.986,2.193,11.0,-0.03906,-0.01563,-0.1562,-0.178,0.1399,0.03198,3.0,2.0,11.0,0.0,0.0,0.0,0.0
1738222715825470924,0,0,0,0,0,0,0,0,0,2.984,2.193,11.01,-0.03516,-0.01953,-0.1523,-0.1772,0.1366,0.03207,3.0,2.0,11.0,0.0,0.0,0.0,0.0
1738222715875460863,0,0,0,0,0,0,0,0,0,2.982,2.191,11.01,-0.01953,-0.03125,-0.1641,-0.1833,0.136,0.0332,3.0,2.0,11.0,0.0,0.0,0.0,0.0
1738222715925445079,0,0,0,0,0,0,0,0,0,2.982,2.19,11.0,-0.01172,-0.04297,-0.1641,-0.1823,0.137,0.03354,3.0,2.0,11.0,0.0,0.0,0.0,0.0
1738222715975439786,0,0,0,0,0,0,0,0,0,2.982,2.188,11.01,-0.007812,-0.04688,-0.1602,-0.1803,0.1366,0.0337,3.0,2.0,11.0,0.0,0.0,0.0,0.0
1738222716025456190,0,0,0,0,0,0,0,0,0,2.982,2.188,11.01,-0.007812,-0.04688,-0.1602,-0.1803,0.1366,0.0337,3.0,2.0,11.0,0.0,0.0,0.0,0.0
1738222716075440168,0,0,0,0,0,0,0,0,0,2.982,2.188,11.01,-0.007812,-0.04688,-0.1602,-0.1803,0.1366,0.0337,3.0,2.0,11.0,0.0,0.0,0.0,0.0
1738222716125455856,0,0,0,0,0,0,0,0,0,2.98,2.18,11.01,-0.003906,-0.05078,-0.1562,-0.1766,0.1355,0.0337,3.0,2.0,11.0,0.0,0.0,0.0,0.0
1738222716175442218,0,0,0,0,0,0,0,0,0,2.982,2.176,11.0,0.01953,-0.0547,-0.1719,-0.1732,0.1346,0.0325,3.0,2.0,11.0,0.0,0.0,0.0,0.0
1738222716225443840,0,0,0,0,0,0,0,0,0,2.982,2.174,10.99,0.02344,-0.0586,-0.1719,-0.171,0.1387,0.0322,3.0,2.0,11.0,0.0,0.0,0.0,0.0
1738222716275437593,0,0,0,0,0,0,0,0,0,2.984,2.172,10.99,0.02344,-0.0625,-0.1641,-0.1678,0.1411,0.03207,3.0,2.0,11.0,0.0,0.0,0.0,0.0
1738222716325460910,0,0,0,0,0,0,0,0,0,2.984,2.168,10.99,0.01172,-0.05078,-0.1523,-0.1613,0.1454,0.0317,3.0,2.0,11.0,0.0,0.0,0.0,0.0
1738222716375440120,0,0,0,0,0,0,0,0,0,2.984,2.166,10.99,0.007812,-0.05078,-0.1445,-0.1594,0.1467,0.03123,3.0,2.0,11.0,0.0,0.0,0.0,0.0
1738222716425457477,0,0,0,0,0,0,0,0,0,2.984,2.164,10.99,0.007812,-0.04297,-0.1367,-0.1578,0.1481,0.03076,3.0,2.0,11.0,0.0,0.0,0.0,0.0
1738222716475445032,0,0,0,0,0,0,0,0,0,2.986,2.162,10.99,0.007812,-0.03125,-0.125,-0.1584,0.1475,0.0294,3.0,2.0,11.0,0.0,0.0,0.0,0.0
1738222716525486946,0,0,0,0,0,0,0,0,0,2.986,2.16,10.99,0.007812,-0.02734,-0.1289,-0.1599,0.1477,0.02965,3.0,2.0,11.0,0.0,0.0,0.0,0.0
1738222716575453042,0,0,0,0,0,0,0,0,0,2.986,2.16,10.99,0.007812,-0.01172,-0.1367,-0.1655,0.1478,0.03108,3.0,2.0,11.0,0.0,0.0,0.0,0.0