time,x_sphinx,y_sphinx,z_sphinx,vx_sphinx,vy_sphinx,vz_sphinx,roll_sphinx,pitch_sphinx,yaw_sphinx,x_anafi,y_anafi,z_anafi,vx_anafi,vy_anafi,vz_anafi,roll_anafi,pitch_anafi,yaw_anafi,wp_x,wp_y,wp_z,wp_vx,wp_vy,wp_vz,wp_yaw
1738223507609224081,0,0,0,0,0,0,0,0,0,0.00062,-0.01855,6.016,0.08594,-0.01563,-0.02344,-0.1257,0.0717,0.02596,0.0,0.0,6.0,0.0,0.0,0.0,0.0
1738223507659235477,0,0,0,0,0,0,0,0,0,0.003956,-0.01909,6.02,0.09766,-0.01563,-0.02344,-0.1279,0.0729,0.02582,0.0,0.0,6.0,0.0,0.0,0.0,0.0
1738223507709210634,0,0,0,0,0,0,0,0,0,0.003956,-0.01909,6.02,0.09766,-0.01563,-0.02344,-0.1279,0.0729,0.02582,0.0,0.0,6.0,0.0,0.0,0.0,0.0
1738223507759232282,0,0,0,0,0,0,0,0,0,0.01422,-0.02046,6.016,0.1172,-0.01563,-0.02734,-0.1307,0.0755,0.0264,0.0,0.0,6.0,0.0,0.0,0.0,0.0
1738223507809211969,0,0,0,0,0,0,0,0,0,0.01422,-0.02046,6.016,0.1172,-0.01563,-0.02734,-0.1307,0.0755,0.0264,0.0,0.0,6.0,0.0,0.0,0.0,0.0
1738223507859250545,0,0,0,0,0,0,0,0,0,0.03107,-0.0224,6.016,0.1406,-0.02344,-0.03516,-0.14,0.10565,0.02298,0.0,0.0,6.0,0.0,0.0,0.0,0.0
1738223507909299850,0,0,0,0,0,0,0,0,0,0.03107,-0.0224,6.016,0.1406,-0.02344,-0.03516,-0.14,0.10565,0.02298,0.0,0.0,6.0,0.0,0.0,0.0,0.0
1738223507959238052,0,0,0,0,0,0,0,0,0,0.04153,-0.0244,6.01,0.1367,-0.01953,-0.03125,-0.1357,0.1191,0.0223,0.0,0.0,6.0,0.0,0.0,0.0,0.0
1738223508009231567,0,0,0,0,0,0,0,0,0,0.0511,-0.02614,6.008,0.125,-0.02734,-0.02734,-0.1306,0.1289,0.02368,0.0,0.0,6.0,0.0,0.0,0.0,0.0
1738223508059236526,0,0,0,0,0,0,0,0,0,0.05533,-0.027,6.004,0.1172,-0.02344,-0.02344,-0.1296,0.13,0.02452,0.0,0.0,6.0,0.0,0.0,0.0,0.0
1738223508109216451,0,0,0,0,0,0,0,0,0,0.06195,-0.02827,6.0,0.09766,-0.01563,-0.01953,-0.1256,0.1346,0.02414,0.0,0.0,6.0,0.0,0.0,0.0,0.0
1738223508159275770,0,0,0,0,0,0,0,0,0,0.06476,-0.02875,6.0,0.09375,-0.01563,-0.01563,-0.1242,0.1356,0.02428,0.0,0.0,6.0,0.0,0.0,0.0,0.0
1738223508209273576,0,0,0,0,0,0,0,0,0,0.0703,-0.02975,5.992,0.0781,-0.01172,-0.007812,-0.12396,0.1376,0.02443,0.0,0.0,6.0,0.0,0.0,0.0,0.0
1738223508259277343,0,0,0,0,0,0,0,0,0,0.0739,-0.03017,5.992,0.0664,-0.007812,-0.003906,-0.1239,0.1388,0.02486,0.0,0.0,6.0,0.0,0.0,0.0,0.0
1738223508309216022,0,0,0,0,0,0,0,0,0,0.0754,-0.03036,5.99,0.0586,-0.007812,-0.003906,-0.1251,0.1401,0.02567,0.0,0.0,6.0,0.0,0.0,0.0,0.0
1738223508359227418,0,0,0,0,0,0,0,0,0,0.0754,-0.03036,5.99,0.0586,-0.007812,-0.003906,-0.1251,0.1401,0.02567,0.0,0.0,6.0,0.0,0.0,0.0,0.0
1738223508409213542,0,0,0,0,0,0,0,0,0,0.0781,-0.03036,5.99,0.03906,0.0,-0.0,-0.1261,0.1406,0.02618,0.0,0.0,6.0,0.0,0.0,0.0,0.0
1738223508459225416,0,0,0,0,0,0,0,0,0,0.0802,-0.03058,5.98,-0.003906,-0.007812,-0.0,-0.1277,0.1434,0.027,0.0,0.0,6.0,0.0,0.0,0.0,0.0
1738223508509222984,0,0,0,0,0,0,0,0,0,0.0788,-0.03099,5.99,-0.03516,-0.01172,-0.0,-0.126,0.1497,0.02832,0.0,0.0,6.0,0.0,0.0,0.0,0.0
1738223508559205293,0,0,0,0,0,0,0,0,0,0.0788,-0.03099,5.99,-0.03516,-0.01172,-0.0,-0.126,0.1497,0.02832,0.0,0.0,6.0,0.0,0.0,0.0,0.0
1738223508609192132,0,0,0,0,0,0,0,0,0,0.07385,-0.03122,5.99,-0.0703,0.003906,-0.0,-0.1252,0.1434,0.02718,0.0,0.0,6.0,0.0,0.0,0.0,0.0
1738223508659210205,0,0,0,0,0,0,0,0,0,0.07056,-0.03105,5.99,-0.0781,0.003906,-0.0,-0.1271,0.141,0.02792,0.0,0.0,6.0,0.0,0.0,0.0,0.0
1738223508709216117,0,0,0,0,0,0,0,0,0,0.06494,-0.0307,5.99,-0.10547,0.007812,-0.003906,-0.1294,0.1346,0.02768,0.0,0.0,6.0,0.0,0.0,0.0,0.0
1738223508759216070,0,0,0,0,0,0,0,0,0,0.06494,-0.0307,5.99,-0.10547,0.007812,-0.003906,-0.1294,0.1346,0.02768,0.0,0.0,6.0,0.0,0.0,0.0,0.0
1738223508809211969,0,0,0,0,0,0,0,0,0,0.0548,-0.03027,5.99,-0.1211,0.007812,-0.007812,-0.1305,0.1305,0.02824,0.0,0.0,6.0,0.0,0.0,0.0,0.0
1738223508859155893,0,0,0,0,0,0,0,0,0,0.04718,-0.03003,5.992,-0.125,0.003906,-0.003906,-0.13,0.12494,0.02936,0.0,0.0,6.0,0.0,0.0,0.0,0.0
1738223508909216880,0,0,0,0,0,0,0,0,0,0.04263,-0.02988,5.992,-0.125,0.003906,-0.007812,-0.1288,0.11993,0.0278,0.0,0.0,6.0,0.0,0.0,0.0,0.0
1738223508959231853,0,0,0,0,0,0,0,0,0,0.03973,-0.02971,5.992,-0.1328,0.007812,-0.007812,-0.1262,0.11664,0.02718,0.0,0.0,6.0,0.0,0.0,0.0,0.0
1738223509009201765,0,0,0,0,0,0,0,0,0,0.02806,-0.02869,5.996,-0.1328,0.01172,-0.007812,-0.1204,0.1129,0.02553,0.0,0.0,6.0,0.0,0.0,0.0,0.0
1738223509059244871,0,0,0,0,0,0,0,0,0,0.02574,-0.02834,5.996,-0.1328,0.01953,-0.007812,-0.118,0.1125,0.02568,0.0,0.0,6.0,0.0,0.0,0.0,0.0
1738223509109213590,0,0,0,0,0,0,0,0,0,0.01605,-0.02672,6.0,-0.125,0.02344,-0.01172,-0.11926,0.1066,0.02744,0.0,0.0,6.0,0.0,0.0,0.0,0.0
1738223509159237146,0,0,0,0,0,0,0,0,0,0.01356,-0.0259,6.0,-0.1172,0.03906,-0.01172,-0.12164,0.1042,0.02684,0.0,0.0,6.0,0.0,0.0,0.0,0.0
1738223509209213733,0,0,0,0,0,0,0,0,0,0.005035,-0.02257,6.004,-0.10156,0.03906,-0.02344,-0.1279,0.10077,0.0271,0.0,0.0,6.0,0.0,0.0,0.0,0.0
1738223509259229183,0,0,0,0,0,0,0,0,0,0.003046,-0.02185,6.004,-0.09766,0.03516,-0.03125,-0.1323,0.09937,0.0271,0.0,0.0,6.0,0.0,0.0,0.0,0.0
1738223509309211730,0,0,0,0,0,0,0,0,0,-0.005054,-0.01775,6.004,-0.0781,0.05078,-0.02344,-0.1283,0.1,0.02603,0.0,0.0,6.0,0.0,0.0,0.0,0.0
1738223509359230279,0,0,0,0,0,0,0,0,0,-0.005054,-0.01775,6.004,-0.0781,0.05078,-0.02344,-0.1283,0.1,0.02603,0.0,0.0,6.0,0.0,0.0,0.0,0.0
1738223509409218549,0,0,0,0,0,0,0,0,0,-0.01099,-0.01316,5.996,-0.0664,0.0547,-0.01563,-0.1256,0.10077,0.02464,0.0,0.0,6.0,0.0,0.0,0.0,0.0
1738223509459232807,0,0,0,0,0,0,0,0,0,-0.01233,-0.01204,5.996,-0.0703,0.0586,-0.01563,-0.1257,0.1022,0.02516,0.0,0.0,6.0,0.0,0.0,0.0,0.0
1738223509509218454,0,0,0,0,0,0,0,0,0,-0.01715,-0.007336,5.992,-0.0625,0.0586,-0.01172,-0.1268,0.10406,0.02524,0.0,0.0,6.0,0.0,0.0,0.0,0.0
1738223509559238433,0,0,0,0,0,0,0,0,0,-0.0186,-0.005974,5.992,-0.0625,0.0586,-0.01172,-0.1277,0.1052,0.02487,0.0,0.0,6.0,0.0,0.0,0.0,0.0
1738223509609214067,0,0,0,0,0,0,0,0,0,-0.02379,-0.000869,5.99,-0.0664,0.0703,-0.01172,-0.1259,0.1069,0.02548,0.0,0.0,6.0,0.0,0.0,0.0,0.0
1738223509659250736,0,0,0,0,0,0,0,0,0,-0.0276,0.003473,5.99,-0.0625,0.0742,-0.007812,-0.1248,0.10364,0.02512,0.0,0.0,6.0,0.0,0.0,0.0,0.0
1738223509709216117,0,0,0,0,0,0,0,0,0,-0.03006,0.006546,5.99,-0.0625,0.0781,-0.003906,-0.1236,0.1024,0.02525,0.0,0.0,6.0,0.0,0.0,0.0,0.0
1738223509759243726,0,0,0,0,0,0,0,0,0,-0.03143,0.008545,5.984,-0.0625,0.08984,-0.003906,-0.1241,0.1007,0.02533,0.0,0.0,6.0,0.0,0.0,0.0,0.0
1738223509809219837,0,0,0,0,0,0,0,0,0,-0.03613,0.01598,5.984,-0.0547,0.09375,-0.003906,-0.1294,0.09784,0.02525,0.0,0.0,6.0,0.0,0.0,0.0,0.0
1738223509859247684,0,0,0,0,0,0,0,0,0,-0.03836,0.02052,5.984,-0.04297,0.09375,-0.007812,-0.1345,0.09467,0.02571,0.0,0.0,6.0,0.0,0.0,0.0,0.0
1738223509909225702,0,0,0,0,0,0,0,0,0,-0.04022,0.02501,5.984,-0.03906,0.09375,-0.007812,-0.1361,0.09436,0.02628,0.0,0.0,6.0,0.0,0.0,0.0,0.0
1738223509959248065,0,0,0,0,0,0,0,0,0,-0.041,0.02805,5.984,-0.02734,0.1094,-0.007812,-0.1377,0.0941,0.02634,0.0,0.0,6.0,0.0,0.0,0.0,0.0
1738223510009237527,0,0,0,0,0,0,0,0,0,-0.04285,0.03748,5.99,-0.01953,0.1094,-0.003906,-0.139,0.0951,0.02583,0.0,0.0,6.0,0.0,0.0,0.0,0.0
1738223510059235095,0,0,0,0,0,0,0,0,0,-0.04346,0.04233,5.996,-0.01172,0.10156,-0.01172,-0.1449,0.0969,0.02605,0.0,0.0,6.0,0.0,0.0,0.0,0.0
1738223510109211921,0,0,0,0,0,0,0,0,0,-0.0437,0.04556,5.992,-0.007812,0.10547,-0.01953,-0.1469,0.09686,0.02632,0.0,0.0,6.0,0.0,0.0,0.0,0.0
1738223510159244298,0,0,0,0,0,0,0,0,0,-0.04382,0.05212,5.992,0.0,0.10547,-0.02344,-0.1481,0.0966,0.02592,0.0,0.0,6.0,0.0,0.0,0.0,0.0
1738223510209216356,0,0,0,0,0,0,0,0,0,-0.0436,0.05722,5.99,0.003906,0.09766,-0.02344,-0.1509,0.09595,0.02693,0.0,0.0,6.0,0.0,0.0,0.0,0.0
1738223510259238958,0,0,0,0,0,0,0,0,0,-0.04266,0.06177,5.99,0.01953,0.0781,-0.01563,-0.1569,0.0919,0.02734,0.0,0.0,6.0,0.0,0.0,0.0,0.0
1738223510309224843,0,0,0,0,0,0,0,0,0,-0.0414,0.06604,5.99,0.01953,0.0703,-0.01563,-0.1586,0.09344,0.02542,0.0,0.0,6.0,0.0,0.0,0.0,0.0
1738223510359234333,0,0,0,0,0,0,0,0,0,-0.0414,0.06604,5.99,0.01953,0.0703,-0.01563,-0.1586,0.09344,0.02542,0.0,0.0,6.0,0.0,0.0,0.0,0.0
1738223510409211397,0,0,0,0,0,0,0,0,0,-0.0414,0.06604,5.99,0.01953,0.0703,-0.01563,-0.1586,0.09344,0.02542,0.0,0.0,6.0,0.0,0.0,0.0,0.0
1738223510459244251,0,0,0,0,0,0,0,0,0,-0.03815,0.07385,5.99,0.02344,0.04297,-0.0,-0.155,0.09827,0.02547,0.0,0.0,6.0,0.0,0.0,0.0,0.0
1738223510509220123,0,0,0,0,0,0,0,0,0,-0.0377,0.075,5.99,0.01172,0.03516,0.007812,-0.141,0.10834,0.0242,0.0,0.0,6.0,0.0,0.0,0.0,0.0
1738223510559233188,0,0,0,0,0,0,0,0,0,-0.0373,0.07733,5.992,0.003906,0.03516,-0.003906,-0.1406,0.112,0.02531,0.0,0.0,6.0,0.0,0.0,0.0,0.0
1738223510609211444,0,0,0,0,0,0,0,0,0,-0.037,0.0793,5.992,0.007812,0.05078,-0.01172,-0.1456,0.11127,0.02571,0.0,0.0,6.0,0.0,0.0,0.0,0.0
1738223510659236192,0,0,0,0,0,0,0,0,0,-0.03674,0.0816,5.99,0.003906,0.03125,-0.01953,-0.1533,0.1066,0.0265,0.0,0.0,6.0,0.0,0.0,0.0,0.0
1738223510709229469,0,0,0,0,0,0,0,0,0,-0.03674,0.08307,5.984,0.0,0.03516,-0.02344,-0.1552,0.1036,0.02774,0.0,0.0,6.0,0.0,0.0,0.0,0.0
1738223510759235143,0,0,0,0,0,0,0,0,0,-0.03674,0.0839,5.984,0.0,0.02344,-0.02344,-0.1565,0.10236,0.02765,0.0,0.0,6.0,0.0,0.0,0.0,0.0
1738223510809221744,0,0,0,0,0,0,0,0,0,-0.0371,0.0843,5.98,-0.007812,0.0,-0.01563,-0.1569,0.10187,0.02606,0.0,0.0,6.0,0.0,0.0,0.0,0.0
1738223510859235048,0,0,0,0,0,0,0,0,0,-0.0375,0.08386,5.98,-0.01172,-0.01172,-0.01172,-0.1558,0.10187,0.02625,0.0,0.0,6.0,0.0,0.0,0.0,0.0
1738223510909222602,0,0,0,0,0,0,0,0,0,-0.03848,0.08276,5.98,-0.03125,-0.01172,-0.007812,-0.1489,0.09796,0.0275,0.0,0.0,6.0,0.0,0.0,0.0,0.0
1738223510959239721,0,0,0,0,0,0,0,0,0,-0.03964,0.0823,5.98,-0.03516,-0.01563,-0.007812,-0.1456,0.09924,0.0261,0.0,0.0,6.0,0.0,0.0,0.0,0.0
1738223511009218215,0,0,0,0,0,0,0,0,0,-0.04156,0.08136,5.977,-0.04297,-0.01953,-0.003906,-0.1434,0.1004,0.02574,0.0,0.0,6.0,0.0,0.0,0.0,0.0
1738223511059249162,0,0,0,0,0,0,0,0,0,-0.0446,0.07996,5.977,-0.05078,-0.02344,-0.0,-0.1409,0.0991,0.02719,0.0,0.0,6.0,0.0,0.0,0.0,0.0
1738223511109224557,0,0,0,0,0,0,0,0,0,-0.0446,0.07996,5.977,-0.05078,-0.02344,-0.0,-0.1409,0.0991,0.02719,0.0,0.0,6.0,0.0,0.0,0.0,0.0
1738223511159241914,0,0,0,0,0,0,0,0,0,-0.0446,0.07996,5.977,-0.05078,-0.02344,-0.0,-0.1409,0.0991,0.02719,0.0,0.0,6.0,0.0,0.0,0.0,0.0
1738223511209225177,0,0,0,0,0,0,0,0,0,-0.04935,0.0776,5.973,-0.0547,-0.02734,-0.0,-0.1404,0.098,0.02693,0.0,0.0,6.0,0.0,0.0,0.0,0.0
1738223511259245634,0,0,0,0,0,0,0,0,0,-0.0567,0.0763,5.977,-0.04688,-0.01563,0.01563,-0.1382,0.083,0.02892,0.0,0.0,6.0,0.0,0.0,0.0,0.0
1738223511309215307,0,0,0,0,0,0,0,0,0,-0.05835,0.0757,5.977,-0.02734,0.003906,0.02344,-0.1345,0.07196,0.02711,0.0,0.0,6.0,0.0,0.0,0.0,0.0
1738223511359232187,0,0,0,0,0,0,0,0,0,-0.05835,0.0757,5.977,-0.02734,0.003906,0.02344,-0.1345,0.07196,0.02711,0.0,0.0,6.0,0.0,0.0,0.0,0.0
1738223511409232378,0,0,0,0,0,0,0,0,0,-0.05978,0.07605,5.977,-0.01563,0.003906,0.01953,-0.135,0.0712,0.02702,0.0,0.0,6.0,0.0,0.0,0.0,0.0
1738223511459227561,0,0,0,0,0,0,0,0,0,-0.05957,0.0757,5.98,0.007812,-0.007812,0.01953,-0.1405,0.0783,0.02768,0.0,0.0,6.0,0.0,0.0,0.0,0.0
1738223511509198427,0,0,0,0,0,0,0,0,0,-0.0587,0.075,5.98,0.01953,-0.01563,0.01953,-0.1403,0.08356,0.02733,0.0,0.0,6.0,0.0,0.0,0.0,0.0
1738223511559227705,0,0,0,0,0,0,0,0,0,-0.0587,0.075,5.98,0.01953,-0.01563,0.01953,-0.1403,0.08356,0.02733,0.0,0.0,6.0,0.0,0.0,0.0,0.0
1738223511609214544,0,0,0,0,0,0,0,0,0,-0.0587,0.075,5.98,0.01953,-0.01563,0.01953,-0.1403,0.08356,0.02733,0.0,0.0,6.0,0.0,0.0,0.0,0.0
1738223511659214496,0,0,0,0,0,0,0,0,0,-0.0538,0.0718,5.984,0.05078,-0.01953,0.003906,-0.1421,0.0853,0.02528,0.0,0.0,6.0,0.0,0.0,0.0,0.0
1738223511709196090,0,0,0,0,0,0,0,0,0,-0.05103,0.07074,5.992,0.0586,-0.01563,-0.0,-0.1458,0.0891,0.02657,0.0,0.0,6.0,0.0,0.0,0.0,0.0
1738223511759214162,0,0,0,0,0,0,0,0,0,-0.04828,0.0699,5.992,0.0625,-0.01953,-0.01172,-0.146,0.0912,0.02592,0.0,0.0,6.0,0.0,0.0,0.0,0.0
1738223511809208631,0,0,0,0,0,0,0,0,0,-0.04828,0.0699,5.992,0.0625,-0.01953,-0.01172,-0.146,0.0912,0.02592,0.0,0.0,6.0,0.0,0.0,0.0,0.0
1738223511859234571,0,0,0,0,0,0,0,0,0,-0.04324,0.06793,6.01,0.0703,-0.02734,-0.01563,-0.1467,0.09265,0.02567,0.0,0.0,6.0,0.0,0.0,0.0,0.0
1738223511909301519,0,0,0,0,0,0,0,0,0,-0.03696,0.0653,6.004,0.08984,-0.03906,-0.007812,-0.1416,0.0897,0.0256,0.0,0.0,6.0,0.0,0.0,0.0,0.0
1738223511959253787,0,0,0,0,0,0,0,0,0,-0.03607,0.065,6.004,0.08594,-0.02734,-0.003906,-0.1373,0.08936,0.02496,0.0,0.0,6.0,0.0,0.0,0.0,0.0
1738223512009201049,0,0,0,0,0,0,0,0,0,-0.03607,0.065,6.004,0.08594,-0.02734,-0.003906,-0.1373,0.08936,0.02496,0.0,0.0,6.0,0.0,0.0,0.0,0.0
1738223512059243202,0,0,0,0,0,0,0,0,0,-0.02263,0.06137,6.0,0.1094,-0.02344,-0.003906,-0.131,0.10156,0.02531,0.0,0.0,6.0,0.0,0.0,0.0,0.0
1738223512109222888,0,0,0,0,0,0,0,0,0,-0.01651,0.06082,6.0,0.1172,0.003906,-0.003906,-0.1301,0.09845,0.02678,0.0,0.0,6.0,0.0,0.0,0.0,0.0
1738223512159231901,0,0,0,0,0,0,0,0,0,-0.01651,0.06082,6.0,0.1172,0.003906,-0.003906,-0.1301,0.09845,0.02678,0.0,0.0,6.0,0.0,0.0,0.0,0.0
1738223512209218978,0,0,0,0,0,0,0,0,0,-0.004192,0.06174,5.996,0.1211,0.01172,-0.01563,-0.1317,0.1178,0.02495,0.0,0.0,6.0,0.0,0.0,0.0,0.0
1738223512259243488,0,0,0,0,0,0,0,0,0,0.001576,0.0627,5.996,0.1172,0.01953,-0.01953,-0.1328,0.1254,0.02597,0.0,0.0,6.0,0.0,0.0,0.0,0.0
1738223512309321403,0,0,0,0,0,0,0,0,0,0.007587,0.0642,5.996,0.10547,0.03906,-0.007812,-0.1284,0.1305,0.03058,0.0,0.0,6.0,0.0,0.0,0.0,0.0
1738223512359228134,0,0,0,0,0,0,0,0,0,0.007587,0.0642,5.996,0.10547,0.03906,-0.007812,-0.1284,0.1305,0.03058,0.0,0.0,6.0,0.0,0.0,0.0,0.0
1738223512409229755,0,0,0,0,0,0,0,0,0,0.01741,0.0685,5.996,0.10156,0.04688,-0.003906,-0.1306,0.1251,0.0287,0.0,0.0,6.0,0.0,0.0,0.0,0.0
1738223512459224462,0,0,0,0,0,0,0,0,0,0.02228,0.071,5.996,0.09766,0.05078,-0.0,-0.1278,0.1255,0.02959,0.0,0.0,6.0,0.0,0.0,0.0,0.0
1738223512509220600,0,0,0,0,0,0,0,0,0,0.02711,0.0736,5.996,0.10156,0.0547,-0.0,-0.1278,0.1223,0.02942,0.0,0.0,6.0,0.0,0.0,0.0,0.0
1738223512559233903,0,0,0,0,0,0,0,0,0,0.02711,0.0736,5.996,0.10156,0.0547,-0.0,-0.1278,0.1223,0.02942,0.0,0.0,6.0,0.0,0.0,0.0,0.0
1738223512609220981,0,0,0,0,0,0,0,0,0,0.03763,0.0806,6.0,0.09375,0.0781,-0.01563,-0.1399,0.1304,0.02875,0.0,0.0,6.0,0.0,0.0,0.0,0.0
1738223512659235954,0,0,0,0,0,0,0,0,0,0.04178,0.084,5.996,0.08594,0.0703,-0.01563,-0.1454,0.1351,0.0294,0.0,0.0,6.0,0.0,0.0,0.0,0.0
1738223512709210157,0,0,0,0,0,0,0,0,0,0.04178,0.084,5.996,0.08594,0.0703,-0.01563,-0.1454,0.1351,0.0294,0.0,0.0,6.0,0.0,0.0,0.0,0.0
1738223512759229421,0,0,0,0,0,0,0,0,0,0.04178,0.084,5.996,0.08594,0.0703,-0.01563,-0.1454,0.1351,0.0294,0.0,0.0,6.0,0.0,0.0,0.0,0.0
1738223512809220075,0,0,0,0,0,0,0,0,0,0.05307,0.0938,5.996,0.0625,0.0742,-0.01172,-0.1528,0.1454,0.02727,0.0,0.0,6.0,0.0,0.0,0.0,0.0
1738223512859230518,0,0,0,0,0,0,0,0,0,0.05362,0.0948,5.977,0.03125,0.0547,-0.0,-0.15,0.1488,0.02734,0.0,0.0,6.0,0.0,0.0,0.0,0.0
1738223512909221410,0,0,0,0,0,0,0,0,0,0.05457,0.0986,5.977,0.01172,0.04688,-0.0,-0.1515,0.1504,0.02638,0.0,0.0,6.0,0.0,0.0,0.0,0.0
1738223512959244728,0,0,0,0,0,0,0,0,0,0.05298,0.10046,5.977,-0.03125,0.03125,0.003906,-0.1483,0.1471,0.02637,0.0,0.0,6.0,0.0,0.0,0.0,0.0
1738223513009217739,0,0,0,0,0,0,0,0,0,0.05298,0.10046,5.977,-0.03125,0.03125,0.003906,-0.1483,0.1471,0.02637,0.0,0.0,6.0,0.0,0.0,0.0,0.0
1738223513059227705,0,0,0,0,0,0,0,0,0,0.05298,0.10046,5.977,-0.03125,0.03125,0.003906,-0.1483,0.1471,0.02637,0.0,0.0,6.0,0.0,0.0,0.0,0.0
1738223513109220981,0,0,0,0,0,0,0,0,0,0.04694,0.1043,5.977,-0.04297,0.02734,0.003906,-0.1451,0.1472,0.02524,0.0,0.0,6.0,0.0,0.0,0.0,0.0
1738223513159232616,0,0,0,0,0,0,0,0,0,0.04443,0.10516,5.973,-0.0742,0.01953,0.003906,-0.1437,0.1451,0.0255,0.0,0.0,6.0,0.0,0.0,0.0,0.0
1738223513209223508,0,0,0,0,0,0,0,0,0,0.03687,0.10675,5.973,-0.1562,0.02344,-0.0,-0.1455,0.1505,0.02608,0.0,0.0,6.0,0.0,0.0,0.0,0.0
1738223513259238719,0,0,0,0,0,0,0,0,0,0.02617,0.1077,5.973,-0.1914,0.01563,-0.0,-0.1432,0.1372,0.02768,0.0,0.0,6.0,0.0,0.0,0.0,0.0
1738223513309215068,0,0,0,0,0,0,0,0,0,0.01901,0.10834,5.977,-0.1992,0.01563,0.003906,-0.144,0.1292,0.02747,0.0,0.0,6.0,0.0,0.0,0.0,0.0
1738223513359228610,0,0,0,0,0,0,0,0,0,0.01461,0.10895,5.977,-0.2109,0.03125,0.003906,-0.1438,0.12085,0.02696,0.0,0.0,6.0,0.0,0.0,0.0,0.0
1738223513409198284,0,0,0,0,0,0,0,0,0,0.01461,0.10895,5.977,-0.2109,0.03125,0.003906,-0.1438,0.12085,0.02696,0.0,0.0,6.0,0.0,0.0,0.0,0.0
1738223513459247589,0,0,0,0,0,0,0,0,0,-0.01386,0.1126,5.977,-0.2148,0.02734,-0.0,-0.1436,0.11383,0.02785,0.0,0.0,6.0,0.0,0.0,0.0,0.0
1738223513509231805,0,0,0,0,0,0,0,0,0,-0.02428,0.1137,5.977,-0.2031,0.01563,0.01172,-0.1425,0.0935,0.02727,0.0,0.0,6.0,0.0,0.0,0.0,0.0
1738223513559242486,0,0,0,0,0,0,0,0,0,-0.03668,0.11426,5.973,-0.1914,0.007812,0.01953,-0.1515,0.0809,0.02805,0.0,0.0,6.0,0.0,0.0,0.0,0.0
1738223513609218835,0,0,0,0,0,0,0,0,0,-0.04443,0.1151,5.977,-0.1836,0.01953,0.01953,-0.1514,0.0812,0.02864,0.0,0.0,6.0,0.0,0.0,0.0,0.0
1738223513659223556,0,0,0,0,0,0,0,0,0,-0.0472,0.1153,5.977,-0.1719,0.01172,0.01563,-0.152,0.08075,0.02779,0.0,0.0,6.0,0.0,0.0,0.0,0.0
1738223513709216594,0,0,0,0,0,0,0,0,0,-0.05957,0.1158,5.977,-0.1602,0.003906,0.003906,-0.1604,0.07715,0.02591,0.0,0.0,6.0,0.0,0.0,0.0,0.0
1738223513759222984,0,0,0,0,0,0,0,0,0,-0.06433,0.1158,5.977,-0.1445,0.0,0.003906,-0.1599,0.07806,0.0261,0.0,0.0,6.0,0.0,0.0,0.0,0.0
1738223513809231042,0,0,0,0,0,0,0,0,0,-0.07446,0.1156,5.977,-0.125,-0.007812,-0.0,-0.1595,0.0742,0.02728,0.0,0.0,6.0,0.0,0.0,0.0,0.0
1738223513859222173,0,0,0,0,0,0,0,0,0,-0.0801,0.1148,5.977,-0.10156,-0.01563,-0.003906,-0.1594,0.0666,0.0258,0.0,0.0,6.0,0.0,0.0,0.0,0.0
1738223513909225940,0,0,0,0,0,0,0,0,0,-0.08246,0.11444,5.977,-0.09375,-0.01563,-0.003906,-0.159,0.06555,0.02626,0.0,0.0,6.0,0.0,0.0,0.0,0.0
1738223513959222555,0,0,0,0,0,0,0,0,0,-0.08496,0.1139,5.977,-0.0781,-0.01563,-0.003906,-0.1599,0.0658,0.02646,0.0,0.0,6.0,0.0,0.0,0.0,0.0
1738223514009207487,0,0,0,0,0,0,0,0,0,-0.09076,0.1111,5.973,-0.0586,-0.03906,-0.007812,-0.164,0.065,0.02798,0.0,0.0,6.0,0.0,0.0,0.0,0.0
1738223514059211730,0,0,0,0,0,0,0,0,0,-0.09357,0.1082,5.973,-0.04688,-0.05078,-0.0,-0.1586,0.07007,0.02911,0.0,0.0,6.0,0.0,0.0,0.0,0.0
1738223514109219074,0,0,0,0,0,0,0,0,0,-0.095,0.1063,5.973,-0.04297,-0.0586,-0.0,-0.1504,0.0744,0.03029,0.0,0.0,6.0,0.0,0.0,0.0,0.0
1738223514159200668,0,0,0,0,0,0,0,0,0,-0.09814,0.10223,5.973,-0.04688,-0.0625,0.007812,-0.1508,0.0768,0.02765,0.0,0.0,6.0,0.0,0.0,0.0,0.0
1738223514209192276,0,0,0,0,0,0,0,0,0,-0.0995,0.10016,5.973,-0.04688,-0.0703,0.007812,-0.1471,0.077,0.02838,0.0,0.0,6.0,0.0,0.0,0.0,0.0
1738223514259210348,0,0,0,0,0,0,0,0,0,-0.10205,0.09534,5.973,-0.03516,-0.0742,0.007812,-0.139,0.06555,0.03094,0.0,0.0,6.0,0.0,0.0,0.0,0.0
1738223514309220075,0,0,0,0,0,0,0,0,0,-0.10205,0.09534,5.973,-0.03516,-0.0742,0.007812,-0.139,0.06555,0.03094,0.0,0.0,6.0,0.0,0.0,0.0,0.0
1738223514359205722,0,0,0,0,0,0,0,0,0,-0.10205,0.09534,5.973,-0.03516,-0.0742,0.007812,-0.139,0.06555,0.03094,0.0,0.0,6.0,0.0,0.0,0.0,0.0
1738223514409224271,0,0,0,0,0,0,0,0,0,-0.10596,0.0852,5.97,-0.01953,-0.0586,0.007812,-0.1385,0.0602,0.02826,0.0,0.0,6.0,0.0,0.0,0.0,0.0
1738223514459217071,0,0,0,0,0,0,0,0,0,-0.1061,0.08264,5.97,0.0,-0.0664,0.003906,-0.1458,0.06155,0.02795,0.0,0.0,6.0,0.0,0.0,0.0,0.0
1738223514509243726,0,0,0,0,0,0,0,0,0,-0.1061,0.07825,5.973,0.0,-0.0781,0.007812,-0.1448,0.06604,0.02766,0.0,0.0,6.0,0.0,0.0,0.0,0.0
1738223514559235811,0,0,0,0,0,0,0,0,0,-0.1061,0.0743,5.973,0.0,-0.0781,0.01172,-0.1407,0.0692,0.0283,3.0,2.0,11.0,0.0,0.0,0.0,180.0
1738223514609202861,0,0,0,0,0,0,0,0,0,-0.1062,0.0716,5.973,-0.003906,-0.0742,0.01953,-0.134,0.0714,0.02863,3.0,2.0,11.0,0.0,0.0,0.0,180.0
1738223514659230232,0,0,0,0,0,0,0,0,0,-0.1063,0.0701,5.973,-0.003906,-0.0781,0.0703,-0.1317,0.0693,0.02812,3.0,2.0,11.0,0.0,0.0,0.0,180.0
1738223514709222316,0,0,0,0,0,0,0,0,0,-0.1063,0.0701,5.973,-0.003906,-0.0781,0.0703,-0.1317,0.0693,0.02812,3.0,2.0,11.0,0.0,0.0,0.0,180.0
1738223514759237289,0,0,0,0,0,0,0,0,0,-0.1061,0.0596,5.99,0.01172,-0.0547,0.3164,-0.0962,0.0397,0.02975,3.0,2.0,11.0,0.0,0.0,0.0,180.0
1738223514809226512,0,0,0,0,0,0,0,0,0,-0.1033,0.06018,6.02,0.09766,0.03906,0.5938,-0.02301,-0.04935,0.03183,3.0,2.0,11.0,0.0,0.0,0.0,180.0
1738223514859237909,0,0,0,0,0,0,0,0,0,-0.0881,0.07025,6.098,0.4414,0.3008,1.074,0.07275,-0.2223,0.06824,3.0,2.0,11.0,0.0,0.0,0.0,180.0
1738223514909258604,0,0,0,0,0,0,0,0,0,-0.0572,0.0924,6.16,0.664,0.4766,1.309,0.08624,-0.257,0.09204,3.0,2.0,11.0,0.0,0.0,0.0,180.0
1738223514959264516,0,0,0,0,0,0,0,0,0,-0.0572,0.0924,6.16,0.664,0.4766,1.309,0.08624,-0.257,0.09204,3.0,2.0,11.0,0.0,0.0,0.0,180.0
1738223515009224176,0,0,0,0,0,0,0,0,0,0.02568,0.1536,6.21,0.8477,0.625,1.461,0.0997,-0.3062,0.1506,3.0,2.0,11.0,0.0,0.0,0.0,180.0
1738223515059236049,0,0,0,0,0,0,0,0,0,0.08606,0.2043,6.383,1.309,1.145,1.828,0.1444,-0.3467,0.3342,3.0,2.0,11.0,0.0,0.0,0.0,180.0
1738223515109223365,0,0,0,0,0,0,0,0,0,0.1735,0.2947,6.523,1.496,1.645,2.152,0.2029,-0.315,0.4622,3.0,2.0,11.0,0.0,0.0,0.0,180.0
1738223515159234285,0,0,0,0,0,0,0,0,0,0.272,0.4275,6.656,1.594,2.207,2.41,0.3179,-0.266,0.612,3.0,2.0,11.0,0.0,0.0,0.0,180.0
1738223515209245920,0,0,0,0,0,0,0,0,0,0.3196,0.5063,6.77,1.523,2.523,2.457,0.3618,-0.2491,0.6665,3.0,2.0,11.0,0.0,0.0,0.0,180.0
1738223515259264230,0,0,0,0,0,0,0,0,0,0.4067,0.683,6.914,1.363,2.883,2.441,0.4478,-0.178,0.8257,3.0,2.0,11.0,0.0,0.0,0.0,180.0
1738223515309211969,0,0,0,0,0,0,0,0,0,0.45,0.795,7.01,1.203,3.102,2.438,0.47,-0.1428,0.8857,3.0,2.0,11.0,0.0,0.0,0.0,180.0
1738223515359216213,0,0,0,0,0,0,0,0,0,0.5117,1.031,7.16,0.8633,3.54,2.418,0.5293,-0.06586,1.024,3.0,2.0,11.0,0.0,0.0,0.0,180.0
1738223515409205198,0,0,0,0,0,0,0,0,0,0.5405,1.212,7.32,0.4727,3.754,2.41,0.5464,0.02281,1.15,3.0,2.0,11.0,0.0,0.0,0.0,180.0
1738223515459201335,0,0,0,0,0,0,0,0,0,0.551,1.345,7.39,0.3047,3.812,2.379,0.543,0.0641,1.205,3.0,2.0,11.0,0.0,0.0,0.0,180.0
1738223515509214401,0,0,0,0,0,0,0,0,0,0.551,1.345,7.39,0.3047,3.812,2.379,0.543,0.0641,1.205,3.0,2.0,11.0,0.0,0.0,0.0,180.0
1738223515559215068,0,0,0,0,0,0,0,0,0,0.556,1.65,7.484,0.0664,3.86,2.36,0.5273,0.10626,1.259,3.0,2.0,11.0,0.0,0.0,0.0,180.0
1738223515609216690,0,0,0,0,0,0,0,0,0,0.556,1.65,7.484,0.0664,3.86,2.36,0.5273,0.10626,1.259,3.0,2.0,11.0,0.0,0.0,0.0,180.0
1738223515659223318,0,0,0,0,0,0,0,0,0,0.5117,2.156,7.8,-0.746,3.684,2.332,0.4375,0.3323,1.491,3.0,2.0,11.0,0.0,0.0,0.0,180.0
1738223515709223985,0,0,0,0,0,0,0,0,0,0.4775,2.283,7.953,-1.0,3.422,2.316,0.3694,0.4475,1.602,3.0,2.0,11.0,0.0,0.0,0.0,180.0
1738223515759227275,0,0,0,0,0,0,0,0,0,0.3892,2.494,8.125,-1.277,2.934,2.312,0.2998,0.5513,1.72,3.0,2.0,11.0,0.0,0.0,0.0,180.0
1738223515809216737,0,0,0,0,0,0,0,0,0,0.3557,2.564,8.19,-1.316,2.738,2.316,0.2654,0.5923,1.786,3.0,2.0,11.0,0.0,0.0,0.0,180.0
1738223515859236955,0,0,0,0,0,0,0,0,0,0.2637,2.732,8.34,-1.309,2.32,2.316,0.2015,0.6333,1.869,3.0,2.0,11.0,0.0,0.0,0.0,180.0
1738223515909231901,0,0,0,0,0,0,0,0,0,0.1993,2.83,8.48,-1.246,1.754,2.305,0.12415,0.6665,1.97,3.0,2.0,11.0,0.0,0.0,0.0,180.0
1738223515959222078,0,0,0,0,0,0,0,0,0,0.1993,2.83,8.48,-1.246,1.754,2.305,0.12415,0.6665,1.97,3.0,2.0,11.0,0.0,0.0,0.0,180.0
1738223516009223699,0,0,0,0,0,0,0,0,0,0.1993,2.83,8.48,-1.246,1.754,2.305,0.12415,0.6665,1.97,3.0,2.0,11.0,0.0,0.0,0.0,180.0
1738223516059207439,0,0,0,0,0,0,0,0,0,0.0366,3.047,8.56,-1.156,1.535,2.3,0.0997,0.68,2.012,3.0,2.0,11.0,0.0,0.0,0.0,180.0
1738223516109228849,0,0,0,0,0,0,0,0,0,-0.00518,3.1,8.8,-0.7383,0.926,2.305,0.04556,0.697,2.11,3.0,2.0,11.0,0.0,0.0,0.0,180.0
1738223516159212350,0,0,0,0,0,0,0,0,0,-0.01703,3.117,8.945,-0.293,0.4922,2.309,-0.02475,0.6973,2.217,3.0,2.0,11.0,0.0,0.0,0.0,180.0
1738223516209217071,0,0,0,0,0,0,0,0,0,-0.02109,3.139,9.04,-0.0625,0.332,2.312,-0.05142,0.697,2.248,3.0,2.0,11.0,0.0,0.0,0.0,180.0
1738223516259217977,0,0,0,0,0,0,0,0,0,-0.00113,3.148,9.26,0.4727,0.0781,2.2,-0.11346,0.684,2.355,3.0,2.0,11.0,0.0,0.0,0.0,180.0
1738223516309220075,0,0,0,0,0,0,0,0,0,0.01639,3.15,9.31,0.59,0.04688,2.133,-0.1285,0.685,2.395,3.0,2.0,11.0,0.0,0.0,0.0,180.0
1738223516359216213,0,0,0,0,0,0,0,0,0,0.01639,3.15,9.31,0.59,0.04688,2.133,-0.1285,0.685,2.395,3.0,2.0,11.0,0.0,0.0,0.0,180.0
1738223516409220933,0,0,0,0,0,0,0,0,0,0.11975,3.135,9.4,1.0,-0.1445,2.094,-0.1368,0.686,2.418,3.0,2.0,11.0,0.0,0.0,0.0,180.0
1738223516459217548,0,0,0,0,0,0,0,0,0,0.2397,3.115,9.695,1.957,-0.3047,2.09,-0.1678,0.675,2.537,3.0,2.0,11.0,0.0,0.0,0.0,180.0
1738223516509221076,0,0,0,0,0,0,0,0,0,0.3413,3.1,9.81,2.316,-0.3203,2.02,-0.167,0.677,2.59,3.0,2.0,11.0,0.0,0.0,0.0,180.0
1738223516559201717,0,0,0,0,0,0,0,0,0,0.3413,3.1,9.81,2.316,-0.3203,2.02,-0.167,0.677,2.59,3.0,2.0,11.0,0.0,0.0,0.0,180.0
1738223516609215259,0,0,0,0,0,0,0,0,0,0.3413,3.1,9.81,2.316,-0.3203,2.02,-0.167,0.677,2.59,3.0,2.0,11.0,0.0,0.0,0.0,180.0
1738223516659197807,0,0,0,0,0,0,0,0,0,0.7393,3.053,10.0,2.95,-0.2852,1.801,-0.1782,0.6675,2.635,3.0,2.0,11.0,0.0,0.0,0.0,180.0
1738223516709195852,0,0,0,0,0,0,0,0,0,0.88,3.041,10.164,3.57,-0.2344,1.602,-0.1473,0.5596,2.717,3.0,2.0,11.0,0.0,0.0,0.0,180.0
1738223516759232282,0,0,0,0,0,0,0,0,0,1.086,3.031,10.23,3.73,-0.1992,1.578,-0.14,0.5312,2.732,3.0,2.0,11.0,0.0,0.0,0.0,180.0
1738223516809201717,0,0,0,0,0,0,0,0,0,1.273,3.023,10.31,3.871,-0.1367,1.434,-0.1197,0.4578,2.771,3.0,2.0,11.0,0.0,0.0,0.0,180.0
1738223516859193563,0,0,0,0,0,0,0,0,0,1.456,3.018,10.37,3.934,-0.10156,1.344,-0.1037,0.417,2.787,3.0,2.0,11.0,0.0,0.0,0.0,180.0
1738223516909196138,0,0,0,0,0,0,0,0,0,1.561,3.016,10.41,3.973,-0.0781,1.316,-0.0762,0.349,2.805,3.0,2.0,11.0,0.0,0.0,0.0,180.0
1738223516959212779,0,0,0,0,0,0,0,0,0,1.729,3.016,10.445,4.156,-0.03516,1.215,-0.053,0.2896,2.814,3.0,2.0,11.0,0.0,0.0,0.0,180.0
1738223517009205102,0,0,0,0,0,0,0,0,0,2.04,3.014,10.51,4.137,0.0,1.047,0.000503,0.167,2.838,3.0,2.0,11.0,0.0,0.0,0.0,180.0
1738223517059194326,0,0,0,0,0,0,0,0,0,2.281,3.016,10.58,4.06,0.03125,0.918,0.05725,0.0773,2.865,3.0,2.0,11.0,0.0,0.0,0.0,180.0
1738223517109192371,0,0,0,0,0,0,0,0,0,2.434,3.018,10.6,4.004,0.03125,0.883,0.08167,0.03152,2.879,3.0,2.0,11.0,0.0,0.0,0.0,180.0
1738223517159193515,0,0,0,0,0,0,0,0,0,2.533,3.018,10.62,3.938,0.04297,0.8086,0.1042,-0.01784,2.889,3.0,2.0,11.0,0.0,0.0,0.0,180.0
1738223517209196805,0,0,0,0,0,0,0,0,0,2.812,3.021,10.664,3.758,0.03125,0.746,0.1547,-0.1323,2.912,3.0,2.0,11.0,0.0,0.0,0.0,180.0
1738223517259193658,0,0,0,0,0,0,0,0,0,2.812,3.021,10.664,3.758,0.03125,0.746,0.1547,-0.1323,2.912,3.0,2.0,11.0,0.0,0.0,0.0,180.0
1738223517309203147,0,0,0,0,0,0,0,0,0,3.21,3.023,10.695,3.617,0.02344,0.6836,0.1743,-0.1755,2.924,3.0,2.0,11.0,0.0,0.0,0.0,180.0
1738223517359218120,0,0,0,0,0,0,0,0,0,3.355,3.023,10.76,3.246,-0.01563,0.5,0.2272,-0.2837,2.96,3.0,2.0,11.0,0.0,0.0,0.0,180.0
1738223517409327268,0,0,0,0,0,0,0,0,0,3.553,3.02,10.82,2.762,-0.08594,0.3945,0.2438,-0.3608,2.986,3.0,2.0,11.0,0.0,0.0,0.0,180.0
1738223517459219217,0,0,0,0,0,0,0,0,0,3.553,3.02,10.82,2.762,-0.08594,0.3945,0.2438,-0.3608,2.986,3.0,2.0,11.0,0.0,0.0,0.0,180.0
1738223517509216070,0,0,0,0,0,0,0,0,0,3.553,3.02,10.82,2.762,-0.08594,0.3945,0.2438,-0.3608,2.986,3.0,2.0,11.0,0.0,0.0,0.0,180.0
1738223517559195995,0,0,0,0,0,0,0,0,0,3.928,3.002,10.875,2.25,-0.1484,0.2969,0.2443,-0.395,3.006,3.0,2.0,11.0,0.0,0.0,0.0,180.0
1738223517609223127,0,0,0,0,0,0,0,0,0,3.99,2.996,10.9,2.043,-0.1758,0.1836,0.2664,-0.408,3.018,3.0,2.0,11.0,0.0,0.0,0.0,180.0
1738223517659220933,0,0,0,0,0,0,0,0,0,4.098,2.982,10.92,1.656,-0.25,0.1094,0.289,-0.411,3.035,3.0,2.0,11.0,0.0,0.0,0.0,180.0
1738223517709223508,0,0,0,0,0,0,0,0,0,4.176,2.967,10.92,1.375,-0.336,0.02734,0.3032,-0.4114,3.047,3.0,2.0,11.0,0.0,0.0,0.0,180.0
1738223517759214878,0,0,0,0,0,0,0,0,0,4.176,2.967,10.92,1.375,-0.336,0.02734,0.3032,-0.4114,3.047,3.0,2.0,11.0,0.0,0.0,0.0,180.0
1738223517809223175,0,0,0,0,0,0,0,0,0,4.176,2.967,10.92,1.375,-0.336,0.02734,0.3032,-0.4114,3.047,3.0,2.0,11.0,0.0,0.0,0.0,180.0
1738223517859225511,0,0,0,0,0,0,0,0,0,4.348,2.908,10.94,1.031,-0.4297,0.02344,0.3157,-0.406,3.06,3.0,2.0,11.0,0.0,0.0,0.0,180.0
1738223517909209012,0,0,0,0,0,0,0,0,0,4.38,2.879,10.94,0.461,-0.66,-0.1445,0.3196,-0.3987,3.072,3.0,2.0,11.0,0.0,0.0,0.0,180.0
1738223517959228754,0,0,0,0,0,0,0,0,0,4.39,2.854,10.94,0.289,-0.7188,-0.1484,0.3237,-0.398,3.074,3.0,2.0,11.0,0.0,0.0,0.0,180.0
1738223518009231567,0,0,0,0,0,0,0,0,0,4.39,2.854,10.94,0.289,-0.7188,-0.1484,0.3237,-0.398,3.074,3.0,2.0,11.0,0.0,0.0,0.0,180.0
1738223518059227466,0,0,0,0,0,0,0,0,0,4.39,2.854,10.94,0.289,-0.7188,-0.1484,0.3237,-0.398,3.074,3.0,2.0,11.0,0.0,0.0,0.0,180.0
1738223518109237670,0,0,0,0,0,0,0,0,0,4.406,2.72,10.94,-0.0586,-0.8477,-0.125,0.3142,-0.4067,3.074,3.0,2.0,11.0,0.0,0.0,0.0,180.0
1738223518159224271,0,0,0,0,0,0,0,0,0,4.37,2.666,10.93,-0.6445,-1.047,-0.1562,0.268,-0.378,3.074,3.0,2.0,11.0,0.0,0.0,0.0,180.0
1738223518209221363,0,0,0,0,0,0,0,0,0,4.332,2.613,10.92,-0.9336,-1.109,-0.1641,0.2515,-0.36,3.082,3.0,2.0,11.0,0.0,0.0,0.0,180.0
1738223518259225130,0,0,0,0,0,0,0,0,0,4.332,2.613,10.92,-0.9336,-1.109,-0.1641,0.2515,-0.36,3.082,3.0,2.0,11.0,0.0,0.0,0.0,180.0
1738223518309227228,0,0,0,0,0,0,0,0,0,4.332,2.613,10.92,-0.9336,-1.109,-0.1641,0.2515,-0.36,3.082,3.0,2.0,11.0,0.0,0.0,0.0,180.0
1738223518359228610,0,0,0,0,0,0,0,0,0,4.164,2.443,10.92,-1.316,-1.191,-0.0781,0.1914,-0.2957,3.088,3.0,2.0,11.0,0.0,0.0,0.0,180.0
1738223518409223794,0,0,0,0,0,0,0,0,0,4.094,2.383,10.92,-1.477,-1.1875,-0.0625,0.1543,-0.2153,3.092,3.0,2.0,11.0,0.0,0.0,0.0,180.0
1738223518459229230,0,0,0,0,0,0,0,0,0,4.043,2.344,10.92,-1.531,-1.1875,-0.0664,0.1473,-0.1976,3.092,3.0,2.0,11.0,0.0,0.0,0.0,180.0
1738223518509235620,0,0,0,0,0,0,0,0,0,3.941,2.27,10.92,-1.656,-1.184,-0.0781,0.135,-0.1713,3.094,3.0,2.0,11.0,0.0,0.0,0.0,180.0
1738223518559238910,0,0,0,0,0,0,0,0,0,3.873,2.223,10.93,-1.719,-1.164,-0.0547,0.1218,-0.1477,3.094,3.0,2.0,11.0,0.0,0.0,0.0,180.0
1738223518609240055,0,0,0,0,0,0,0,0,0,3.768,2.15,10.93,-1.672,-1.148,-0.03125,0.0807,-0.07263,3.094,3.0,2.0,11.0,0.0,0.0,0.0,180.0
1738223518659222602,0,0,0,0,0,0,0,0,0,3.701,2.105,10.94,-1.684,-1.125,-0.02734,0.06006,-0.03528,3.096,3.0,2.0,11.0,0.0,0.0,0.0,180.0
1738223518709249973,0,0,0,0,0,0,0,0,0,3.605,2.041,10.945,-1.539,-1.031,-0.01953,0.01659,0.03111,3.102,3.0,2.0,11.0,0.0,0.0,0.0,180.0
1738223518759232282,0,0,0,0,0,0,0,0,0,3.605,2.041,10.945,-1.539,-1.031,-0.01953,0.01659,0.03111,3.102,3.0,2.0,11.0,0.0,0.0,0.0,180.0
1738223518809227943,0,0,0,0,0,0,0,0,0,3.605,2.041,10.945,-1.539,-1.031,-0.01953,0.01659,0.03111,3.102,3.0,2.0,11.0,0.0,0.0,0.0,180.0
1738223518859235048,0,0,0,0,0,0,0,0,0,3.387,1.897,10.95,-1.512,-1.0,-0.04297,-0.0007486,0.05664,3.102,3.0,2.0,11.0,0.0,0.0,0.0,180.0
1738223518909205198,0,0,0,0,0,0,0,0,0,3.303,1.846,10.984,-1.355,-0.789,-0.1094,-0.05316,0.1632,3.107,3.0,2.0,11.0,0.0,0.0,0.0,180.0
1738223518959208726,0,0,0,0,0,0,0,0,0,3.266,1.824,10.99,-1.105,-0.6523,-0.1523,-0.08545,0.1947,3.11,3.0,2.0,11.0,0.0,0.0,0.0,180.0
1738223519009214639,0,0,0,0,0,0,0,0,0,3.227,1.802,11.01,-1.051,-0.59,-0.1836,-0.1015,0.2017,3.111,3.0,2.0,11.0,0.0,0.0,0.0,180.0
1738223519059199810,0,0,0,0,0,0,0,0,0,3.168,1.773,11.01,-0.949,-0.4414,-0.2422,-0.1193,0.21,3.115,3.0,2.0,11.0,0.0,0.0,0.0,180.0
1738223519109219074,0,0,0,0,0,0,0,0,0,3.12,1.753,11.01,-0.668,-0.254,-0.2734,-0.1266,0.2202,3.113,3.0,2.0,11.0,0.0,0.0,0.0,180.0
1738223519159220457,0,0,0,0,0,0,0,0,0,3.096,1.746,11.0,-0.6055,-0.1875,-0.2969,-0.1266,0.2297,3.111,3.0,2.0,11.0,0.0,0.0,0.0,180.0
1738223519209203243,0,0,0,0,0,0,0,0,0,3.062,1.739,10.99,-0.4805,-0.0625,-0.3164,-0.1152,0.2386,3.11,3.0,2.0,11.0,0.0,0.0,0.0,180.0
1738223519259195089,0,0,0,0,0,0,0,0,0,3.045,1.74,10.99,-0.4062,0.01953,-0.3398,-0.111,0.2389,3.111,3.0,2.0,11.0,0.0,0.0,0.0,180.0
1738223519309195518,0,0,0,0,0,0,0,0,0,3.031,1.747,10.99,-0.1406,0.168,-0.3555,-0.0908,0.2378,3.111,3.0,2.0,11.0,0.0,0.0,0.0,180.0
1738223519359179735,0,0,0,0,0,0,0,0,0,3.031,1.747,10.99,-0.1406,0.168,-0.3555,-0.0908,0.2378,3.111,3.0,2.0,11.0,0.0,0.0,0.0,180.0
1738223519409196853,0,0,0,0,0,0,0,0,0,3.031,1.747,10.99,-0.1406,0.168,-0.3555,-0.0908,0.2378,3.111,3.0,2.0,11.0,0.0,0.0,0.0,180.0
1738223519459203481,0,0,0,0,0,0,0,0,0,3.02,1.78,10.984,-0.08203,0.2266,-0.3594,-0.0762,0.236,3.111,3.0,2.0,11.0,0.0,0.0,0.0,180.0
1738223519509218454,0,0,0,0,0,0,0,0,0,3.021,1.798,10.98,0.05078,0.3672,-0.3594,-0.02542,0.211,3.113,3.0,2.0,11.0,0.0,0.0,0.0,180.0
1738223519559224128,0,0,0,0,0,0,0,0,0,3.027,1.822,10.95,0.1523,0.4648,-0.3438,0.02638,0.1737,3.115,3.0,2.0,11.0,0.0,0.0,0.0,180.0
1738223519609225273,0,0,0,0,0,0,0,0,0,3.037,1.836,10.95,0.3047,0.5,-0.332,0.04007,0.1678,3.115,3.0,2.0,11.0,0.0,0.0,0.0,180.0
1738223519659227848,0,0,0,0,0,0,0,0,0,3.059,1.869,10.945,0.3633,0.539,-0.2969,0.06174,0.1611,3.117,3.0,2.0,11.0,0.0,0.0,0.0,180.0
1738223519709218740,0,0,0,0,0,0,0,0,0,3.088,1.904,10.945,0.5273,0.5547,-0.293,0.0919,0.1373,3.12,3.0,2.0,11.0,0.0,0.0,0.0,180.0
1738223519759228706,0,0,0,0,0,0,0,0,0,3.104,1.922,10.94,0.547,0.5586,-0.2969,0.1075,0.1259,3.12,3.0,2.0,11.0,0.0,0.0,0.0,180.0
1738223519809229373,0,0,0,0,0,0,0,0,0,3.14,1.957,10.92,0.574,0.5547,-0.2734,0.1306,0.1053,3.12,3.0,2.0,11.0,0.0,0.0,0.0,180.0
1738223519859212636,0,0,0,0,0,0,0,0,0,3.162,1.978,10.914,0.574,0.543,-0.25,0.14,0.0967,3.12,3.0,2.0,11.0,0.0,0.0,0.0,180.0
1738223519909257411,0,0,0,0,0,0,0,0,0,3.2,2.01,10.91,0.699,0.5234,-0.2188,0.1572,0.0783,3.117,3.0,2.0,11.0,0.0,0.0,0.0,180.0
1738223519959228277,0,0,0,0,0,0,0,0,0,3.24,2.037,10.9,0.703,0.496,-0.1953,0.1648,0.07025,3.117,3.0,2.0,11.0,0.0,0.0,0.0,180.0
1738223520009222507,0,0,0,0,0,0,0,0,0,3.27,2.059,10.88,0.6836,0.4414,-0.1523,0.1777,0.04633,3.117,3.0,2.0,11.0,0.0,0.0,0.0,180.0
1738223520059238672,0,0,0,0,0,0,0,0,0,3.305,2.078,10.875,0.672,0.414,-0.1172,0.181,0.0341,3.117,3.0,2.0,11.0,0.0,0.0,0.0,180.0
1738223520109224557,0,0,0,0,0,0,0,0,0,3.318,2.088,10.875,0.66,0.3828,-0.09375,0.181,0.02132,3.117,3.0,2.0,11.0,0.0,0.0,0.0,180.0
1738223520159235000,0,0,0,0,0,0,0,0,0,3.318,2.088,10.875,0.66,0.3828,-0.09375,0.181,0.02132,3.117,3.0,2.0,11.0,0.0,0.0,0.0,180.0
1738223520209211349,0,0,0,0,0,0,0,0,0,3.398,2.125,10.88,0.75,0.3477,-0.08984,0.1833,0.00935,3.117,3.0,2.0,11.0,0.0,0.0,0.0,180.0
1738223520259229421,0,0,0,0,0,0,0,0,0,3.453,2.148,10.88,0.621,0.2422,-0.03906,0.1975,-0.03662,3.12,3.0,2.0,11.0,0.0,0.0,0.0,180.0
1738223520309211969,0,0,0,0,0,0,0,0,0,3.479,2.154,10.89,0.6016,0.1602,-0.02344,0.2029,-0.05774,3.117,3.0,2.0,11.0,0.0,0.0,0.0,180.0
1738223520359220504,0,0,0,0,0,0,0,0,0,3.498,2.16,10.89,0.5586,0.1328,-0.02344,0.2081,-0.066,3.12,3.0,2.0,11.0,0.0,0.0,0.0,180.0
1738223520409228324,0,0,0,0,0,0,0,0,0,3.498,2.16,10.89,0.5586,0.1328,-0.02344,0.2081,-0.066,3.12,3.0,2.0,11.0,0.0,0.0,0.0,180.0
1738223520459225416,0,0,0,0,0,0,0,0,0,3.547,2.17,10.9,0.508,0.10547,-0.02734,0.2103,-0.07275,3.12,3.0,2.0,11.0,0.0,0.0,0.0,180.0
1738223520509229898,0,0,0,0,0,0,0,0,0,3.574,2.174,10.91,0.3516,0.02734,-0.0625,0.2107,-0.0807,3.121,3.0,2.0,11.0,0.0,0.0,0.0,180.0
1738223520559216499,0,0,0,0,0,0,0,0,0,3.584,2.172,10.92,0.2383,-0.02344,-0.04688,0.2083,-0.08887,3.121,3.0,2.0,11.0,0.0,0.0,0.0,180.0
1738223520609214067,0,0,0,0,0,0,0,0,0,3.598,2.168,10.94,0.1875,-0.08203,-0.0742,0.204,-0.09656,3.121,3.0,2.0,11.0,0.0,0.0,0.0,180.0
1738223520659232616,0,0,0,0,0,0,0,0,0,3.604,2.164,10.93,0.1211,-0.10547,-0.10547,0.2031,-0.0963,3.121,3.0,2.0,11.0,0.0,0.0,0.0,180.0
1738223520709226131,0,0,0,0,0,0,0,0,0,3.607,2.156,10.93,0.0664,-0.168,-0.1289,0.2007,-0.08905,3.121,3.0,2.0,11.0,0.0,0.0,0.0,180.0
1738223520759205102,0,0,0,0,0,0,0,0,0,3.607,2.148,10.93,0.01953,-0.1836,-0.1445,0.197,-0.0855,3.121,3.0,2.0,11.0,0.0,0.0,0.0,180.0
1738223520809187650,0,0,0,0,0,0,0,0,0,3.605,2.135,10.94,-0.08594,-0.2188,-0.1562,0.1907,-0.08185,3.121,3.0,2.0,11.0,0.0,0.0,0.0,180.0
1738223520859224081,0,0,0,0,0,0,0,0,0,3.6,2.127,10.94,-0.1289,-0.2305,-0.1641,0.1857,-0.0764,3.123,3.0,2.0,11.0,0.0,0.0,0.0,180.0
1738223520909224271,0,0,0,0,0,0,0,0,0,3.59,2.113,10.93,-0.1641,-0.2695,-0.1758,0.1765,-0.0568,3.123,3.0,2.0,11.0,0.0,0.0,0.0,180.0
1738223520959232807,0,0,0,0,0,0,0,0,0,3.582,2.102,10.92,-0.1992,-0.2812,-0.1875,0.1748,-0.0485,3.125,3.0,2.0,11.0,0.0,0.0,0.0,180.0
1738223521009238719,0,0,0,0,0,0,0,0,0,3.566,2.082,10.92,-0.2461,-0.3125,-0.1758,0.1638,-0.01933,3.123,3.0,2.0,11.0,0.0,0.0,0.0,180.0
1738223521059228897,0,0,0,0,0,0,0,0,0,3.557,2.068,10.914,-0.2656,-0.3203,-0.1641,0.1594,-0.01131,3.121,3.0,2.0,11.0,0.0,0.0,0.0,180.0
1738223521109221935,0,0,0,0,0,0,0,0,0,3.541,2.049,10.91,-0.2305,-0.3516,-0.1289,0.1416,-0.007187,3.117,3.0,2.0,11.0,0.0,0.0,0.0,180.0
1738223521159236431,0,0,0,0,0,0,0,0,0,3.533,2.04,10.9,-0.25,-0.3438,-0.1172,0.1266,-0.00675,3.117,3.0,2.0,11.0,0.0,0.0,0.0,180.0
1738223521209233999,0,0,0,0,0,0,0,0,0,3.514,2.016,10.89,-0.2969,-0.336,-0.08203,0.1052,-0.005917,3.117,3.0,2.0,11.0,0.0,0.0,0.0,180.0
1738223521259232044,0,0,0,0,0,0,0,0,0,3.498,2.0,10.89,-0.3242,-0.3242,-0.0586,0.0967,-0.00623,3.117,3.0,2.0,11.0,0.0,0.0,0.0,180.0
1738223521309221744,0,0,0,0,0,0,0,0,0,3.482,1.983,10.91,-0.2734,-0.3047,-0.03125,0.0801,0.000929,3.12,3.0,2.0,11.0,0.0,0.0,0.0,180.0
1738223521359218358,0,0,0,0,0,0,0,0,0,3.469,1.97,10.91,-0.2852,-0.289,-0.04297,0.08185,0.00837,3.12,3.0,2.0,11.0,0.0,0.0,0.0,180.0
1738223521409230709,0,0,0,0,0,0,0,0,0,3.453,1.954,10.91,-0.2969,-0.2812,-0.04688,0.0909,0.02852,3.117,3.0,2.0,11.0,0.0,0.0,0.0,180.0
1738223521459218978,0,0,0,0,0,0,0,0,0,3.443,1.945,10.91,-0.2969,-0.2812,-0.03906,0.0922,0.0352,3.115,3.0,2.0,11.0,0.0,0.0,0.0,180.0
1738223521509232044,0,0,0,0,0,0,0,0,0,3.424,1.928,10.9,-0.3008,-0.2578,-0.02344,0.08325,0.0401,3.115,3.0,2.0,11.0,0.0,0.0,0.0,180.0
1738223521559219121,0,0,0,0,0,0,0,0,0,3.412,1.919,10.89,-0.3086,-0.2461,-0.01172,0.0807,0.0404,3.115,3.0,2.0,11.0,0.0,0.0,0.0,180.0
1738223521609233379,0,0,0,0,0,0,0,0,0,3.398,1.904,10.89,-0.2344,-0.2188,0.01953,0.0602,0.04514,3.115,3.0,2.0,11.0,0.0,0.0,0.0,180.0
1738223521659212827,0,0,0,0,0,0,0,0,0,3.398,1.904,10.89,-0.2344,-0.2188,0.01953,0.0602,0.04514,3.115,3.0,2.0,11.0,0.0,0.0,0.0,180.0
1738223521709215164,0,0,0,0,0,0,0,0,0,3.398,1.904,10.89,-0.2344,-0.2188,0.01953,0.0602,0.04514,3.115,3.0,2.0,11.0,0.0,0.0,0.0,180.0
1738223521759222030,0,0,0,0,0,0,0,0,0,3.363,1.877,10.89,-0.2344,-0.168,0.02344,0.05075,0.04642,3.117,3.0,2.0,11.0,0.0,0.0,0.0,180.0