time,x_sphinx,y_sphinx,z_sphinx,vx_sphinx,vy_sphinx,vz_sphinx,roll_sphinx,pitch_sphinx,yaw_sphinx,x_anafi,y_anafi,z_anafi,vx_anafi,vy_anafi,vz_anafi,roll_anafi,pitch_anafi,yaw_anafi,wp_x,wp_y,wp_z,wp_vx,wp_vy,wp_vz,wp_yaw
1738228988024050235,0,0,0,0,0,0,0,0,0,2.979,0.1345,8.984,0.08594,-0.0742,0.9805,-0.07404,0.1742,0.03387,3.0,0.0,9.94,-0.0,0.0,0.9995,0.0
1738228988074042797,0,0,0,0,0,0,0,0,0,2.98,0.1317,9.02,0.0781,-0.0703,0.9844,-0.07227,0.1779,0.03403,3.0,0.0,10.0,-0.0,0.0,1.0,0.0
1738228988124045372,0,0,0,0,0,0,0,0,0,2.982,0.1295,9.07,0.03125,-0.05078,0.953,-0.07697,0.1882,0.03348,3.0,0.0,10.0,-0.0,0.0,1.0,0.0
1738228988174058914,0,0,0,0,0,0,0,0,0,2.984,0.1262,9.13,0.007812,-0.04297,0.9727,-0.0759,0.196,0.03537,3.0,0.0,10.1,-0.0,0.0,0.9985,0.0
1738228988224049091,0,0,0,0,0,0,0,0,0,2.984,0.12494,9.164,0.0,-0.03906,0.9883,-0.07495,0.1958,0.03424,3.0,0.0,10.1,-0.0,0.0,0.9985,0.0
1738228988274047374,0,0,0,0,0,0,0,0,0,2.982,0.1234,9.2,-0.01172,-0.03125,0.996,-0.07336,0.1951,0.0338,3.0,0.0,10.2,-0.0,0.0,0.995,0.0
1738228988324150323,0,0,0,0,0,0,0,0,0,2.982,0.12225,9.26,-0.02344,-0.02344,0.996,-0.07635,0.1923,0.03534,3.0,0.0,10.2,-0.0,0.0,0.995,0.0
1738228988374161243,0,0,0,0,0,0,0,0,0,2.982,0.12195,9.31,-0.01172,-0.003906,0.992,-0.0817,0.1888,0.03717,3.0,0.0,10.3,-0.0,0.0,0.989,0.0
1738228988424070596,0,0,0,0,0,0,0,0,0,2.98,0.1218,9.35,-0.01563,-0.003906,0.9883,-0.0831,0.188,0.03696,3.0,0.0,10.3,-0.0,0.0,0.989,0.0
1738228988474086761,0,0,0,0,0,0,0,0,0,2.98,0.1218,9.39,-0.01563,0.0,0.9766,-0.0832,0.1863,0.03665,3.0,0.0,10.4,-0.0,0.0,0.98,0.0
1738228988524057626,0,0,0,0,0,0,0,0,0,2.98,0.1218,9.44,-0.003906,0.0,0.961,-0.0831,0.1864,0.0369,3.0,0.0,10.4,-0.0,0.0,0.98,0.0
1738228988574055433,0,0,0,0,0,0,0,0,0,2.98,0.1218,9.44,-0.003906,0.0,0.961,-0.0831,0.1864,0.0369,3.0,0.0,10.49,-0.0,0.0,0.9688,0.0
1738228988624034166,0,0,0,0,0,0,0,0,0,2.98,0.1218,9.44,-0.003906,0.0,0.961,-0.0831,0.1864,0.0369,3.0,0.0,10.49,-0.0,0.0,0.9688,0.0
1738228988674078941,0,0,0,0,0,0,0,0,0,2.979,0.1225,9.51,-0.01172,0.01172,0.957,-0.08545,0.1909,0.03638,3.0,0.0,10.59,-0.0,0.0,0.9556,0.0
1738228988724049329,0,0,0,0,0,0,0,0,0,2.977,0.1228,9.62,-0.04297,0.0,0.961,-0.10266,0.1838,0.03717,3.0,0.0,10.59,-0.0,0.0,0.9556,0.0
1738228988774062156,0,0,0,0,0,0,0,0,0,2.975,0.12244,9.69,-0.05078,-0.01172,0.965,-0.10297,0.1853,0.0367,3.0,0.0,10.69,-0.0,0.0,0.9395,0.0
1738228988824045658,0,0,0,0,0,0,0,0,0,2.973,0.122,9.72,-0.05078,-0.01563,0.965,-0.1032,0.187,0.03635,3.0,0.0,10.69,-0.0,0.0,0.9395,0.0
1738228988874059677,0,0,0,0,0,0,0,0,0,2.97,0.12103,9.75,-0.0547,-0.01953,0.9688,-0.102,0.1893,0.03696,3.0,0.0,10.78,-0.0,0.0,0.921,0.0
1738228988924037694,0,0,0,0,0,0,0,0,0,2.97,0.12103,9.75,-0.0547,-0.01953,0.9688,-0.102,0.1893,0.03696,3.0,0.0,10.78,-0.0,0.0,0.921,0.0
1738228988974056243,0,0,0,0,0,0,0,0,0,2.963,0.1183,9.77,-0.08203,-0.02734,0.9805,-0.0996,0.191,0.03723,3.0,0.0,10.87,-0.0,0.0,0.9004,0.0
1738228989024054288,0,0,0,0,0,0,0,0,0,2.955,0.11584,9.875,-0.10156,-0.03516,1.039,-0.095,0.1868,0.03543,3.0,0.0,10.87,-0.0,0.0,0.9004,0.0
1738228989074061155,0,0,0,0,0,0,0,0,0,2.95,0.1144,9.984,-0.10547,-0.01953,1.027,-0.08246,0.1803,0.03488,3.0,0.0,10.96,-0.0,0.0,0.8774,0.0
1738228989124053716,0,0,0,0,0,0,0,0,0,2.945,0.1139,10.016,-0.10547,-0.01563,0.996,-0.0848,0.182,0.03336,3.0,0.0,10.96,-0.0,0.0,0.8774,0.0
1738228989174055099,0,0,0,0,0,0,0,0,0,2.94,0.1129,10.08,-0.10547,-0.01563,0.992,-0.0954,0.1821,0.034,3.0,0.0,11.05,-0.0,0.0,0.8525,0.0
1738228989224052667,0,0,0,0,0,0,0,0,0,2.936,0.11237,10.12,-0.10547,-0.01563,1.0,-0.0953,0.1793,0.0356,3.0,0.0,11.05,-0.0,0.0,0.8525,0.0
1738228989274052858,0,0,0,0,0,0,0,0,0,2.93,0.1114,10.18,-0.10156,-0.01563,1.0,-0.09515,0.1746,0.0346,3.0,0.0,11.13,-0.0,0.0,0.825,0.0
1738228989324047803,0,0,0,0,0,0,0,0,0,2.926,0.1107,10.22,-0.09766,-0.01563,0.996,-0.0973,0.1731,0.03424,3.0,0.0,11.13,-0.0,0.0,0.825,0.0
1738228989374063968,0,0,0,0,0,0,0,0,0,2.92,0.1112,10.28,-0.08203,0.007812,0.9844,-0.0996,0.1697,0.0341,3.0,0.0,11.21,-0.0,0.0,0.796,0.0
1738228989424043178,0,0,0,0,0,0,0,0,0,2.918,0.1113,10.32,-0.0781,0.003906,0.9766,-0.1014,0.1682,0.03366,3.0,0.0,11.21,-0.0,0.0,0.796,0.0
1738228989474052667,0,0,0,0,0,0,0,0,0,2.914,0.1115,10.34,-0.0703,0.003906,0.9688,-0.10156,0.1677,0.03305,3.0,0.0,11.29,-0.0,0.0,0.7646,0.0
1738228989524044990,0,0,0,0,0,0,0,0,0,2.91,0.1113,10.414,-0.0586,-0.007812,0.9297,-0.10547,0.1671,0.0331,3.0,0.0,11.29,-0.0,0.0,0.7646,0.0
1738228989574052095,0,0,0,0,0,0,0,0,0,2.906,0.1107,10.46,-0.05078,-0.01172,0.922,-0.1079,0.1672,0.0345,3.0,0.0,11.36,-0.0,0.0,0.7314,0.0
1738228989624042749,0,0,0,0,0,0,0,0,0,2.906,0.1099,10.5,-0.03906,-0.01953,0.926,-0.10626,0.1656,0.03546,3.0,0.0,11.36,-0.0,0.0,0.7314,0.0
1738228989674055099,0,0,0,0,0,0,0,0,0,2.906,0.1099,10.5,-0.03906,-0.01953,0.926,-0.10626,0.1656,0.03546,3.0,0.0,11.44,-0.0,0.0,0.697,0.0
1738228989724031925,0,0,0,0,0,0,0,0,0,2.906,0.1099,10.5,-0.03906,-0.01953,0.926,-0.10626,0.1656,0.03546,3.0,0.0,11.44,-0.0,0.0,0.697,0.0
1738228989774053096,0,0,0,0,0,0,0,0,0,2.906,0.108,10.586,0.003906,-0.01563,0.91,-0.1005,0.1586,0.03506,3.0,0.0,11.5,-0.0,0.0,0.66,0.0
1738228989824048042,0,0,0,0,0,0,0,0,0,2.906,0.1074,10.68,0.03125,-0.01563,0.8906,-0.09686,0.1584,0.03497,3.0,0.0,11.5,-0.0,0.0,0.66,0.0
1738228989874063014,0,0,0,0,0,0,0,0,0,2.91,0.1064,10.74,0.0547,-0.02344,0.871,-0.09186,0.1615,0.03387,3.0,0.0,11.57,-0.0,0.0,0.6216,0.0
1738228989924054622,0,0,0,0,0,0,0,0,0,2.912,0.10547,10.77,0.0625,-0.02734,0.867,-0.09094,0.1638,0.03433,3.0,0.0,11.57,-0.0,0.0,0.6216,0.0
1738228989974056720,0,0,0,0,0,0,0,0,0,2.916,0.1039,10.83,0.0664,-0.02734,0.871,-0.0906,0.1638,0.03534,3.0,0.0,11.625,-0.0,0.0,0.5815,0.0
1738228990024045705,0,0,0,0,0,0,0,0,0,2.918,0.10254,10.86,0.0703,-0.03125,0.879,-0.0914,0.1622,0.0355,3.0,0.0,11.625,-0.0,0.0,0.5815,0.0
1738228990074061393,0,0,0,0,0,0,0,0,0,2.922,0.1013,10.89,0.0742,-0.03516,0.879,-0.09503,0.1606,0.0355,3.0,0.0,11.68,-0.0,0.0,0.5405,0.0
1738228990124047517,0,0,0,0,0,0,0,0,0,2.926,0.0983,10.96,0.0781,-0.05078,0.8906,-0.1018,0.1633,0.03482,3.0,0.0,11.68,-0.0,0.0,0.5405,0.0
1738228990174045324,0,0,0,0,0,0,0,0,0,2.932,0.0948,11.016,0.08594,-0.0547,0.8555,-0.10034,0.1694,0.03528,3.0,0.0,11.734,-0.0,0.0,0.4976,0.0
1738228990224038839,0,0,0,0,0,0,0,0,0,2.936,0.0928,11.04,0.08984,-0.0586,0.828,-0.1014,0.1746,0.03543,3.0,0.0,11.734,-0.0,0.0,0.4976,0.0
1738228990274053812,0,0,0,0,0,0,0,0,0,2.938,0.09045,11.07,0.09375,-0.0664,0.8086,-0.1026,0.1788,0.03595,3.0,0.0,11.78,-0.0,0.0,0.4536,0.0
1738228990324040889,0,0,0,0,0,0,0,0,0,2.945,0.08527,11.12,0.10547,-0.0781,0.7734,-0.09784,0.1797,0.0372,3.0,0.0,11.78,-0.0,0.0,0.4536,0.0
1738228990374051809,0,0,0,0,0,0,0,0,0,2.951,0.0792,11.17,0.1211,-0.10547,0.742,-0.09534,0.1763,0.0356,3.0,0.0,11.83,-0.0,0.0,0.4084,0.0
1738228990424047470,0,0,0,0,0,0,0,0,0,2.957,0.0755,11.195,0.125,-0.1133,0.7305,-0.0946,0.1759,0.03546,3.0,0.0,11.83,-0.0,0.0,0.4084,0.0
1738228990474070787,0,0,0,0,0,0,0,0,0,2.96,0.07117,11.21,0.1289,-0.1133,0.7227,-0.0929,0.178,0.03516,3.0,0.0,11.87,-0.0,0.0,0.3623,0.0
1738228990524049043,0,0,0,0,0,0,0,0,0,2.97,0.06134,11.26,0.1211,-0.1328,0.6797,-0.08716,0.1849,0.03375,3.0,0.0,11.87,-0.0,0.0,0.3623,0.0
1738228990574056148,0,0,0,0,0,0,0,0,0,2.975,0.05627,11.28,0.1211,-0.1328,0.668,-0.08813,0.1888,0.0329,3.0,0.0,11.9,-0.0,0.0,0.3154,0.0
1738228990624047279,0,0,0,0,0,0,0,0,0,2.98,0.04974,11.32,0.10156,-0.1328,0.66,-0.0845,0.195,0.032,3.0,0.0,11.9,-0.0,0.0,0.3154,0.0
1738228990674052953,0,0,0,0,0,0,0,0,0,2.984,0.0444,11.34,0.09766,-0.1328,0.66,-0.08325,0.1963,0.03207,3.0,0.0,11.93,-0.0,0.0,0.2676,0.0
1738228990724046707,0,0,0,0,0,0,0,0,0,2.988,0.03717,11.38,0.0703,-0.1172,0.6445,-0.0785,0.1971,0.03128,3.0,0.0,11.93,-0.0,0.0,0.2676,0.0
1738228990774059057,0,0,0,0,0,0,0,0,0,2.99,0.03207,11.41,0.0625,-0.1094,0.6406,-0.07404,0.1986,0.0318,3.0,0.0,11.95,-0.0,0.0,0.219,0.0
1738228990824046373,0,0,0,0,0,0,0,0,0,2.994,0.02629,11.45,0.04688,-0.09766,0.617,-0.07135,0.1993,0.03238,3.0,0.0,11.95,-0.0,0.0,0.219,0.0
1738228990874063253,0,0,0,0,0,0,0,0,0,2.994,0.02347,11.47,0.03516,-0.09375,0.6133,-0.0703,0.1992,0.03336,3.0,0.0,11.97,-0.0,0.0,0.1699,0.0
1738228990924047470,0,0,0,0,0,0,0,0,0,2.998,0.01872,11.516,0.03516,-0.0625,0.6055,-0.065,0.1967,0.03384,3.0,0.0,11.97,-0.0,0.0,0.1699,0.0
1738228990974048137,0,0,0,0,0,0,0,0,0,3.0,0.01651,11.54,0.03125,-0.0547,0.5938,-0.06247,0.1956,0.03363,3.0,0.0,11.984,-0.0,0.0,0.1205,0.0
1738228991024044036,0,0,0,0,0,0,0,0,0,3.0,0.01415,11.58,0.01953,-0.03906,0.551,-0.06122,0.1958,0.03387,3.0,0.0,11.984,-0.0,0.0,0.1205,0.0
1738228991074055910,0,0,0,0,0,0,0,0,0,3.0,0.012924,11.59,0.01172,-0.02734,0.539,-0.06097,0.1958,0.03378,3.0,0.0,11.99,-0.0,0.0,0.07074,0.0
1738228991124033212,0,0,0,0,0,0,0,0,0,3.002,0.012375,11.63,0.003906,-0.007812,0.5117,-0.0611,0.1946,0.03268,3.0,0.0,11.99,-0.0,0.0,0.07074,0.0
1738228991174052953,0,0,0,0,0,0,0,0,0,3.002,0.01223,11.65,0.0,-0.003906,0.496,-0.0639,0.1926,0.03296,3.0,0.0,12.0,-0.0,0.0,0.0208,0.0
1738228991224033832,0,0,0,0,0,0,0,0,0,3.002,0.01223,11.68,-0.003906,0.0,0.461,-0.0699,0.1865,0.0343,3.0,0.0,12.0,-0.0,0.0,0.0208,0.0
1738228991274051666,0,0,0,0,0,0,0,0,0,3.002,0.01242,11.695,0.0,0.003906,0.4531,-0.0714,0.184,0.03427,3.0,0.0,12.0,-0.0,0.0,-0.0292,0.0
1738228991324032783,0,0,0,0,0,0,0,0,0,3.002,0.01266,11.72,0.0,0.003906,0.418,-0.0728,0.1774,0.03473,3.0,0.0,12.0,-0.0,0.0,-0.0292,0.0
1738228991374054670,0,0,0,0,0,0,0,0,0,3.0,0.01312,11.75,-0.007812,0.007812,0.4023,-0.0746,0.1754,0.03452,3.0,0.0,11.99,-0.0,0.0,-0.0791,0.0
1738228991424036502,0,0,0,0,0,0,0,0,0,3.0,0.01336,11.76,-0.007812,0.007812,0.3984,-0.07434,0.1752,0.03442,3.0,0.0,11.99,-0.0,0.0,-0.0791,0.0
1738228991474053382,0,0,0,0,0,0,0,0,0,3.0,0.01383,11.77,-0.01172,0.007812,0.3945,-0.07324,0.1748,0.03455,3.0,0.0,11.984,-0.0,0.0,-0.1288,0.0
1738228991524053573,0,0,0,0,0,0,0,0,0,2.998,0.013565,11.79,-0.03906,-0.01172,0.379,-0.0709,0.1748,0.034,3.0,0.0,11.984,-0.0,0.0,-0.1288,0.0
1738228991574046134,0,0,0,0,0,0,0,0,0,2.996,0.013176,11.81,-0.04297,-0.003906,0.375,-0.0654,0.1749,0.03278,3.0,0.0,11.97,-0.0,0.0,-0.1782,0.0
1738228991624023199,0,0,0,0,0,0,0,0,0,2.994,0.013176,11.83,-0.03516,0.0,0.3438,-0.05954,0.1703,0.03488,3.0,0.0,11.97,-0.0,0.0,-0.1782,0.0
1738228991674042940,0,0,0,0,0,0,0,0,0,2.992,0.01338,11.836,-0.03125,0.003906,0.3281,-0.05975,0.1698,0.03647,3.0,0.0,11.945,-0.0,0.0,-0.2272,0.0
1738228991724050760,0,0,0,0,0,0,0,0,0,2.992,0.01382,11.85,-0.02344,0.01172,0.3125,-0.06064,0.1703,0.03613,3.0,0.0,11.945,-0.0,0.0,-0.2272,0.0
1738228991774071216,0,0,0,0,0,0,0,0,0,2.99,0.01466,11.87,-0.02344,0.01953,0.3047,-0.06097,0.1714,0.03485,3.0,0.0,11.92,-0.0,0.0,-0.2756,0.0
1738228991824046134,0,0,0,0,0,0,0,0,0,2.988,0.01616,11.88,-0.02344,0.02734,0.2773,-0.05936,0.1744,0.03317,3.0,0.0,11.92,-0.0,0.0,-0.2756,0.0
1738228991874053716,0,0,0,0,0,0,0,0,0,2.988,0.01817,11.9,-0.02734,0.04297,0.254,-0.06064,0.1761,0.03387,3.0,0.0,11.89,-0.0,0.0,-0.3232,0.0
1738228991924048423,0,0,0,0,0,0,0,0,0,2.986,0.02155,11.92,-0.02344,0.0742,0.1953,-0.05884,0.1797,0.0315,3.0,0.0,11.89,-0.0,0.0,-0.3232,0.0
1738228991974056005,0,0,0,0,0,0,0,0,0,2.986,0.02563,11.93,-0.02344,0.08203,0.1562,-0.06073,0.1818,0.03198,3.0,0.0,11.86,-0.0,0.0,-0.37,0.0
1738228992024064540,0,0,0,0,0,0,0,0,0,2.984,0.03098,11.945,-0.03125,0.09766,0.1094,-0.06616,0.1749,0.03394,3.0,0.0,11.86,-0.0,0.0,-0.37,0.0
1738228992074049711,0,0,0,0,0,0,0,0,0,2.984,0.03098,11.945,-0.03125,0.09766,0.1094,-0.06616,0.1749,0.03394,3.0,0.0,11.82,-0.0,0.0,-0.4163,0.0
1738228992124042510,0,0,0,0,0,0,0,0,0,2.98,0.04102,11.945,-0.03125,0.10156,0.08984,-0.06573,0.1724,0.0338,3.0,0.0,11.82,-0.0,0.0,-0.4163,0.0
1738228992174056768,0,0,0,0,0,0,0,0,0,2.979,0.04822,11.96,-0.03516,0.125,0.0586,-0.05817,0.1625,0.03656,3.0,0.0,11.77,-0.0,0.0,-0.4612,0.0
1738228992224056243,0,0,0,0,0,0,0,0,0,2.979,0.05267,11.96,-0.02344,0.125,0.01172,-0.06088,0.1577,0.0356,3.0,0.0,11.77,-0.0,0.0,-0.4612,0.0
1738228992274051666,0,0,0,0,0,0,0,0,0,2.977,0.0576,11.96,-0.01953,0.125,-0.0,-0.06445,0.1575,0.03546,3.0,0.0,11.73,-0.0,0.0,-0.505,0.0
1738228992324046373,0,0,0,0,0,0,0,0,0,2.977,0.0653,11.96,-0.01172,0.125,-0.01953,-0.0716,0.1544,0.0356,3.0,0.0,11.73,-0.0,0.0,-0.505,0.0
1738228992374497652,0,0,0,0,0,0,0,0,0,2.977,0.0738,11.96,-0.003906,0.1211,-0.0547,-0.07367,0.1537,0.03427,3.0,0.0,11.67,-0.0,0.0,-0.5474,0.0
1738228992424065113,0,0,0,0,0,0,0,0,0,2.977,0.0769,11.96,0.0,0.125,-0.0703,-0.0748,0.1547,0.03488,3.0,0.0,11.67,-0.0,0.0,-0.5474,0.0
1738228992474066495,0,0,0,0,0,0,0,0,0,2.977,0.0854,11.95,0.01563,0.1133,-0.1133,-0.07996,0.1539,0.03525,3.0,0.0,11.62,-0.0,0.0,-0.5884,0.0
1738228992524025678,0,0,0,0,0,0,0,0,0,2.977,0.0854,11.95,0.01563,0.1133,-0.1133,-0.07996,0.1539,0.03525,3.0,0.0,11.62,-0.0,0.0,-0.5884,0.0
1738228992574044942,0,0,0,0,0,0,0,0,0,2.977,0.0854,11.95,0.01563,0.1133,-0.1133,-0.07996,0.1539,0.03525,3.0,0.0,11.555,-0.0,0.0,-0.628,0.0
1738228992624043941,0,0,0,0,0,0,0,0,0,2.979,0.0995,11.95,0.01953,0.1094,-0.1367,-0.08185,0.1552,0.03458,3.0,0.0,11.555,-0.0,0.0,-0.628,0.0
1738228992674038887,0,0,0,0,0,0,0,0,0,2.98,0.10443,11.93,0.04297,0.09766,-0.207,-0.0836,0.1603,0.0342,3.0,0.0,11.49,-0.0,0.0,-0.6665,0.0
1738228992724057197,0,0,0,0,0,0,0,0,0,2.984,0.10986,11.914,0.0586,0.08594,-0.2305,-0.07794,0.1595,0.03506,3.0,0.0,11.49,-0.0,0.0,-0.6665,0.0
1738228992774044513,0,0,0,0,0,0,0,0,0,2.988,0.11426,11.9,0.0664,0.0781,-0.2617,-0.08307,0.16,0.03366,3.0,0.0,11.42,-0.0,0.0,-0.7026,0.0
1738228992824060201,0,0,0,0,0,0,0,0,0,2.99,0.1174,11.89,0.0664,0.0703,-0.2734,-0.08374,0.1621,0.03375,3.0,0.0,11.42,-0.0,0.0,-0.7026,0.0
1738228992874032020,0,0,0,0,0,0,0,0,0,2.994,0.12164,11.87,0.0742,0.0664,-0.3008,-0.0861,0.1631,0.03464,3.0,0.0,11.35,-0.0,0.0,-0.7373,0.0
1738228992924045562,0,0,0,0,0,0,0,0,0,2.998,0.1236,11.85,0.0742,0.0586,-0.3164,-0.0883,0.163,0.03485,3.0,0.0,11.35,-0.0,0.0,-0.7373,0.0
1738228992974052190,0,0,0,0,0,0,0,0,0,3.002,0.1268,11.836,0.0742,0.04688,-0.336,-0.0882,0.162,0.0339,3.0,0.0,11.27,-0.0,0.0,-0.77,0.0
1738228993024020910,0,0,0,0,0,0,0,0,0,3.002,0.1268,11.836,0.0742,0.04688,-0.336,-0.0882,0.162,0.0339,3.0,0.0,11.27,-0.0,0.0,-0.77,0.0
1738228993074037790,0,0,0,0,0,0,0,0,0,3.008,0.1301,11.81,0.0742,0.03906,-0.3633,-0.08405,0.1627,0.03445,3.0,0.0,11.195,-0.0,0.0,-0.8013,0.0
1738228993124026775,0,0,0,0,0,0,0,0,0,3.014,0.1327,11.8,0.0664,0.03906,-0.4219,-0.0803,0.1697,0.03546,3.0,0.0,11.195,-0.0,0.0,-0.8013,0.0
1738228993174103736,0,0,0,0,0,0,0,0,0,3.016,0.1345,11.78,0.0664,0.03516,-0.4805,-0.0835,0.1715,0.0339,3.0,0.0,11.12,-0.0,0.0,-0.83,0.0
1738228993224066257,0,0,0,0,0,0,0,0,0,3.02,0.1355,11.766,0.0625,0.02344,-0.5156,-0.0855,0.1727,0.0343,3.0,0.0,11.12,-0.0,0.0,-0.83,0.0
1738228993274055719,0,0,0,0,0,0,0,0,0,3.02,0.1355,11.766,0.0625,0.02344,-0.5156,-0.0855,0.1727,0.0343,3.0,0.0,11.03,-0.0,0.0,-0.857,0.0
1738228993324031114,0,0,0,0,0,0,0,0,0,3.023,0.1372,11.74,0.0586,0.01953,-0.5703,-0.0894,0.1702,0.03543,3.0,0.0,11.03,-0.0,0.0,-0.857,0.0
1738228993374046325,0,0,0,0,0,0,0,0,0,3.027,0.1383,11.7,0.0586,0.003906,-0.617,-0.09174,0.1696,0.0339,3.0,0.0,10.945,-0.0,0.0,-0.8813,0.0
1738228993424054622,0,0,0,0,0,0,0,0,0,3.031,0.1382,11.664,0.0703,-0.003906,-0.6367,-0.093,0.1592,0.03647,3.0,0.0,10.945,-0.0,0.0,-0.8813,0.0
1738228993474045038,0,0,0,0,0,0,0,0,0,3.035,0.1376,11.65,0.0781,-0.01172,-0.6406,-0.08887,0.1525,0.0361,3.0,0.0,10.85,-0.0,0.0,-0.9043,0.0
1738228993524049043,0,0,0,0,0,0,0,0,0,3.04,0.1362,11.6,0.0742,-0.02734,-0.6484,-0.0831,0.1526,0.03543,3.0,0.0,10.85,-0.0,0.0,-0.9043,0.0
1738228993574042320,0,0,0,0,0,0,0,0,0,3.043,0.1346,11.555,0.08203,-0.02734,-0.672,-0.0752,0.1584,0.03546,3.0,0.0,10.766,-0.0,0.0,-0.9243,0.0
1738228993624039888,0,0,0,0,0,0,0,0,0,3.047,0.1335,11.54,0.08203,-0.02734,-0.6914,-0.0728,0.1644,0.03555,3.0,0.0,10.766,-0.0,0.0,-0.9243,0.0
1738228993674079895,0,0,0,0,0,0,0,0,0,3.05,0.1323,11.516,0.08203,-0.03125,-0.703,-0.0724,0.171,0.03525,3.0,0.0,10.67,-0.0,0.0,-0.9424,0.0
1738228993724058151,0,0,0,0,0,0,0,0,0,3.055,0.1304,11.47,0.0703,-0.03516,-0.7305,-0.07715,0.1753,0.0343,3.0,0.0,10.67,-0.0,0.0,-0.9424,0.0
1738228993774129629,0,0,0,0,0,0,0,0,0,3.059,0.1276,11.42,0.0703,-0.04688,-0.742,-0.08307,0.1746,0.03394,3.0,0.0,10.58,-0.0,0.0,-0.958,0.0
1738228993824054718,0,0,0,0,0,0,0,0,0,3.059,0.1276,11.42,0.0703,-0.04688,-0.742,-0.08307,0.1746,0.03394,3.0,0.0,10.58,-0.0,0.0,-0.958,0.0
1738228993874056100,0,0,0,0,0,0,0,0,0,3.064,0.1232,11.37,0.0742,-0.0586,-0.7344,-0.0874,0.1707,0.03445,3.0,0.0,10.48,-0.0,0.0,-0.971,0.0
1738228993924058675,0,0,0,0,0,0,0,0,0,3.068,0.1184,11.31,0.0742,-0.08203,-0.742,-0.0871,0.1744,0.0347,3.0,0.0,10.48,-0.0,0.0,-0.971,0.0
1738228993974072217,0,0,0,0,0,0,0,0,0,3.072,0.1147,11.29,0.0742,-0.08594,-0.7383,-0.08466,0.1771,0.03516,3.0,0.0,10.38,-0.0,0.0,-0.982,0.0
1738228994024080276,0,0,0,0,0,0,0,0,0,3.074,0.1129,11.26,0.0742,-0.08594,-0.746,-0.081,0.1788,0.03604,3.0,0.0,10.38,-0.0,0.0,-0.982,0.0
1738228994074070215,0,0,0,0,0,0,0,0,0,3.074,0.1129,11.26,0.0742,-0.08594,-0.746,-0.081,0.1788,0.03604,3.0,0.0,10.28,-0.0,0.0,-0.99,0.0
1738228994124041557,0,0,0,0,0,0,0,0,0,3.084,0.10144,11.22,0.0703,-0.08594,-0.7617,-0.07385,0.184,0.03427,3.0,0.0,10.28,-0.0,0.0,-0.99,0.0
1738228994174054384,0,0,0,0,0,0,0,0,0,3.086,0.0966,11.12,0.0586,-0.08594,-0.8164,-0.0714,0.1885,0.03336,3.0,0.0,10.18,-0.0,0.0,-0.9956,0.0
1738228994224081516,0,0,0,0,0,0,0,0,0,3.088,0.0936,11.09,0.0547,-0.08984,-0.828,-0.07166,0.1895,0.03357,3.0,0.0,10.18,-0.0,0.0,-0.9956,0.0
1738228994274062395,0,0,0,0,0,0,0,0,0,3.09,0.09015,11.07,0.05078,-0.08984,-0.836,-0.071,0.1909,0.0337,3.0,0.0,10.086,-0.0,0.0,-0.999,0.0
1738228994324054718,0,0,0,0,0,0,0,0,0,3.092,0.08704,11.03,0.04297,-0.08984,-0.8438,-0.071,0.191,0.03406,3.0,0.0,10.086,-0.0,0.0,-0.999,0.0
1738228994374049186,0,0,0,0,0,0,0,0,0,3.092,0.08704,11.03,0.04297,-0.08984,-0.8438,-0.071,0.191,0.03406,3.0,0.0,9.984,-0.0,0.0,-1.0,0.0
1738228994424065828,0,0,0,0,0,0,0,0,0,3.098,0.0759,10.945,0.03516,-0.08203,-0.8633,-0.0678,0.1896,0.03366,3.0,0.0,9.984,-0.0,0.0,-1.0,0.0
1738228994474059820,0,0,0,0,0,0,0,0,0,3.1,0.0735,10.89,0.03125,-0.08203,-0.875,-0.06616,0.188,0.0345,3.0,0.0,9.88,-0.0,0.0,-0.9985,0.0
1738228994524051427,0,0,0,0,0,0,0,0,0,3.1,0.0682,10.836,0.01563,-0.09375,-0.8906,-0.06476,0.187,0.03403,3.0,0.0,9.88,-0.0,0.0,-0.9985,0.0
1738228994574059486,0,0,0,0,0,0,0,0,0,3.1,0.0619,10.77,0.003906,-0.09375,-0.8867,-0.06323,0.185,0.0334,3.0,0.0,9.78,-0.0,0.0,-0.994,0.0
1738228994624043464,0,0,0,0,0,0,0,0,0,3.1,0.0619,10.77,0.003906,-0.09375,-0.8867,-0.06323,0.185,0.0334,3.0,0.0,9.78,-0.0,0.0,-0.994,0.0
1738228994674065589,0,0,0,0,0,0,0,0,0,3.1,0.0619,10.77,0.003906,-0.09375,-0.8867,-0.06323,0.185,0.0334,3.0,0.0,9.69,-0.0,0.0,-0.9873,0.0
1738228994724060058,0,0,0,0,0,0,0,0,0,3.1,0.0482,10.69,-0.01953,-0.09766,-0.8984,-0.06015,0.1819,0.03412,3.0,0.0,9.69,-0.0,0.0,-0.9873,0.0
1738228994774058341,0,0,0,0,0,0,0,0,0,3.1,0.04514,10.625,-0.03125,-0.08984,-0.91,-0.05344,0.1843,0.0348,3.0,0.0,9.586,-0.0,0.0,-0.9785,0.0
1738228994824054002,0,0,0,0,0,0,0,0,0,3.096,0.0404,10.56,-0.04297,-0.08203,-0.91,-0.04837,0.1838,0.03406,3.0,0.0,9.586,-0.0,0.0,-0.9785,0.0
1738228994874055862,0,0,0,0,0,0,0,0,0,3.094,0.0368,10.52,-0.05078,-0.08203,-0.9023,-0.04642,0.1831,0.034,3.0,0.0,9.49,-0.0,0.0,-0.967,0.0
1738228994924064159,0,0,0,0,0,0,0,0,0,3.09,0.03244,10.45,-0.0664,-0.0781,-0.9023,-0.04507,0.1827,0.03387,3.0,0.0,9.49,-0.0,0.0,-0.967,0.0
1738228994974055051,0,0,0,0,0,0,0,0,0,3.088,0.03024,10.42,-0.0703,-0.0703,-0.8984,-0.04434,0.1823,0.03397,3.0,0.0,9.39,-0.0,0.0,-0.9526,0.0
1738228995024030447,0,0,0,0,0,0,0,0,0,3.088,0.03024,10.42,-0.0703,-0.0703,-0.8984,-0.04434,0.1823,0.03397,3.0,0.0,9.39,-0.0,0.0,-0.9526,0.0
1738228995074056148,0,0,0,0,0,0,0,0,0,3.088,0.03024,10.42,-0.0703,-0.0703,-0.8984,-0.04434,0.1823,0.03397,3.0,0.0,9.3,-0.0,0.0,-0.9365,0.0
1738228995124079942,0,0,0,0,0,0,0,0,0,3.074,0.01874,10.35,-0.0781,-0.0664,-0.9023,-0.04507,0.1792,0.03336,3.0,0.0,9.3,-0.0,0.0,-0.9365,0.0
1738228995174064397,0,0,0,0,0,0,0,0,0,3.07,0.01633,10.22,-0.08203,-0.03906,-0.914,-0.04352,0.172,0.03253,3.0,0.0,9.2,-0.0,0.0,-0.918,0.0
1738228995224056005,0,0,0,0,0,0,0,0,0,3.068,0.01569,10.18,-0.08594,-0.03125,-0.8906,-0.03867,0.172,0.03345,3.0,0.0,9.2,-0.0,0.0,-0.918,0.0
1738228995274042606,0,0,0,0,0,0,0,0,0,3.068,0.01569,10.18,-0.08594,-0.03125,-0.8906,-0.03867,0.172,0.03345,3.0,0.0,9.12,-0.0,0.0,-0.897,0.0
1738228995324070215,0,0,0,0,0,0,0,0,0,3.057,0.01303,10.06,-0.08594,-0.003906,-0.8516,-0.04123,0.159,0.0315,3.0,0.0,9.12,-0.0,0.0,-0.897,0.0
1738228995374078035,0,0,0,0,0,0,0,0,0,3.057,0.01303,10.06,-0.08594,-0.003906,-0.8516,-0.04123,0.159,0.0315,3.0,0.0,9.02,-0.0,0.0,-0.8735,0.0
1738228995424039602,0,0,0,0,0,0,0,0,0,3.05,0.01337,10.02,-0.0625,0.003906,-0.8633,-0.0439,0.1622,0.03244,3.0,0.0,9.02,-0.0,0.0,-0.8735,0.0
1738228995474043846,0,0,0,0,0,0,0,0,0,3.049,0.014,9.91,-0.0625,0.02734,-0.9062,-0.06052,0.1775,0.032,3.0,0.0,8.94,-0.0,0.0,-0.848,0.0
1738228995524059295,0,0,0,0,0,0,0,0,0,3.045,0.01505,9.84,-0.0586,0.02344,-0.8945,-0.0602,0.1642,0.03647,3.0,0.0,8.94,-0.0,0.0,-0.848,0.0
1738228995574076414,0,0,0,0,0,0,0,0,0,3.043,0.01602,9.77,-0.03906,0.007812,-0.84,-0.06058,0.1464,0.03403,3.0,0.0,8.86,-0.0,0.0,-0.821,0.0
1738228995624044656,0,0,0,0,0,0,0,0,0,3.043,0.01602,9.77,-0.03906,0.007812,-0.84,-0.06058,0.1464,0.03403,3.0,0.0,8.86,-0.0,0.0,-0.821,0.0
1738228995674063444,0,0,0,0,0,0,0,0,0,3.043,0.01602,9.77,-0.03906,0.007812,-0.84,-0.06058,0.1464,0.03403,3.0,0.0,8.77,-0.0,0.0,-0.791,0.0
1738228995724049568,0,0,0,0,0,0,0,0,0,3.037,0.01651,9.66,-0.02734,0.0,-0.7773,-0.0576,0.1458,0.0346,3.0,0.0,8.77,-0.0,0.0,-0.791,0.0
1738228995774048328,0,0,0,0,0,0,0,0,0,3.037,0.01617,9.54,-0.01172,-0.01172,-0.711,-0.0563,0.1575,0.03452,3.0,0.0,8.695,-0.0,0.0,-0.7593,0.0
1738228995824028730,0,0,0,0,0,0,0,0,0,3.037,0.01566,9.51,-0.007812,-0.01563,-0.6953,-0.05966,0.1569,0.03427,3.0,0.0,8.695,-0.0,0.0,-0.7593,0.0
1738228995874057769,0,0,0,0,0,0,0,0,0,3.037,0.01446,9.48,-0.003906,-0.02734,-0.672,-0.062,0.1561,0.034,3.0,0.0,8.625,-0.0,0.0,-0.726,0.0
1738228995924052476,0,0,0,0,0,0,0,0,0,3.037,0.01236,9.42,0.003906,-0.03516,-0.6367,-0.06116,0.1567,0.03537,3.0,0.0,8.625,-0.0,0.0,-0.726,0.0
1738228995974055051,0,0,0,0,0,0,0,0,0,3.037,0.00995,9.35,0.007812,-0.04688,-0.633,-0.0585,0.1609,0.03424,3.0,0.0,8.555,-0.0,0.0,-0.6904,0.0
1738228996024027824,0,0,0,0,0,0,0,0,0,3.037,0.00995,9.35,0.007812,-0.04688,-0.633,-0.0585,0.1609,0.03424,3.0,0.0,8.555,-0.0,0.0,-0.6904,0.0
1738228996074034214,0,0,0,0,0,0,0,0,0,3.037,0.00995,9.35,0.007812,-0.04688,-0.633,-0.0585,0.1609,0.03424,3.0,0.0,8.484,-0.0,0.0,-0.654,0.0
1738228996124032974,0,0,0,0,0,0,0,0,0,3.04,0.003752,9.33,0.01172,-0.04688,-0.633,-0.05692,0.165,0.03342,3.0,0.0,8.484,-0.0,0.0,-0.654,0.0
1738228996174058675,0,0,0,0,0,0,0,0,0,3.04,4.08e-05,9.2,0.0,-0.0586,-0.5977,-0.04895,0.1769,0.03427,3.0,0.0,8.42,-0.0,0.0,-0.615,0.0
1738228996224031448,0,0,0,0,0,0,0,0,0,3.04,-0.001891,9.164,-0.003906,-0.0586,-0.578,-0.0446,0.1725,0.03305,3.0,0.0,8.42,-0.0,0.0,-0.615,0.0
1738228996274174690,0,0,0,0,0,0,0,0,0,3.037,-0.005573,9.12,-0.01172,-0.04688,-0.547,-0.03635,0.1699,0.035,3.0,0.0,8.37,-0.0,0.0,-0.5747,0.0
1738228996324049711,0,0,0,0,0,0,0,0,0,3.037,-0.005573,9.12,-0.01172,-0.04688,-0.547,-0.03635,0.1699,0.035,3.0,0.0,8.37,-0.0,0.0,-0.5747,0.0
1738228996374029636,0,0,0,0,0,0,0,0,0,3.037,-0.005573,9.12,-0.01172,-0.04688,-0.547,-0.03635,0.1699,0.035,3.0,0.0,8.305,-0.0,0.0,-0.533,0.0
1738228996424044370,0,0,0,0,0,0,0,0,0,3.035,-0.013084,9.06,-0.01953,-0.04297,-0.6094,-0.0406,0.173,0.03497,3.0,0.0,8.305,-0.0,0.0,-0.533,0.0
1738228996474055051,0,0,0,0,0,0,0,0,0,3.035,-0.01446,9.01,-0.02734,-0.03516,-0.6484,-0.042,0.1797,0.0347,3.0,0.0,8.26,-0.0,0.0,-0.4902,0.0
1738228996524035215,0,0,0,0,0,0,0,0,0,3.033,-0.01622,8.96,-0.03906,-0.03125,-0.664,-0.0414,0.1746,0.03387,3.0,0.0,8.26,-0.0,0.0,-0.4902,0.0
1738228996574052810,0,0,0,0,0,0,0,0,0,3.03,-0.01833,8.92,-0.04688,-0.03516,-0.6445,-0.03876,0.1682,0.0346,3.0,0.0,8.21,-0.0,0.0,-0.446,0.0
1738228996624032497,0,0,0,0,0,0,0,0,0,3.027,-0.01968,8.9,-0.05078,-0.02734,-0.633,-0.03595,0.1661,0.03488,3.0,0.0,8.21,-0.0,0.0,-0.446,0.0
1738228996674057722,0,0,0,0,0,0,0,0,0,3.025,-0.02055,8.875,-0.04688,-0.01953,-0.6406,-0.03125,0.1622,0.033,3.0,0.0,8.164,-0.0,0.0,-0.401,0.0
1738228996724048376,0,0,0,0,0,0,0,0,0,3.021,-0.02039,8.83,-0.0625,0.007812,-0.672,-0.02946,0.1677,0.0328,3.0,0.0,8.164,-0.0,0.0,-0.401,0.0
1738228996774038791,0,0,0,0,0,0,0,0,0,3.018,-0.01962,8.77,-0.0664,0.01563,-0.6953,-0.0298,0.1718,0.0353,3.0,0.0,8.13,-0.0,0.0,-0.3545,0.0
1738228996824059247,0,0,0,0,0,0,0,0,0,3.016,-0.01843,8.75,-0.0664,0.02344,-0.6914,-0.02988,0.1686,0.03497,3.0,0.0,8.13,-0.0,0.0,-0.3545,0.0
1738228996874064683,0,0,0,0,0,0,0,0,0,3.012,-0.01756,8.72,-0.0664,0.02344,-0.6797,-0.0291,0.1626,0.03537,3.0,0.0,8.09,-0.0,0.0,-0.3074,0.0
1738228996924058437,0,0,0,0,0,0,0,0,0,3.01,-0.01587,8.7,-0.09766,0.0625,-0.66,-0.02908,0.1552,0.03546,3.0,0.0,8.09,-0.0,0.0,-0.3074,0.0
1738228996974043846,0,0,0,0,0,0,0,0,0,3.004,-0.01097,8.65,-0.08984,0.0781,-0.633,-0.02539,0.1484,0.03558,3.0,0.0,8.07,-0.0,0.0,-0.2593,0.0
1738228997024036169,0,0,0,0,0,0,0,0,0,2.998,-0.00529,8.586,-0.08594,0.08594,-0.6055,-0.02727,0.153,0.0356,3.0,0.0,8.07,-0.0,0.0,-0.2593,0.0
1738228997074051380,0,0,0,0,0,0,0,0,0,2.994,-0.000919,8.57,-0.08203,0.09375,-0.6016,-0.03528,0.1556,0.03607,3.0,0.0,8.05,-0.0,0.0,-0.2108,0.0
1738228997124050855,0,0,0,0,0,0,0,0,0,2.99,0.003601,8.54,-0.0781,0.08984,-0.582,-0.04138,0.1465,0.0365,3.0,0.0,8.05,-0.0,0.0,-0.2108,0.0
1738228997174094676,0,0,0,0,0,0,0,0,0,2.986,0.008835,8.51,-0.0664,0.08984,-0.582,-0.04407,0.1409,0.03287,3.0,0.0,8.02,-0.0,0.0,-0.1616,0.0
1738228997224068403,0,0,0,0,0,0,0,0,0,2.982,0.01271,8.484,-0.0625,0.08984,-0.586,-0.04456,0.142,0.0327,3.0,0.0,8.02,-0.0,0.0,-0.1616,0.0
1738228997274075031,0,0,0,0,0,0,0,0,0,2.98,0.0161,8.46,-0.0625,0.08984,-0.59,-0.04532,0.1466,0.03293,3.0,0.0,8.016,-0.0,0.0,-0.1122,0.0
1738228997324058294,0,0,0,0,0,0,0,0,0,2.977,0.02168,8.42,-0.08203,0.08594,-0.59,-0.0489,0.1484,0.03238,3.0,0.0,8.016,-0.0,0.0,-0.1122,0.0
1738228997374044656,0,0,0,0,0,0,0,0,0,2.97,0.02632,8.39,-0.0781,0.0781,-0.5586,-0.05472,0.1428,0.03268,3.0,0.0,8.0,-0.0,0.0,-0.06235,0.0
1738228997424030303,0,0,0,0,0,0,0,0,0,2.97,0.02632,8.39,-0.0781,0.0781,-0.5586,-0.05472,0.1428,0.03268,3.0,0.0,8.0,-0.0,0.0,-0.06235,0.0
1738228997474059343,0,0,0,0,0,0,0,0,0,2.967,0.03177,8.36,-0.0742,0.0742,-0.535,-0.05014,0.137,0.03452,3.0,0.0,8.0,-0.0,0.0,-0.01239,0.0
1738228997524088859,0,0,0,0,0,0,0,0,0,2.96,0.03665,8.34,-0.0625,0.0703,-0.5117,-0.04745,0.137,0.03433,3.0,0.0,8.0,-0.0,0.0,-0.01239,0.0
1738228997574085474,0,0,0,0,0,0,0,0,0,2.959,0.03964,8.336,-0.0547,0.0742,-0.5273,-0.0478,0.1364,0.03308,3.0,0.0,8.0,-0.0,0.0,0.0376,0.0
1738228997624069929,0,0,0,0,0,0,0,0,0,2.957,0.04376,8.32,-0.04297,0.0703,-0.5625,-0.05304,0.1409,0.0341,3.0,0.0,8.0,-0.0,0.0,0.0376,0.0
1738228997674094438,0,0,0,0,0,0,0,0,0,2.955,0.04596,8.31,-0.04297,0.0703,-0.578,-0.05548,0.1432,0.03384,3.0,0.0,8.01,-0.0,0.0,0.0875,0.0
1738228997724054813,0,0,0,0,0,0,0,0,0,2.953,0.05045,8.29,-0.01953,0.0664,-0.582,-0.05923,0.1415,0.0329,3.0,0.0,8.01,-0.0,0.0,0.0875,0.0
1738228997774059057,0,0,0,0,0,0,0,0,0,2.953,0.05368,8.27,-0.01563,0.0625,-0.586,-0.06027,0.1396,0.03262,3.0,0.0,8.016,-0.0,0.0,0.1372,0.0
1738228997824074506,0,0,0,0,0,0,0,0,0,2.953,0.0563,8.25,-0.007812,0.05078,-0.582,-0.0615,0.1348,0.03354,3.0,0.0,8.016,-0.0,0.0,0.1372,0.0
1738228997874075651,0,0,0,0,0,0,0,0,0,2.953,0.05795,8.24,-0.007812,0.04688,-0.578,-0.061,0.1345,0.03384,3.0,0.0,8.03,-0.0,0.0,0.1865,0.0
1738228997924079895,0,0,0,0,0,0,0,0,0,2.953,0.06158,8.22,0.003906,0.0547,-0.551,-0.05695,0.1309,0.0347,3.0,0.0,8.03,-0.0,0.0,0.1865,0.0
1738228997974056720,0,0,0,0,0,0,0,0,0,2.953,0.06396,8.21,0.007812,0.05078,-0.543,-0.05478,0.1282,0.0349,3.0,0.0,8.055,-0.0,0.0,0.2354,0.0
1738228998024046897,0,0,0,0,0,0,0,0,0,2.953,0.0665,8.19,0.02344,0.05078,-0.5156,-0.04892,0.1256,0.03534,3.0,0.0,8.055,-0.0,0.0,0.2354,0.0
1738228998074056148,0,0,0,0,0,0,0,0,0,2.955,0.068,8.18,0.02734,0.04688,-0.508,-0.05197,0.1271,0.03513,3.0,0.0,8.086,-0.0,0.0,0.2837,0.0
1738228998124043226,0,0,0,0,0,0,0,0,0,2.957,0.06976,8.164,0.03516,0.04297,-0.496,-0.0562,0.1292,0.0354,3.0,0.0,8.086,-0.0,0.0,0.2837,0.0
1738228998174050331,0,0,0,0,0,0,0,0,0,2.959,0.07227,8.15,0.03906,0.03516,-0.4844,-0.05923,0.1356,0.036,3.0,0.0,8.11,-0.0,0.0,0.3313,0.0
1738228998224045276,0,0,0,0,0,0,0,0,0,2.96,0.0744,8.13,0.04688,0.03516,-0.4531,-0.05542,0.1372,0.03622,3.0,0.0,8.11,-0.0,0.0,0.3313,0.0
1738228998274087429,0,0,0,0,0,0,0,0,0,2.96,0.0744,8.13,0.04688,0.03516,-0.4531,-0.05542,0.1372,0.03622,3.0,0.0,8.15,-0.0,0.0,0.378,0.0
1738228998324086189,0,0,0,0,0,0,0,0,0,2.96,0.0744,8.13,0.04688,0.03516,-0.4531,-0.05542,0.1372,0.03622,3.0,0.0,8.15,-0.0,0.0,0.378,0.0
1738228998374092102,0,0,0,0,0,0,0,0,0,2.969,0.0792,8.12,0.05078,0.03125,-0.4219,-0.05438,0.138,0.03503,3.0,0.0,8.19,-0.0,0.0,0.4238,0.0
1738228998424056291,0,0,0,0,0,0,0,0,0,2.973,0.08057,8.1,0.0703,0.02734,-0.3477,-0.0601,0.1428,0.03464,3.0,0.0,8.19,-0.0,0.0,0.4238,0.0
1738228998474049329,0,0,0,0,0,0,0,0,0,2.977,0.08154,8.09,0.0703,0.02344,-0.336,-0.05945,0.1445,0.0344,3.0,0.0,8.234,-0.0,0.0,0.4685,0.0
1738228998524080276,0,0,0,0,0,0,0,0,0,2.98,0.0819,8.086,0.0664,0.003906,-0.3086,-0.06396,0.148,0.0341,3.0,0.0,8.234,-0.0,0.0,0.4685,0.0
1738228998574084043,0,0,0,0,0,0,0,0,0,2.982,0.0819,8.086,0.0664,0.0,-0.293,-0.06476,0.1478,0.03342,3.0,0.0,8.28,-0.0,0.0,0.512,0.0
1738228998624063014,0,0,0,0,0,0,0,0,0,2.986,0.0819,8.08,0.0664,0.0,-0.254,-0.05884,0.146,0.03256,3.0,0.0,8.28,-0.0,0.0,0.512,0.0
1738228998674058914,0,0,0,0,0,0,0,0,0,2.988,0.0819,8.08,0.0625,0.0,-0.2344,-0.05814,0.1464,0.0337,3.0,0.0,8.336,-0.0,0.0,0.554,0.0
1738228998724038600,0,0,0,0,0,0,0,0,0,2.992,0.0817,8.08,0.0625,-0.003906,-0.207,-0.0655,0.149,0.03503,3.0,0.0,8.336,-0.0,0.0,0.554,0.0
1738228998774043560,0,0,0,0,0,0,0,0,0,2.994,0.0815,8.08,0.0586,-0.007812,-0.1836,-0.06793,0.1512,0.0343,3.0,0.0,8.39,-0.0,0.0,0.595,0.0
1738228998824058055,0,0,0,0,0,0,0,0,0,2.998,0.08026,8.07,0.04688,-0.02344,-0.1289,-0.0659,0.1521,0.03467,3.0,0.0,8.39,-0.0,0.0,0.595,0.0
1738228998874053001,0,0,0,0,0,0,0,0,0,2.998,0.08026,8.07,0.04688,-0.02344,-0.1289,-0.0659,0.1521,0.03467,3.0,0.0,8.45,-0.0,0.0,0.635,0.0
1738228998924061536,0,0,0,0,0,0,0,0,0,3.002,0.0771,8.07,0.05078,-0.04297,-0.02734,-0.0661,0.1437,0.03735,3.0,0.0,8.45,-0.0,0.0,0.635,0.0
1738228998974047183,0,0,0,0,0,0,0,0,0,3.004,0.0746,8.08,0.05078,-0.05078,-0.0,-0.065,0.144,0.03745,3.0,0.0,8.52,-0.0,0.0,0.6724,0.0
1738228999024142742,0,0,0,0,0,0,0,0,0,3.008,0.07117,8.08,0.04297,-0.0625,0.03906,-0.0614,0.151,0.0365,3.0,0.0,8.52,-0.0,0.0,0.6724,0.0
1738228999074178934,0,0,0,0,0,0,0,0,0,3.01,0.06824,8.086,0.03516,-0.0664,0.0703,-0.06042,0.1537,0.0359,3.0,0.0,8.586,-0.0,0.0,0.7085,0.0
1738228999124171257,0,0,0,0,0,0,0,0,0,3.01,0.0646,8.1,0.02734,-0.0742,0.1211,-0.05878,0.1552,0.035,3.0,0.0,8.586,-0.0,0.0,0.7085,0.0
1738228999174162864,0,0,0,0,0,0,0,0,0,3.012,0.0602,8.11,0.02344,-0.0781,0.1367,-0.05737,0.1565,0.03543,3.0,0.0,8.664,-0.0,0.0,0.743,0.0
1738228999224173545,0,0,0,0,0,0,0,0,0,3.012,0.05667,8.125,0.01172,-0.08203,0.168,-0.0545,0.1633,0.03452,3.0,0.0,8.664,-0.0,0.0,0.743,0.0
1738228999274153470,0,0,0,0,0,0,0,0,0,3.012,0.0526,8.13,0.0,-0.08594,0.1914,-0.0532,0.1655,0.0337,3.0,0.0,8.734,-0.0,0.0,0.7754,0.0
1738228999324151754,0,0,0,0,0,0,0,0,0,3.012,0.04752,8.16,-0.01953,-0.08984,0.2344,-0.05273,0.1664,0.03336,3.0,0.0,8.734,-0.0,0.0,0.7754,0.0
1738228999374137878,0,0,0,0,0,0,0,0,0,3.01,0.04272,8.17,-0.02734,-0.08594,0.2617,-0.053,0.1672,0.03268,3.0,0.0,8.82,-0.0,0.0,0.806,0.0
1738228999424129009,0,0,0,0,0,0,0,0,0,3.008,0.0391,8.195,-0.05078,-0.08594,0.293,-0.05444,0.1663,0.03345,3.0,0.0,8.82,-0.0,0.0,0.806,0.0
1738228999474133968,0,0,0,0,0,0,0,0,0,3.006,0.0355,8.21,-0.0703,-0.08594,0.3164,-0.0538,0.1655,0.03403,3.0,0.0,8.9,-0.0,0.0,0.8345,0.0
1738228999524144649,0,0,0,0,0,0,0,0,0,3.0,0.0306,8.24,-0.08594,-0.08984,0.3516,-0.05444,0.161,0.0342,3.0,0.0,8.9,-0.0,0.0,0.8345,0.0
1738228999574162960,0,0,0,0,0,0,0,0,0,2.996,0.02562,8.26,-0.09375,-0.08984,0.375,-0.05316,0.1584,0.03412,3.0,0.0,8.984,-0.0,0.0,0.8613,0.0
1738228999624154806,0,0,0,0,0,0,0,0,0,2.99,0.02132,8.3,-0.09766,-0.09375,0.4102,-0.05222,0.151,0.03342,3.0,0.0,8.984,-0.0,0.0,0.8613,0.0
1738228999674150705,0,0,0,0,0,0,0,0,0,2.986,0.01695,8.31,-0.10156,-0.09375,0.4219,-0.05157,0.1493,0.03384,3.0,0.0,9.07,-0.0,0.0,0.8857,0.0
1738228999724146842,0,0,0,0,0,0,0,0,0,2.98,0.01209,8.34,-0.1094,-0.08203,0.4414,-0.05038,0.1493,0.03345,3.0,0.0,9.07,-0.0,0.0,0.8857,0.0
1738228999774175882,0,0,0,0,0,0,0,0,0,2.975,0.008385,8.37,-0.1133,-0.08203,0.457,-0.0492,0.149,0.03305,3.0,0.0,9.164,-0.0,0.0,0.9077,0.0
1738228999824131250,0,0,0,0,0,0,0,0,0,2.969,0.004875,8.41,-0.1211,-0.0781,0.4766,-0.0465,0.1471,0.03342,3.0,0.0,9.164,-0.0,0.0,0.9077,0.0
1738228999874115943,0,0,0,0,0,0,0,0,0,2.963,0.001466,8.43,-0.125,-0.0742,0.4922,-0.04456,0.1449,0.03363,3.0,0.0,9.25,-0.0,0.0,0.9272,0.0
1738228999924086809,0,0,0,0,0,0,0,0,0,2.955,-0.003769,8.48,-0.1406,-0.0781,0.508,-0.04254,0.1396,0.03387,3.0,0.0,9.25,-0.0,0.0,0.9272,0.0
1738228999974118471,0,0,0,0,0,0,0,0,0,2.95,-0.007027,8.49,-0.1367,-0.0781,0.5195,-0.04254,0.1373,0.03452,3.0,0.0,9.34,-0.0,0.0,0.945,0.0
1738229000024144411,0,0,0,0,0,0,0,0,0,2.941,-0.01107,8.54,-0.1328,-0.0703,0.5625,-0.04254,0.1317,0.03574,3.0,0.0,9.34,-0.0,0.0,0.945,0.0
1738229000074124097,0,0,0,0,0,0,0,0,0,2.936,-0.01411,8.56,-0.1289,-0.0703,0.5703,-0.04187,0.1298,0.03558,3.0,0.0,9.44,-0.0,0.0,0.96,0.0
1738229000124109506,0,0,0,0,0,0,0,0,0,2.932,-0.01585,8.58,-0.1172,-0.0664,0.574,-0.04138,0.1306,0.03522,3.0,0.0,9.44,-0.0,0.0,0.96,0.0
1738229000174151659,0,0,0,0,0,0,0,0,0,2.924,-0.01993,8.63,-0.1133,-0.0547,0.5938,-0.04117,0.1316,0.0345,3.0,0.0,9.54,-0.0,0.0,0.973,0.0
1738229000224139928,0,0,0,0,0,0,0,0,0,2.918,-0.023,8.68,-0.1094,-0.04688,0.621,-0.03918,0.1295,0.03552,3.0,0.0,9.54,-0.0,0.0,0.973,0.0
1738229000274095296,0,0,0,0,0,0,0,0,0,2.912,-0.0252,8.7,-0.10547,-0.04297,0.629,-0.04034,0.1266,0.03513,3.0,0.0,9.63,-0.0,0.0,0.9834,0.0
1738229000324080467,0,0,0,0,0,0,0,0,0,2.908,-0.02664,8.76,-0.0625,-0.03125,0.6445,-0.04074,0.1236,0.0337,3.0,0.0,9.63,-0.0,0.0,0.9834,0.0
1738229000374103784,0,0,0,0,0,0,0,0,0,2.906,-0.02794,8.78,-0.0586,-0.03125,0.6523,-0.04263,0.1218,0.03323,3.0,0.0,9.734,-0.0,0.0,0.991,0.0
1738229000424119472,0,0,0,0,0,0,0,0,0,2.902,-0.03067,8.83,-0.03906,-0.04297,0.6914,-0.04868,0.1174,0.03348,3.0,0.0,9.734,-0.0,0.0,0.991,0.0
1738229000474083185,0,0,0,0,0,0,0,0,0,2.902,-0.03262,8.84,-0.01953,-0.04297,0.7227,-0.0587,0.1078,0.03427,3.0,0.0,9.836,-0.0,0.0,0.9966,0.0
1738229000524057865,0,0,0,0,0,0,0,0,0,2.902,-0.0353,8.89,0.01563,-0.0586,0.789,-0.06088,0.0985,0.037,3.0,0.0,9.836,-0.0,0.0,0.9966,0.0
