time,x_sphinx,y_sphinx,z_sphinx,vx_sphinx,vy_sphinx,vz_sphinx,roll_sphinx,pitch_sphinx,yaw_sphinx,x_anafi,y_anafi,z_anafi,vx_anafi,vy_anafi,vz_anafi,roll_anafi,pitch_anafi,yaw_anafi,wp_x,wp_y,wp_z,wp_vx,wp_vy,wp_vz,wp_yaw
1738229163446285009,0,0,0,0,0,0,0,0,0,3.037,-0.67,8.41,-0.10547,-0.1406,0.3828,-0.0346,0.1857,0.02853,3.0,0.0,9.836,-0.0,0.0,1.993,0.0
1738229163496286630,0,0,0,0,0,0,0,0,0,3.031,-0.6763,8.445,-0.1289,-0.1211,0.5117,-0.03105,0.1903,0.0293,3.0,0.0,9.836,-0.0,0.0,1.993,0.0
1738229163546283245,0,0,0,0,0,0,0,0,0,3.023,-0.6816,8.484,-0.1445,-0.1094,0.6016,-0.0291,0.1897,0.02924,3.0,0.0,10.0,-0.0,0.0,2.0,0.0
1738229163596298456,0,0,0,0,0,0,0,0,0,3.02,-0.684,8.51,-0.1523,-0.09766,0.6445,-0.02539,0.1876,0.02864,3.0,0.0,10.0,-0.0,0.0,2.0,0.0
1738229163646294116,0,0,0,0,0,0,0,0,0,3.014,-0.6875,8.54,-0.1523,-0.08984,0.707,-0.02284,0.1887,0.02812,3.0,0.0,10.2,-0.0,0.0,1.99,0.0
1738229163696278810,0,0,0,0,0,0,0,0,0,3.014,-0.6875,8.54,-0.1523,-0.08984,0.707,-0.02284,0.1887,0.02812,3.0,0.0,10.2,-0.0,0.0,1.99,0.0
1738229163746287584,0,0,0,0,0,0,0,0,0,2.992,-0.6978,8.586,-0.168,-0.0781,0.785,-0.02269,0.1897,0.02838,3.0,0.0,10.4,-0.0,0.0,1.96,0.0
1738229163796392679,0,0,0,0,0,0,0,0,0,2.982,-0.7007,8.73,-0.2109,-0.03906,0.965,-0.0278,0.1895,0.02875,3.0,0.0,10.59,-0.0,0.0,1.911,0.0
1738229163846434354,0,0,0,0,0,0,0,0,0,2.97,-0.701,8.82,-0.2305,-0.003906,1.082,-0.02864,0.1897,0.02892,3.0,0.0,10.59,-0.0,0.0,1.911,0.0
1738229163896273136,0,0,0,0,0,0,0,0,0,2.965,-0.701,8.85,-0.2383,-0.003906,1.117,-0.0272,0.187,0.02896,3.0,0.0,10.59,-0.0,0.0,1.911,0.0
1738229163946251153,0,0,0,0,0,0,0,0,0,2.965,-0.701,8.85,-0.2383,-0.003906,1.117,-0.0272,0.187,0.02896,3.0,0.0,10.78,-0.0,0.0,1.842,0.0
1738229163996261835,0,0,0,0,0,0,0,0,0,2.936,-0.6997,8.9,-0.25,0.01172,1.172,-0.02707,0.1857,0.02936,3.0,0.0,10.78,-0.0,0.0,1.842,0.0
1738229164046245813,0,0,0,0,0,0,0,0,0,2.918,-0.698,9.1,-0.3008,0.04297,1.379,-0.03204,0.1716,0.0291,3.0,0.0,10.96,-0.0,0.0,1.755,0.0
1738229164096289396,0,0,0,0,0,0,0,0,0,2.908,-0.6963,9.14,-0.3008,0.05078,1.414,-0.0317,0.1666,0.02945,3.0,0.0,10.96,-0.0,0.0,1.755,0.0
1738229164146299362,0,0,0,0,0,0,0,0,0,2.9,-0.695,9.195,-0.3086,0.0586,1.465,-0.03165,0.1654,0.02924,3.0,0.0,11.13,-0.0,0.0,1.65,0.0
1738229164196321964,0,0,0,0,0,0,0,0,0,2.873,-0.6895,9.305,-0.3164,0.0703,1.539,-0.0337,0.1604,0.03049,3.0,0.0,11.29,-0.0,0.0,1.529,0.0
1738229164246309995,0,0,0,0,0,0,0,0,0,2.861,-0.6865,9.36,-0.3125,0.0781,1.555,-0.03418,0.1586,0.0306,3.0,0.0,11.29,-0.0,0.0,1.529,0.0
1738229164296298503,0,0,0,0,0,0,0,0,0,2.842,-0.68,9.52,-0.3047,0.10156,1.609,-0.03632,0.153,0.03088,3.0,0.0,11.29,-0.0,0.0,1.529,0.0
1738229164346300125,0,0,0,0,0,0,0,0,0,2.826,-0.6743,9.61,-0.293,0.1133,1.656,-0.03687,0.149,0.03104,3.0,0.0,11.44,-0.0,0.0,1.394,0.0
1738229164396294116,0,0,0,0,0,0,0,0,0,2.818,-0.6714,9.664,-0.2852,0.1172,1.672,-0.03897,0.1394,0.03107,3.0,0.0,11.44,-0.0,0.0,1.394,0.0
1738229164446301221,0,0,0,0,0,0,0,0,0,2.799,-0.662,9.8,-0.2656,0.125,1.68,-0.04395,0.1337,0.03096,3.0,0.0,11.57,-0.0,0.0,1.243,0.0
1738229164496298074,0,0,0,0,0,0,0,0,0,2.787,-0.656,9.89,-0.25,0.1289,1.695,-0.04675,0.1288,0.03186,3.0,0.0,11.57,-0.0,0.0,1.243,0.0
1738229164546298980,0,0,0,0,0,0,0,0,0,2.787,-0.656,9.89,-0.25,0.1289,1.695,-0.04675,0.1288,0.03186,3.0,0.0,11.68,-0.0,0.0,1.081,0.0
1738229164596304655,0,0,0,0,0,0,0,0,0,2.766,-0.6445,10.03,-0.2227,0.1289,1.715,-0.04593,0.12024,0.03137,3.0,0.0,11.68,-0.0,0.0,1.081,0.0
1738229164646293401,0,0,0,0,0,0,0,0,0,2.756,-0.6353,10.16,-0.1562,0.1406,1.68,-0.0497,0.1145,0.03079,3.0,0.0,11.78,-0.0,0.0,0.907,0.0
1738229164696304082,0,0,0,0,0,0,0,0,0,2.752,-0.6313,10.21,-0.1406,0.1445,1.664,-0.05243,0.11395,0.0309,3.0,0.0,11.87,-0.0,0.0,0.7246,0.0
1738229164746287107,0,0,0,0,0,0,0,0,0,2.744,-0.6216,10.336,-0.1094,0.1484,1.656,-0.05273,0.1099,0.03085,3.0,0.0,11.87,-0.0,0.0,0.7246,0.0
1738229164796301603,0,0,0,0,0,0,0,0,0,2.74,-0.616,10.41,-0.08984,0.1523,1.652,-0.05142,0.10724,0.03075,3.0,0.0,11.87,-0.0,0.0,0.7246,0.0
1738229164846300601,0,0,0,0,0,0,0,0,0,2.738,-0.61,10.46,-0.03906,0.168,1.625,-0.05002,0.10425,0.03041,3.0,0.0,11.93,-0.0,0.0,0.535,0.0
1738229164896295070,0,0,0,0,0,0,0,0,0,2.738,-0.5977,10.58,-0.003906,0.1758,1.602,-0.04926,0.0998,0.0297,3.0,0.0,11.93,-0.0,0.0,0.535,0.0
1738229164946299791,0,0,0,0,0,0,0,0,0,2.738,-0.587,10.695,0.02344,0.1836,1.59,-0.04816,0.09753,0.03262,3.0,0.0,11.97,-0.0,0.0,0.3398,0.0
1738229164996294975,0,0,0,0,0,0,0,0,0,2.74,-0.5806,10.75,0.04297,0.1914,1.582,-0.0495,0.097,0.03293,3.0,0.0,11.97,-0.0,0.0,0.3398,0.0
1738229165046303510,0,0,0,0,0,0,0,0,0,2.742,-0.5747,10.82,0.0703,0.1992,1.543,-0.05075,0.09674,0.0325,3.0,0.0,11.99,-0.0,0.0,0.1415,0.0
1738229165096293687,0,0,0,0,0,0,0,0,0,2.748,-0.5615,10.92,0.10156,0.1992,1.488,-0.05582,0.1023,0.0321,3.0,0.0,11.99,-0.0,0.0,0.1415,0.0
1738229165146293401,0,0,0,0,0,0,0,0,0,2.756,-0.55,11.02,0.1328,0.1953,1.422,-0.06174,0.1055,0.0328,3.0,0.0,12.0,-0.0,0.0,-0.0584,0.0
1738229165196295738,0,0,0,0,0,0,0,0,0,2.756,-0.55,11.02,0.1328,0.1953,1.422,-0.06174,0.1055,0.0328,3.0,0.0,12.0,-0.0,0.0,-0.0584,0.0
1738229165246291875,0,0,0,0,0,0,0,0,0,2.768,-0.5347,11.07,0.1484,0.1914,1.41,-0.0646,0.1065,0.03204,3.0,0.0,11.984,-0.0,0.0,-0.2576,0.0
1738229165296302318,0,0,0,0,0,0,0,0,0,2.781,-0.5195,11.13,0.168,0.1914,1.367,-0.0661,0.10516,0.0315,3.0,0.0,11.945,-0.0,0.0,-0.4543,0.0
1738229165346319675,0,0,0,0,0,0,0,0,0,2.791,-0.511,11.31,0.2422,0.1719,1.195,-0.06995,0.1123,0.03093,3.0,0.0,11.945,-0.0,0.0,-0.4543,0.0
1738229165396313428,0,0,0,0,0,0,0,0,0,2.799,-0.5063,11.34,0.2578,0.168,1.164,-0.07086,0.1165,0.03111,3.0,0.0,11.89,-0.0,0.0,-0.6465,0.0
1738229165446300983,0,0,0,0,0,0,0,0,0,2.818,-0.4941,11.43,0.2773,0.1758,1.117,-0.0659,0.12024,0.0325,3.0,0.0,11.89,-0.0,0.0,-0.6465,0.0
1738229165496317863,0,0,0,0,0,0,0,0,0,2.824,-0.4905,11.46,0.289,0.1719,1.078,-0.06415,0.1214,0.0317,3.0,0.0,11.89,-0.0,0.0,-0.6465,0.0
1738229165546310186,0,0,0,0,0,0,0,0,0,2.848,-0.4763,11.54,0.3125,0.1758,0.961,-0.0643,0.1317,0.0326,3.0,0.0,11.82,-0.0,0.0,-0.8325,0.0
1738229165596460342,0,0,0,0,0,0,0,0,0,2.857,-0.472,11.57,0.3203,0.1758,0.926,-0.0643,0.1381,0.03326,3.0,0.0,11.73,-0.0,0.0,-1.01,0.0
1738229165646301746,0,0,0,0,0,0,0,0,0,2.88,-0.4597,11.64,0.3438,0.1719,0.797,-0.0632,0.1458,0.03348,3.0,0.0,11.73,-0.0,0.0,-1.01,0.0
1738229165696285009,0,0,0,0,0,0,0,0,0,2.89,-0.4548,11.664,0.3438,0.168,0.758,-0.06384,0.1511,0.03314,3.0,0.0,11.73,-0.0,0.0,-1.01,0.0
1738229165746259927,0,0,0,0,0,0,0,0,0,2.89,-0.4548,11.664,0.3438,0.168,0.758,-0.06384,0.1511,0.03314,3.0,0.0,11.62,-0.0,0.0,-1.177,0.0
1738229165796275377,0,0,0,0,0,0,0,0,0,2.89,-0.4548,11.664,0.3438,0.168,0.758,-0.06384,0.1511,0.03314,3.0,0.0,11.49,-0.0,0.0,-1.333,0.0
1738229165846258163,0,0,0,0,0,0,0,0,0,2.951,-0.4258,11.72,0.3555,0.1719,0.6055,-0.06445,0.1567,0.0322,3.0,0.0,11.49,-0.0,0.0,-1.333,0.0
1738229165896288156,0,0,0,0,0,0,0,0,0,2.965,-0.4202,11.79,0.3555,0.1484,0.3594,-0.07416,0.1681,0.03336,3.0,0.0,11.35,-0.0,0.0,-1.475,0.0
1738229165946312427,0,0,0,0,0,0,0,0,0,2.977,-0.4155,11.8,0.3633,0.1406,0.2852,-0.0744,0.165,0.03357,3.0,0.0,11.35,-0.0,0.0,-1.475,0.0
1738229165996304988,0,0,0,0,0,0,0,0,0,2.998,-0.4077,11.81,0.371,0.125,0.1719,-0.0741,0.1646,0.033,3.0,0.0,11.35,-0.0,0.0,-1.475,0.0
1738229166046306848,0,0,0,0,0,0,0,0,0,3.023,-0.4004,11.81,0.375,0.10156,0.0703,-0.07263,0.1686,0.03357,3.0,0.0,11.195,-0.0,0.0,-1.603,0.0
1738229166096307277,0,0,0,0,0,0,0,0,0,3.037,-0.397,11.81,0.371,0.09375,0.04297,-0.07104,0.1716,0.03348,3.0,0.0,11.195,-0.0,0.0,-1.603,0.0
1738229166146288871,0,0,0,0,0,0,0,0,0,3.049,-0.3943,11.82,0.371,0.08594,-0.0,-0.0701,0.1741,0.03384,3.0,0.0,11.03,-0.0,0.0,-1.714,0.0
1738229166196304798,0,0,0,0,0,0,0,0,0,3.078,-0.3882,11.82,0.3633,0.0742,-0.0664,-0.0682,0.1838,0.03223,3.0,0.0,11.03,-0.0,0.0,-1.714,0.0
1738229166246278285,0,0,0,0,0,0,0,0,0,3.092,-0.3853,11.82,0.3594,0.0742,-0.125,-0.0611,0.1874,0.0324,3.0,0.0,10.85,-0.0,0.0,-1.809,0.0
1738229166296275854,0,0,0,0,0,0,0,0,0,3.117,-0.3801,11.81,0.3516,0.0781,-0.2266,-0.05405,0.1989,0.03253,3.0,0.0,10.85,-0.0,0.0,-1.809,0.0
1738229166346267223,0,0,0,0,0,0,0,0,0,3.135,-0.3752,11.8,0.3438,0.08984,-0.379,-0.05014,0.2097,0.0323,3.0,0.0,10.67,-0.0,0.0,-1.885,0.0
1738229166396297931,0,0,0,0,0,0,0,0,0,3.143,-0.3733,11.78,0.332,0.08594,-0.4492,-0.05124,0.2152,0.03156,3.0,0.0,10.67,-0.0,0.0,-1.885,0.0
1738229166446301221,0,0,0,0,0,0,0,0,0,3.166,-0.3667,11.74,0.3086,0.08594,-0.5977,-0.04745,0.2202,0.03087,3.0,0.0,10.48,-0.0,0.0,-1.942,0.0
1738229166496314525,0,0,0,0,0,0,0,0,0,3.174,-0.3643,11.72,0.293,0.09375,-0.6484,-0.04492,0.2216,0.03125,3.0,0.0,10.48,-0.0,0.0,-1.942,0.0
1738229166546303033,0,0,0,0,0,0,0,0,0,3.193,-0.3577,11.67,0.2695,0.09766,-0.742,-0.04202,0.2181,0.03128,3.0,0.0,10.28,-0.0,0.0,-1.98,0.0
1738229166596300125,0,0,0,0,0,0,0,0,0,3.201,-0.3545,11.63,0.25,0.09766,-0.7773,-0.0418,0.218,0.03091,3.0,0.0,10.28,-0.0,0.0,-1.98,0.0
1738229166646294593,0,0,0,0,0,0,0,0,0,3.217,-0.3464,11.58,0.2188,0.1133,-0.867,-0.04684,0.2155,0.03128,3.0,0.0,10.086,-0.0,0.0,-1.998,0.0
1738229166696276187,0,0,0,0,0,0,0,0,0,3.217,-0.3464,11.58,0.2188,0.1133,-0.867,-0.04684,0.2155,0.03128,3.0,0.0,10.086,-0.0,0.0,-1.998,0.0
1738229166746298313,0,0,0,0,0,0,0,0,0,3.217,-0.3464,11.58,0.2188,0.1133,-0.867,-0.04684,0.2155,0.03128,3.0,0.0,9.88,-0.0,0.0,-1.997,0.0
1738229166796310424,0,0,0,0,0,0,0,0,0,3.248,-0.329,11.516,0.2031,0.1133,-0.949,-0.05246,0.214,0.03183,3.0,0.0,9.69,-0.0,0.0,-1.975,0.0
1738229166846298456,0,0,0,0,0,0,0,0,0,3.256,-0.3237,11.34,0.1406,0.1172,-1.125,-0.06204,0.2225,0.0319,3.0,0.0,9.69,-0.0,0.0,-1.975,0.0
1738229166896305322,0,0,0,0,0,0,0,0,0,3.258,-0.3213,11.3,0.1211,0.1094,-1.133,-0.06165,0.2251,0.03076,3.0,0.0,9.69,-0.0,0.0,-1.975,0.0
1738229166946293592,0,0,0,0,0,0,0,0,0,3.258,-0.3213,11.3,0.1211,0.1094,-1.133,-0.06165,0.2251,0.03076,3.0,0.0,9.49,-0.0,0.0,-1.934,0.0
1738229166996302127,0,0,0,0,0,0,0,0,0,3.271,-0.3083,11.26,0.10156,0.10547,-1.133,-0.05957,0.2274,0.03044,3.0,0.0,9.49,-0.0,0.0,-1.934,0.0
1738229167046292781,0,0,0,0,0,0,0,0,0,3.273,-0.303,11.07,0.01953,0.09766,-1.285,-0.05286,0.2325,0.0306,3.0,0.0,9.3,-0.0,0.0,-1.873,0.0
1738229167096287012,0,0,0,0,0,0,0,0,0,3.273,-0.2979,10.98,-0.01563,0.08984,-1.371,-0.05038,0.2356,0.0335,3.0,0.0,9.12,-0.0,0.0,-1.794,0.0
1738229167146255731,0,0,0,0,0,0,0,0,0,3.271,-0.294,10.92,-0.03125,0.08594,-1.418,-0.05322,0.2319,0.03278,3.0,0.0,9.12,-0.0,0.0,-1.794,0.0
1738229167196266651,0,0,0,0,0,0,0,0,0,3.271,-0.294,10.92,-0.03125,0.08594,-1.418,-0.05322,0.2319,0.03278,3.0,0.0,9.12,-0.0,0.0,-1.794,0.0
1738229167246258735,0,0,0,0,0,0,0,0,0,3.271,-0.294,10.92,-0.03125,0.08594,-1.418,-0.05322,0.2319,0.03278,3.0,0.0,8.94,-0.0,0.0,-1.696,0.0
1738229167296272754,0,0,0,0,0,0,0,0,0,3.264,-0.2827,10.86,-0.0547,0.08203,-1.445,-0.05597,0.2286,0.0307,3.0,0.0,8.94,-0.0,0.0,-1.696,0.0
1738229167346266031,0,0,0,0,0,0,0,0,0,3.26,-0.2795,10.664,-0.09766,0.04688,-1.516,-0.0689,0.2124,0.02963,3.0,0.0,8.77,-0.0,0.0,-1.582,0.0
1738229167396331787,0,0,0,0,0,0,0,0,0,3.256,-0.2778,10.54,-0.1211,0.04297,-1.586,-0.0587,0.199,0.0279,3.0,0.0,8.625,-0.0,0.0,-1.452,0.0
1738229167446259021,0,0,0,0,0,0,0,0,0,3.25,-0.2761,10.48,-0.1445,0.04297,-1.602,-0.0671,0.1978,0.02637,3.0,0.0,8.625,-0.0,0.0,-1.452,0.0
1738229167496261119,0,0,0,0,0,0,0,0,0,3.25,-0.2761,10.48,-0.1445,0.04297,-1.602,-0.0671,0.1978,0.02637,3.0,0.0,8.625,-0.0,0.0,-1.452,0.0
1738229167546277523,0,0,0,0,0,0,0,0,0,3.23,-0.271,10.414,-0.1562,0.03906,-1.602,-0.07074,0.1958,0.02925,3.0,0.0,8.484,-0.0,0.0,-1.308,0.0
1738229167596363306,0,0,0,0,0,0,0,0,0,3.22,-0.269,10.234,-0.1797,0.03906,-1.613,-0.05185,0.1796,0.03543,3.0,0.0,8.37,-0.0,0.0,-1.149,0.0
1738229167646282434,0,0,0,0,0,0,0,0,0,3.215,-0.2676,10.125,-0.1953,0.04297,-1.617,-0.061,0.1743,0.0312,3.0,0.0,8.37,-0.0,0.0,-1.149,0.0
1738229167696302890,0,0,0,0,0,0,0,0,0,3.205,-0.2656,10.01,-0.207,0.05078,-1.617,-0.04755,0.1726,0.03278,3.0,0.0,8.37,-0.0,0.0,-1.149,0.0
1738229167746284246,0,0,0,0,0,0,0,0,0,3.2,-0.264,9.95,-0.2109,0.05078,-1.621,-0.04932,0.1713,0.03082,3.0,0.0,8.26,-0.0,0.0,-0.9805,0.0
1738229167796289443,0,0,0,0,0,0,0,0,0,3.2,-0.264,9.95,-0.2109,0.05078,-1.621,-0.04932,0.1713,0.03082,3.0,0.0,8.26,-0.0,0.0,-0.9805,0.0
1738229167846281051,0,0,0,0,0,0,0,0,0,3.2,-0.264,9.95,-0.2109,0.05078,-1.621,-0.04932,0.1713,0.03082,3.0,0.0,8.164,-0.0,0.0,-0.802,0.0
1738229167896301984,0,0,0,0,0,0,0,0,0,3.158,-0.2546,9.89,-0.2188,0.05078,-1.629,-0.05243,0.1696,0.02913,3.0,0.0,8.164,-0.0,0.0,-0.802,0.0
1738229167946279525,0,0,0,0,0,0,0,0,0,3.148,-0.252,9.6,-0.2148,0.05078,-1.605,-0.0788,0.1416,0.03177,3.0,0.0,8.09,-0.0,0.0,-0.6147,0.0
1738229167996297121,0,0,0,0,0,0,0,0,0,3.139,-0.2505,9.48,-0.2031,0.02344,-1.605,-0.1015,0.1375,0.03345,3.0,0.0,8.09,-0.0,0.0,-0.6147,0.0
1738229168046286344,0,0,0,0,0,0,0,0,0,3.125,-0.2512,9.36,-0.1914,-0.01563,-1.59,-0.1061,0.1415,0.0328,3.0,0.0,8.05,-0.0,0.0,-0.4216,0.0
1738229168096468448,0,0,0,0,0,0,0,0,0,3.115,-0.2534,9.26,-0.1836,-0.04688,-1.566,-0.097,0.1437,0.03406,3.0,0.0,8.016,-0.0,0.0,-0.2244,0.0
1738229168146281003,0,0,0,0,0,0,0,0,0,3.107,-0.256,9.195,-0.1797,-0.0547,-1.5625,-0.09393,0.1423,0.0345,3.0,0.0,8.016,-0.0,0.0,-0.2244,0.0
1738229168196316957,0,0,0,0,0,0,0,0,0,3.104,-0.2576,9.15,-0.1719,-0.0703,-1.5625,-0.089,0.1384,0.03387,3.0,0.0,8.016,-0.0,0.0,-0.2244,0.0
1738229168246285200,0,0,0,0,0,0,0,0,0,3.09,-0.264,9.03,-0.1602,-0.09375,-1.516,-0.08594,0.1333,0.03125,3.0,0.0,8.0,-0.0,0.0,-0.02478,0.0
1738229168296300888,0,0,0,0,0,0,0,0,0,3.088,-0.266,8.98,-0.168,-0.08984,-1.5,-0.078,0.1315,0.03123,3.0,0.0,8.0,-0.0,0.0,-0.02478,0.0
1738229168346281290,0,0,0,0,0,0,0,0,0,3.088,-0.266,8.98,-0.168,-0.08984,-1.5,-0.078,0.1315,0.03123,3.0,0.0,8.01,-0.0,0.0,0.175,0.0
1738229168396303176,0,0,0,0,0,0,0,0,0,3.068,-0.2769,8.94,-0.1641,-0.09375,-1.457,-0.07,0.1326,0.0328,3.0,0.0,8.01,-0.0,0.0,0.175,0.0
1738229168446282148,0,0,0,0,0,0,0,0,0,3.06,-0.283,8.805,-0.1094,-0.1133,-1.258,-0.05322,0.1287,0.0344,3.0,0.0,8.03,-0.0,0.0,0.373,0.0
1738229168496299505,0,0,0,0,0,0,0,0,0,3.057,-0.2874,8.72,-0.08984,-0.09766,-1.223,-0.03302,0.1235,0.03394,3.0,0.0,8.03,-0.0,0.0,0.373,0.0
1738229168546281576,0,0,0,0,0,0,0,0,0,3.05,-0.2935,8.625,-0.0742,-0.08984,-1.199,-0.04715,0.1365,0.02995,3.0,0.0,8.086,-0.0,0.0,0.5674,0.0
1738229168596308231,0,0,0,0,0,0,0,0,0,3.049,-0.2954,8.586,-0.0703,-0.08203,-1.16,-0.0454,0.1409,0.03119,3.0,0.0,8.086,-0.0,0.0,0.5674,0.0
1738229168646285295,0,0,0,0,0,0,0,0,0,3.047,-0.2986,8.55,-0.04297,-0.08984,-1.082,-0.03558,0.1398,0.03375,3.0,0.0,8.15,-0.0,0.0,0.756,0.0
1738229168696359395,0,0,0,0,0,0,0,0,0,3.045,-0.3037,8.48,-0.02344,-0.0742,-1.004,-0.02815,0.126,0.03455,3.0,0.0,8.234,-0.0,0.0,0.937,0.0
1738229168746275901,0,0,0,0,0,0,0,0,0,3.045,-0.3079,8.4,0.0,-0.0586,-0.9375,-0.03262,0.127,0.03354,3.0,0.0,8.234,-0.0,0.0,0.937,0.0
1738229168796297550,0,0,0,0,0,0,0,0,0,3.045,-0.3096,8.37,0.007812,-0.0547,-0.914,-0.03558,0.1328,0.0319,3.0,0.0,8.234,-0.0,0.0,0.937,0.0
1738229168846256732,0,0,0,0,0,0,0,0,0,3.047,-0.3123,8.33,0.03125,-0.0586,-0.8125,-0.03986,0.138,0.03053,3.0,0.0,8.336,-0.0,0.0,1.108,0.0
1738229168896295070,0,0,0,0,0,0,0,0,0,3.049,-0.316,8.29,0.04688,-0.05078,-0.7188,-0.03958,0.1426,0.03378,3.0,0.0,8.45,-0.0,0.0,1.27,0.0
1738229168946285963,0,0,0,0,0,0,0,0,0,3.05,-0.317,8.25,0.0547,-0.04688,-0.633,-0.03534,0.1464,0.03574,3.0,0.0,8.45,-0.0,0.0,1.27,0.0
1738229168996278285,0,0,0,0,0,0,0,0,0,3.05,-0.317,8.25,0.0547,-0.04688,-0.633,-0.03534,0.1464,0.03574,3.0,0.0,8.45,-0.0,0.0,1.27,0.0
1738229169046287059,0,0,0,0,0,0,0,0,0,3.059,-0.323,8.234,0.0586,-0.04688,-0.574,-0.03305,0.1482,0.03622,3.0,0.0,8.586,-0.0,0.0,1.417,0.0
1738229169096306085,0,0,0,0,0,0,0,0,0,3.062,-0.3262,8.19,0.0781,-0.0625,-0.4102,-0.06174,0.1517,0.03192,3.0,0.0,8.586,-0.0,0.0,1.417,0.0
1738229169146279096,0,0,0,0,0,0,0,0,0,3.066,-0.3306,8.17,0.0742,-0.08203,-0.254,-0.0728,0.1665,0.03082,3.0,0.0,8.734,-0.0,0.0,1.551,0.0
1738229169196294546,0,0,0,0,0,0,0,0,0,3.068,-0.332,8.17,0.0742,-0.08984,-0.2109,-0.07404,0.1671,0.0307,3.0,0.0,8.9,-0.0,0.0,1.669,0.0
1738229169246281385,0,0,0,0,0,0,0,0,0,3.074,-0.3406,8.164,0.0703,-0.1133,-0.1133,-0.07574,0.1746,0.0293,3.0,0.0,8.9,-0.0,0.0,1.669,0.0
1738229169296301126,0,0,0,0,0,0,0,0,0,3.074,-0.3406,8.164,0.0703,-0.1133,-0.1133,-0.07574,0.1746,0.0293,3.0,0.0,8.9,-0.0,0.0,1.669,0.0
1738229169346276044,0,0,0,0,0,0,0,0,0,3.074,-0.3406,8.164,0.0703,-0.1133,-0.1133,-0.07574,0.1746,0.0293,3.0,0.0,9.07,-0.0,0.0,1.771,0.0
1738229169396309614,0,0,0,0,0,0,0,0,0,3.082,-0.3582,8.164,0.0547,-0.1328,-0.003906,-0.0717,0.1853,0.02916,3.0,0.0,9.07,-0.0,0.0,1.771,0.0
1738229169446296930,0,0,0,0,0,0,0,0,0,3.084,-0.3655,8.18,0.003906,-0.1523,0.1914,-0.06155,0.1943,0.03044,3.0,0.0,9.25,-0.0,0.0,1.8545,0.0
1738229169496308326,0,0,0,0,0,0,0,0,0,3.084,-0.3706,8.2,-0.01172,-0.168,0.3008,-0.06244,0.201,0.03078,3.0,0.0,9.25,-0.0,0.0,1.8545,0.0
1738229169546277523,0,0,0,0,0,0,0,0,0,3.084,-0.3706,8.2,-0.01172,-0.168,0.3008,-0.06244,0.201,0.03078,3.0,0.0,9.44,-0.0,0.0,1.92,0.0
1738229169596304655,0,0,0,0,0,0,0,0,0,3.084,-0.3706,8.2,-0.01172,-0.168,0.3008,-0.06244,0.201,0.03078,3.0,0.0,9.63,-0.0,0.0,1.967,0.0
1738229169646283626,0,0,0,0,0,0,0,0,0,3.08,-0.3987,8.266,-0.05078,-0.1953,0.5273,-0.06192,0.2173,0.03023,3.0,0.0,9.63,-0.0,0.0,1.967,0.0
