time,x_sphinx,y_sphinx,z_sphinx,vx_sphinx,vy_sphinx,vz_sphinx,roll_sphinx,pitch_sphinx,yaw_sphinx,x_anafi,y_anafi,z_anafi,vx_anafi,vy_anafi,vz_anafi,roll_anafi,pitch_anafi,yaw_anafi,wp_x,wp_y,wp_z,wp_vx,wp_vy,wp_vz,wp_yaw
1738229341885685205,0,0,0,0,0,0,0,0,0,2.932,0.08203,9.15,-0.3867,-0.2969,2.207,-0.06976,0.1251,0.02916,3.0,0.0,9.836,-0.0,0.0,1.993,0.0
1738229341935656547,0,0,0,0,0,0,0,0,0,2.912,0.0669,9.28,-0.3906,-0.3047,2.18,-0.06744,0.11444,0.02954,3.0,0.0,10.0,-0.0,0.0,2.0,0.0
1738229341985671997,0,0,0,0,0,0,0,0,0,2.895,0.05264,9.37,-0.3828,-0.3086,2.14,-0.0655,0.1107,0.0294,3.0,0.0,10.0,-0.0,0.0,2.0,0.0
1738229342035677194,0,0,0,0,0,0,0,0,0,2.873,0.03415,9.49,-0.375,-0.3164,2.117,-0.0618,0.10223,0.02986,3.0,0.0,10.2,-0.0,0.0,1.99,0.0
1738229342085679054,0,0,0,0,0,0,0,0,0,2.857,0.02138,9.57,-0.375,-0.3203,2.137,-0.0585,0.09595,0.02948,3.0,0.0,10.2,-0.0,0.0,1.99,0.0
1738229342135663032,0,0,0,0,0,0,0,0,0,2.848,0.01311,9.64,-0.3633,-0.3203,2.164,-0.0514,0.0856,0.0302,3.0,0.0,10.4,-0.0,0.0,1.96,0.0
1738229342185683012,0,0,0,0,0,0,0,0,0,2.82,-0.01262,9.79,-0.332,-0.3086,2.168,-0.03934,0.06604,0.02998,3.0,0.0,10.4,-0.0,0.0,1.96,0.0
1738229342235667228,0,0,0,0,0,0,0,0,0,2.803,-0.02946,9.93,-0.2969,-0.2852,2.152,-0.03275,0.05655,0.03023,3.0,0.0,10.59,-0.0,0.0,1.911,0.0
1738229342285665035,0,0,0,0,0,0,0,0,0,2.791,-0.04037,10.0,-0.2773,-0.2773,2.16,-0.02805,0.05096,0.0303,3.0,0.0,10.59,-0.0,0.0,1.911,0.0
1738229342335660457,0,0,0,0,0,0,0,0,0,2.775,-0.05624,10.15,-0.2305,-0.254,2.168,-0.0216,0.04282,0.0292,3.0,0.0,10.78,-0.0,0.0,1.842,0.0
1738229342385650873,0,0,0,0,0,0,0,0,0,2.775,-0.05624,10.15,-0.2305,-0.254,2.168,-0.0216,0.04282,0.0292,3.0,0.0,10.78,-0.0,0.0,1.842,0.0
1738229342435672283,0,0,0,0,0,0,0,0,0,2.775,-0.05624,10.15,-0.2305,-0.254,2.168,-0.0216,0.04282,0.0292,3.0,0.0,10.78,-0.0,0.0,1.842,0.0
1738229342485684156,0,0,0,0,0,0,0,0,0,2.756,-0.0807,10.21,-0.207,-0.2422,2.172,-0.01701,0.03897,0.02959,3.0,0.0,10.96,-0.0,0.0,1.755,0.0
1738229342535660743,0,0,0,0,0,0,0,0,0,2.74,-0.0995,10.42,-0.125,-0.1875,2.176,-0.00891,0.03323,0.02953,3.0,0.0,11.13,-0.0,0.0,1.65,0.0
1738229342585674524,0,0,0,0,0,0,0,0,0,2.738,-0.10596,10.57,-0.0703,-0.1523,2.176,-0.004795,0.03072,0.02972,3.0,0.0,11.13,-0.0,0.0,1.65,0.0
1738229342635682106,0,0,0,0,0,0,0,0,0,2.736,-0.1125,10.78,0.007812,-0.0742,2.164,-0.004208,0.02924,0.0296,3.0,0.0,11.29,-0.0,0.0,1.529,0.0
1738229342685685873,0,0,0,0,0,0,0,0,0,2.738,-0.1145,10.85,0.02734,-0.0586,2.125,-0.005157,0.03096,0.02959,3.0,0.0,11.29,-0.0,0.0,1.529,0.0
1738229342735688686,0,0,0,0,0,0,0,0,0,2.742,-0.11725,10.98,0.0625,-0.03906,1.898,-0.01976,0.0512,0.02942,3.0,0.0,11.44,-0.0,0.0,1.394,0.0
1738229342785681962,0,0,0,0,0,0,0,0,0,2.744,-0.1185,11.03,0.0703,-0.03516,1.805,-0.03073,0.0692,0.0296,3.0,0.0,11.44,-0.0,0.0,1.394,0.0
1738229342835667610,0,0,0,0,0,0,0,0,0,2.75,-0.11975,11.16,0.09766,-0.01563,1.883,-0.03064,0.0799,0.0314,3.0,0.0,11.57,-0.0,0.0,1.243,0.0
1738229342885682344,0,0,0,0,0,0,0,0,0,2.756,-0.1199,11.234,0.1172,-0.003906,1.953,-0.01709,0.065,0.03035,3.0,0.0,11.57,-0.0,0.0,1.243,0.0
1738229342935685157,0,0,0,0,0,0,0,0,0,2.758,-0.1199,11.28,0.1328,0.0,1.98,-0.007366,0.05005,0.02766,3.0,0.0,11.68,-0.0,0.0,1.081,0.0
1738229342985676050,0,0,0,0,0,0,0,0,0,2.77,-0.11804,11.414,0.1719,0.03125,1.98,-0.007042,0.047,0.0278,3.0,0.0,11.68,-0.0,0.0,1.081,0.0
1738229343035684347,0,0,0,0,0,0,0,0,0,2.781,-0.11505,11.54,0.1836,0.0547,1.805,-0.01553,0.05933,0.028,3.0,0.0,11.78,-0.0,0.0,0.907,0.0
1738229343085676908,0,0,0,0,0,0,0,0,0,2.79,-0.11255,11.59,0.1914,0.0586,1.793,-0.02391,0.07214,0.02821,3.0,0.0,11.78,-0.0,0.0,0.907,0.0
1738229343135675191,0,0,0,0,0,0,0,0,0,2.8,-0.1085,11.73,0.1992,0.0742,1.848,-0.02328,0.0801,0.02888,3.0,0.0,11.87,-0.0,0.0,0.7246,0.0
1738229343185664415,0,0,0,0,0,0,0,0,0,2.8,-0.1085,11.73,0.1992,0.0742,1.848,-0.02328,0.0801,0.02888,3.0,0.0,11.87,-0.0,0.0,0.7246,0.0
1738229343235679149,0,0,0,0,0,0,0,0,0,2.8,-0.1085,11.73,0.1992,0.0742,1.848,-0.02328,0.0801,0.02888,3.0,0.0,11.93,-0.0,0.0,0.535,0.0
1738229343285664558,0,0,0,0,0,0,0,0,0,2.828,-0.09595,11.82,0.2031,0.09375,1.754,-0.02191,0.0808,0.02917,3.0,0.0,11.93,-0.0,0.0,0.535,0.0
1738229343335698843,0,0,0,0,0,0,0,0,0,2.842,-0.0887,12.0,0.2109,0.1133,1.5,-0.02647,0.0995,0.03047,3.0,0.0,11.97,-0.0,0.0,0.3398,0.0
1738229343385680675,0,0,0,0,0,0,0,0,0,2.85,-0.0848,12.086,0.2109,0.1172,1.43,-0.03105,0.1038,0.03055,3.0,0.0,11.97,-0.0,0.0,0.3398,0.0
1738229343435663700,0,0,0,0,0,0,0,0,0,2.865,-0.0769,12.18,0.2344,0.1172,1.363,-0.0306,0.09973,0.02867,3.0,0.0,11.99,-0.0,0.0,0.1415,0.0
1738229343485677003,0,0,0,0,0,0,0,0,0,2.875,-0.072,12.23,0.2383,0.1211,1.301,-0.03073,0.0991,0.02843,3.0,0.0,11.99,-0.0,0.0,0.1415,0.0
1738229343535678625,0,0,0,0,0,0,0,0,0,2.889,-0.064,12.305,0.2422,0.1328,1.07,-0.0341,0.1027,0.02905,3.0,0.0,12.0,-0.0,0.0,-0.0584,0.0
1738229343585680484,0,0,0,0,0,0,0,0,0,2.889,-0.064,12.305,0.2422,0.1328,1.07,-0.0341,0.1027,0.02905,3.0,0.0,12.0,-0.0,0.0,-0.0584,0.0
1738229343635675907,0,0,0,0,0,0,0,0,0,2.889,-0.064,12.305,0.2422,0.1328,1.07,-0.0341,0.1027,0.02905,3.0,0.0,12.0,-0.0,0.0,-0.0584,0.0
1738229343685681104,0,0,0,0,0,0,0,0,0,2.91,-0.0525,12.33,0.2461,0.1367,0.961,-0.0371,0.1062,0.02896,3.0,0.0,11.984,-0.0,0.0,-0.2576,0.0
1738229343735685348,0,0,0,0,0,0,0,0,0,2.934,-0.03864,12.39,0.2344,0.1445,0.7695,-0.03738,0.10974,0.0295,3.0,0.0,11.945,-0.0,0.0,-0.4543,0.0
1738229343785678863,0,0,0,0,0,0,0,0,0,2.945,-0.03033,12.47,0.2383,0.1562,0.4531,-0.03275,0.1047,0.02824,3.0,0.0,11.945,-0.0,0.0,-0.4543,0.0
1738229343835659265,0,0,0,0,0,0,0,0,0,2.96,-0.02058,12.49,0.2422,0.1602,0.336,-0.02888,0.099,0.02876,3.0,0.0,11.89,-0.0,0.0,-0.6465,0.0
1738229343885672807,0,0,0,0,0,0,0,0,0,2.969,-0.01538,12.5,0.2461,0.168,0.2617,-0.0295,0.0989,0.02885,3.0,0.0,11.89,-0.0,0.0,-0.6465,0.0
1738229343935670375,0,0,0,0,0,0,0,0,0,2.984,-0.004063,12.516,0.25,0.1758,0.0742,-0.03738,0.1046,0.02885,3.0,0.0,11.82,-0.0,0.0,-0.8325,0.0
1738229343985799312,0,0,0,0,0,0,0,0,0,2.994,0.002821,12.516,0.25,0.1719,-0.0,-0.03867,0.107,0.02924,3.0,0.0,11.82,-0.0,0.0,-0.8325,0.0
1738229344035796165,0,0,0,0,0,0,0,0,0,3.002,0.00744,12.516,0.2578,0.1758,-0.1523,-0.039,0.10785,0.02957,3.0,0.0,11.73,-0.0,0.0,-1.01,0.0
1738229344085677146,0,0,0,0,0,0,0,0,0,3.02,0.01935,12.49,0.25,0.1719,-0.3867,-0.04282,0.1161,0.02907,3.0,0.0,11.73,-0.0,0.0,-1.01,0.0
1738229344135676145,0,0,0,0,0,0,0,0,0,3.037,0.0314,12.46,0.25,0.168,-0.621,-0.03888,0.11743,0.03123,3.0,0.0,11.62,-0.0,0.0,-1.177,0.0
1738229344185716390,0,0,0,0,0,0,0,0,0,3.047,0.038,12.445,0.25,0.1797,-0.7188,-0.0358,0.1163,0.03204,3.0,0.0,11.62,-0.0,0.0,-1.177,0.0
1738229344235663652,0,0,0,0,0,0,0,0,0,3.06,0.04846,12.39,0.254,0.1719,-0.8984,-0.03043,0.1145,0.0325,3.0,0.0,11.49,-0.0,0.0,-1.333,0.0
1738229344285640239,0,0,0,0,0,0,0,0,0,3.07,0.05444,12.36,0.254,0.1836,-0.9805,-0.02647,0.11554,0.03296,3.0,0.0,11.49,-0.0,0.0,-1.333,0.0
1738229344335648536,0,0,0,0,0,0,0,0,0,3.082,0.0638,12.32,0.254,0.1836,-1.086,-0.02219,0.11426,0.0332,3.0,0.0,11.35,-0.0,0.0,-1.475,0.0
1738229344385636806,0,0,0,0,0,0,0,0,0,3.098,0.07477,12.26,0.25,0.1914,-1.219,-0.01359,0.1193,0.03256,3.0,0.0,11.35,-0.0,0.0,-1.475,0.0
1738229344435653448,0,0,0,0,0,0,0,0,0,3.102,0.0794,12.21,0.2422,0.2031,-1.344,-0.01141,0.1194,0.0321,3.0,0.0,11.195,-0.0,0.0,-1.603,0.0
1738229344485637903,0,0,0,0,0,0,0,0,0,3.117,0.0929,12.13,0.2383,0.207,-1.52,-0.02606,0.121,0.03023,3.0,0.0,11.195,-0.0,0.0,-1.603,0.0
1738229344535651445,0,0,0,0,0,0,0,0,0,3.137,0.10785,12.016,0.2344,0.1914,-1.672,-0.05765,0.1112,0.0297,3.0,0.0,11.03,-0.0,0.0,-1.714,0.0
1738229344585646867,0,0,0,0,0,0,0,0,0,3.137,0.10785,12.016,0.2344,0.1914,-1.672,-0.05765,0.1112,0.0297,3.0,0.0,11.03,-0.0,0.0,-1.714,0.0
1738229344635651826,0,0,0,0,0,0,0,0,0,3.158,0.1238,11.86,0.2266,0.1445,-1.844,-0.0771,0.10864,0.03055,3.0,0.0,10.85,-0.0,0.0,-1.809,0.0
1738229344685659885,0,0,0,0,0,0,0,0,0,3.168,0.1284,11.8,0.2227,0.1211,-1.883,-0.08386,0.10956,0.0293,3.0,0.0,10.85,-0.0,0.0,-1.809,0.0
1738229344735663175,0,0,0,0,0,0,0,0,0,3.18,0.1345,11.695,0.2109,0.10156,-1.93,-0.0661,0.11884,0.02971,3.0,0.0,10.67,-0.0,0.0,-1.885,0.0
1738229344785651445,0,0,0,0,0,0,0,0,0,3.188,0.1383,11.63,0.1953,0.09375,-1.957,-0.05908,0.1239,0.03183,3.0,0.0,10.67,-0.0,0.0,-1.885,0.0
1738229344835656166,0,0,0,0,0,0,0,0,0,3.2,0.1416,11.55,0.1797,0.05078,-2.0,-0.07605,0.1353,0.02669,3.0,0.0,10.48,-0.0,0.0,-1.942,0.0
1738229344885628700,0,0,0,0,0,0,0,0,0,3.207,0.1433,11.46,0.1641,0.03516,-2.027,-0.07983,0.1335,0.02649,3.0,0.0,10.48,-0.0,0.0,-1.942,0.0
1738229344935668468,0,0,0,0,0,0,0,0,0,3.215,0.1443,11.36,0.1328,0.01563,-2.043,-0.0798,0.1409,0.0267,3.0,0.0,10.28,-0.0,0.0,-1.98,0.0
1738229344985670566,0,0,0,0,0,0,0,0,0,3.219,0.1448,11.27,0.10547,0.01172,-2.055,-0.0622,0.1484,0.02954,3.0,0.0,10.28,-0.0,0.0,-1.98,0.0
1738229345035652875,0,0,0,0,0,0,0,0,0,3.225,0.1443,11.164,0.0781,-0.01563,-2.05,-0.07043,0.1416,0.03052,3.0,0.0,10.086,-0.0,0.0,-1.998,0.0
1738229345085635423,0,0,0,0,0,0,0,0,0,3.227,0.1428,11.1,0.0586,-0.03125,-2.043,-0.0855,0.1337,0.03041,3.0,0.0,10.086,-0.0,0.0,-1.998,0.0
1738229345135762214,0,0,0,0,0,0,0,0,0,3.229,0.1407,11.016,0.03516,-0.05078,-2.043,-0.07263,0.1417,0.03061,3.0,0.0,9.88,-0.0,0.0,-1.997,0.0
1738229345185778379,0,0,0,0,0,0,0,0,0,3.229,0.1387,10.93,0.007812,-0.05078,-2.062,-0.0546,0.1519,0.03099,3.0,0.0,9.88,-0.0,0.0,-1.997,0.0
1738229345235739946,0,0,0,0,0,0,0,0,0,3.229,0.1387,10.93,0.007812,-0.05078,-2.062,-0.0546,0.1519,0.03099,3.0,0.0,9.69,-0.0,0.0,-1.975,0.0
1738229345285661697,0,0,0,0,0,0,0,0,0,3.229,0.1316,10.87,-0.007812,-0.0703,-2.07,-0.05243,0.1554,0.03143,3.0,0.0,9.69,-0.0,0.0,-1.975,0.0
1738229345335660696,0,0,0,0,0,0,0,0,0,3.227,0.1262,10.74,-0.04297,-0.08984,-2.055,-0.0677,0.1449,0.03035,3.0,0.0,9.49,-0.0,0.0,-1.934,0.0
1738229345385736703,0,0,0,0,0,0,0,0,0,3.223,0.1204,10.56,-0.08984,-0.1211,-2.05,-0.06036,0.1508,0.03256,3.0,0.0,9.49,-0.0,0.0,-1.934,0.0
1738229345435653209,0,0,0,0,0,0,0,0,0,3.22,0.1183,10.5,-0.10156,-0.1367,-2.047,-0.06854,0.1357,0.03084,3.0,0.0,9.3,-0.0,0.0,-1.873,0.0
1738229345485655307,0,0,0,0,0,0,0,0,0,3.217,0.11237,10.43,-0.1133,-0.1562,-2.031,-0.08136,0.1256,0.0294,3.0,0.0,9.3,-0.0,0.0,-1.873,0.0
1738229345535652637,0,0,0,0,0,0,0,0,0,3.217,0.11237,10.43,-0.1133,-0.1562,-2.031,-0.08136,0.1256,0.0294,3.0,0.0,9.3,-0.0,0.0,-1.873,0.0
1738229345585660457,0,0,0,0,0,0,0,0,0,3.205,0.0971,10.36,-0.125,-0.1797,-2.004,-0.0922,0.12024,0.02737,3.0,0.0,9.12,-0.0,0.0,-1.794,0.0
1738229345635667562,0,0,0,0,0,0,0,0,0,3.191,0.07764,10.14,-0.1797,-0.207,-1.816,-0.0415,0.1255,0.03275,3.0,0.0,8.94,-0.0,0.0,-1.696,0.0
1738229345685653686,0,0,0,0,0,0,0,0,0,3.18,0.0665,10.03,-0.1758,-0.1875,-1.477,-0.0358,0.0952,0.02873,3.0,0.0,8.94,-0.0,0.0,-1.696,0.0
1738229345735655069,0,0,0,0,0,0,0,0,0,3.172,0.05835,9.945,-0.1484,-0.1484,-1.324,0.00295,0.06064,0.0288,3.0,0.0,8.77,-0.0,0.0,-1.582,0.0
1738229345785647630,0,0,0,0,0,0,0,0,0,3.166,0.05252,9.89,-0.1289,-0.1211,-1.375,0.01614,0.06335,0.03128,3.0,0.0,8.77,-0.0,0.0,-1.582,0.0
1738229345835657835,0,0,0,0,0,0,0,0,0,3.164,0.05087,9.86,-0.1523,-0.1094,-1.469,0.02473,0.08716,0.03458,3.0,0.0,8.625,-0.0,0.0,-1.452,0.0
1738229345885650157,0,0,0,0,0,0,0,0,0,3.156,0.04608,9.79,-0.1562,-0.10156,-1.637,0.013626,0.10455,0.03372,3.0,0.0,8.625,-0.0,0.0,-1.452,0.0
1738229345935785055,0,0,0,0,0,0,0,0,0,3.156,0.04608,9.79,-0.1562,-0.10156,-1.637,0.013626,0.10455,0.03372,3.0,0.0,8.625,-0.0,0.0,-1.452,0.0
1738229345985672950,0,0,0,0,0,0,0,0,0,3.146,0.03958,9.734,-0.1641,-0.09766,-1.676,-0.02245,0.12103,0.03117,3.0,0.0,8.484,-0.0,0.0,-1.308,0.0
1738229346035662889,0,0,0,0,0,0,0,0,0,3.123,0.02803,9.46,-0.1523,-0.08203,-1.711,-0.0374,0.08203,0.02927,3.0,0.0,8.37,-0.0,0.0,-1.149,0.0
1738229346085659027,0,0,0,0,0,0,0,0,0,3.12,0.02563,9.41,-0.1484,-0.0742,-1.734,-0.03726,0.08954,0.02754,3.0,0.0,8.37,-0.0,0.0,-1.149,0.0
1738229346135665416,0,0,0,0,0,0,0,0,0,3.115,0.02391,9.336,-0.1484,-0.0664,-1.746,-0.02675,0.09485,0.03137,3.0,0.0,8.26,-0.0,0.0,-0.9805,0.0
1738229346185647249,0,0,0,0,0,0,0,0,0,3.115,0.02391,9.336,-0.1484,-0.0664,-1.746,-0.02675,0.09485,0.03137,3.0,0.0,8.26,-0.0,0.0,-0.9805,0.0
1738229346235655307,0,0,0,0,0,0,0,0,0,3.098,0.01697,9.26,-0.1484,-0.0586,-1.742,-0.01831,0.0945,0.0341,3.0,0.0,8.164,-0.0,0.0,-0.802,0.0
1738229346285640954,0,0,0,0,0,0,0,0,0,3.092,0.014626,9.11,-0.09766,-0.04297,-1.742,-0.04602,0.07605,0.03001,3.0,0.0,8.164,-0.0,0.0,-0.802,0.0
1738229346335661172,0,0,0,0,0,0,0,0,0,3.084,0.01242,8.93,-0.09766,-0.03125,-1.777,-0.0315,0.0921,0.03021,3.0,0.0,8.09,-0.0,0.0,-0.6147,0.0
1738229346385632276,0,0,0,0,0,0,0,0,0,3.08,0.01105,8.87,-0.09375,-0.03516,-1.777,-0.03714,0.0902,0.03035,3.0,0.0,8.09,-0.0,0.0,-0.6147,0.0
1738229346435771465,0,0,0,0,0,0,0,0,0,3.08,0.01005,8.84,-0.0781,-0.04688,-1.77,-0.0484,0.0804,0.0302,3.0,0.0,8.05,-0.0,0.0,-0.4216,0.0
1738229346485680580,0,0,0,0,0,0,0,0,0,3.076,0.00753,8.766,-0.0703,-0.0586,-1.777,-0.05362,0.0764,0.02972,3.0,0.0,8.05,-0.0,0.0,-0.4216,0.0
1738229346535704135,0,0,0,0,0,0,0,0,0,3.076,0.00753,8.766,-0.0703,-0.0586,-1.777,-0.05362,0.0764,0.02972,3.0,0.0,8.05,-0.0,0.0,-0.4216,0.0
1738229346585672616,0,0,0,0,0,0,0,0,0,3.068,0.0003352,8.695,-0.0664,-0.0625,-1.77,-0.05087,0.0785,0.0304,3.0,0.0,8.016,-0.0,0.0,-0.2244,0.0
1738229346635661125,0,0,0,0,0,0,0,0,0,3.064,-0.00489,8.484,-0.03125,-0.0586,-1.613,-0.04605,0.07666,0.02866,3.0,0.0,8.0,-0.0,0.0,-0.02478,0.0
1738229346685755968,0,0,0,0,0,0,0,0,0,3.064,-0.00703,8.37,0.0,-0.03906,-1.559,-0.01373,0.06396,0.03265,3.0,0.0,8.0,-0.0,0.0,-0.02478,0.0
1738229346735668659,0,0,0,0,0,0,0,0,0,3.064,-0.00861,8.266,0.01172,-0.02734,-1.461,-0.00908,0.07086,0.02985,3.0,0.0,8.01,-0.0,0.0,0.175,0.0
1738229346785662651,0,0,0,0,0,0,0,0,0,3.066,-0.00937,8.23,0.02344,-0.01953,-1.355,-0.01666,0.0701,0.02983,3.0,0.0,8.01,-0.0,0.0,0.175,0.0
1738229346835665941,0,0,0,0,0,0,0,0,0,3.066,-0.00971,8.2,0.0664,-0.01953,-1.293,-0.01467,0.06714,0.02882,3.0,0.0,8.03,-0.0,0.0,0.373,0.0
1738229346885642051,0,0,0,0,0,0,0,0,0,3.07,-0.01007,8.15,0.08594,-0.007812,-1.238,-0.01008,0.0638,0.02875,3.0,0.0,8.03,-0.0,0.0,0.373,0.0
1738229346935651540,0,0,0,0,0,0,0,0,0,3.07,-0.01007,8.15,0.08594,-0.007812,-1.238,-0.01008,0.0638,0.02875,3.0,0.0,8.03,-0.0,0.0,0.373,0.0
1738229346985650777,0,0,0,0,0,0,0,0,0,3.07,-0.01007,8.15,0.08594,-0.007812,-1.238,-0.01008,0.0638,0.02875,3.0,0.0,8.086,-0.0,0.0,0.5674,0.0
1738229347035659313,0,0,0,0,0,0,0,0,0,3.09,-0.0085,7.992,0.1289,0.03516,-0.746,-0.02649,0.0666,0.03003,3.0,0.0,8.15,-0.0,0.0,0.756,0.0
1738229347085655689,0,0,0,0,0,0,0,0,0,3.094,-0.00778,7.977,0.1406,0.03125,-0.6055,-0.02492,0.0677,0.03238,3.0,0.0,8.15,-0.0,0.0,0.756,0.0
1738229347135662555,0,0,0,0,0,0,0,0,0,3.105,-0.004383,7.918,0.1523,0.04688,-0.414,-0.02686,0.0975,0.02815,3.0,0.0,8.234,-0.0,0.0,0.937,0.0
1738229347185622453,0,0,0,0,0,0,0,0,0,3.105,-0.004383,7.918,0.1523,0.04688,-0.414,-0.02686,0.0975,0.02815,3.0,0.0,8.234,-0.0,0.0,0.937,0.0
1738229347235653877,0,0,0,0,0,0,0,0,0,3.117,-0.0004802,7.906,0.1406,0.04688,-0.336,-0.0315,0.1131,0.02916,3.0,0.0,8.336,-0.0,0.0,1.108,0.0
1738229347285627126,0,0,0,0,0,0,0,0,0,3.117,-0.0004802,7.906,0.1406,0.04688,-0.336,-0.0315,0.1131,0.02916,3.0,0.0,8.336,-0.0,0.0,1.108,0.0
1738229347335670948,0,0,0,0,0,0,0,0,0,3.129,0.00592,7.895,0.0586,0.04688,0.2188,-0.04654,0.1399,0.02588,3.0,0.0,8.45,-0.0,0.0,1.27,0.0
1738229347385641813,0,0,0,0,0,0,0,0,0,3.129,0.006332,7.9,0.03906,0.03906,0.3672,-0.05084,0.14,0.02533,3.0,0.0,8.45,-0.0,0.0,1.27,0.0
1738229347435649633,0,0,0,0,0,0,0,0,0,3.129,0.006332,7.9,0.03906,0.03906,0.3672,-0.05084,0.14,0.02533,3.0,0.0,8.586,-0.0,0.0,1.417,0.0
1738229347485621929,0,0,0,0,0,0,0,0,0,3.127,0.01202,7.938,-0.03516,0.04297,0.5586,-0.05936,0.1545,0.02113,3.0,0.0,8.586,-0.0,0.0,1.417,0.0
1738229347535632133,0,0,0,0,0,0,0,0,0,3.123,0.01269,7.973,-0.1133,0.007812,0.75,-0.07477,0.1827,0.02283,3.0,0.0,8.734,-0.0,0.0,1.551,0.0
1738229347585624217,0,0,0,0,0,0,0,0,0,3.11,0.0114,8.02,-0.1992,-0.02344,1.043,-0.07306,0.1802,0.02455,3.0,0.0,8.734,-0.0,0.0,1.551,0.0
1738229347635658979,0,0,0,0,0,0,0,0,0,3.092,0.009796,8.09,-0.3164,-0.03516,1.285,-0.0736,0.1747,0.02432,3.0,0.0,8.9,-0.0,0.0,1.669,0.0
1738229347685662269,0,0,0,0,0,0,0,0,0,3.082,0.00819,8.13,-0.3516,-0.0547,1.434,-0.076,0.1741,0.02426,3.0,0.0,8.9,-0.0,0.0,1.669,0.0
1738229347735651493,0,0,0,0,0,0,0,0,0,3.055,0.00248,8.234,-0.4258,-0.08984,1.8125,-0.0753,0.1624,0.02586,3.0,0.0,9.07,-0.0,0.0,1.771,0.0
1738229347785657405,0,0,0,0,0,0,0,0,0,3.037,-0.001821,8.29,-0.457,-0.1133,1.988,-0.0744,0.1572,0.02612,3.0,0.0,9.07,-0.0,0.0,1.771,0.0
1738229347835670709,0,0,0,0,0,0,0,0,0,3.004,-0.01041,8.44,-0.535,-0.1445,2.219,-0.07104,0.1523,0.02716,3.0,0.0,9.25,-0.0,0.0,1.8545,0.0
1738229347885643005,0,0,0,0,0,0,0,0,0,2.984,-0.01582,8.5,-0.5586,-0.1523,2.29,-0.071,0.1565,0.02849,3.0,0.0,9.25,-0.0,0.0,1.8545,0.0
1738229347935653209,0,0,0,0,0,0,0,0,0,2.965,-0.02168,8.586,-0.582,-0.168,2.355,-0.07007,0.1594,0.0292,3.0,0.0,9.44,-0.0,0.0,1.92,0.0
1738229347985640048,0,0,0,0,0,0,0,0,0,2.922,-0.0338,8.73,-0.617,-0.1836,2.434,-0.06744,0.1584,0.02968,3.0,0.0,9.44,-0.0,0.0,1.92,0.0
1738229348035648822,0,0,0,0,0,0,0,0,0,2.883,-0.0458,8.9,-0.664,-0.2109,2.484,-0.06696,0.1469,0.0317,3.0,0.0,9.63,-0.0,0.0,1.967,0.0
1738229348085642337,0,0,0,0,0,0,0,0,0,2.863,-0.05212,8.95,-0.668,-0.2148,2.465,-0.0681,0.1394,0.03111,3.0,0.0,9.63,-0.0,0.0,1.967,0.0
